"id";"name";"city_name";"geometry_name";"post_code";"phone";"email";"website";"vkontakte";"instagram";"lon";"lat";"category";"subcategory"
"1";"Бургер Кинг, сеть ресторанов быстрого питания";"Москва";"улица Воздвиженка, 9 ст2";"119019";="+74955445000";"FeedBack@burgerking.ru, bk-308@burgerking.ru";"http://burgerkingrus.ru";"https://vk.com/burgerking";"";"37.603502";"55.752747";"Досуг / Развлечения / Общественное питание";"Быстрое питание, Доставка готовых блюд"
"2";"Тануки, сеть японских ресторанов";"Москва";"Пятницкая улица, 53";"115184";="+74996492223";"cc@tanuki.ru, piat@tanuki.ru";"http://tanukifamily.ru";"https://vk.com/tanuki.official";"";"37.627932";"55.734837";"Досуг / Развлечения / Общественное питание";"Доставка готовых блюд, Суши-бары / рестораны"
"3";"Кухня на районе, сервис заказа готовой еды";"Москва";"Подсосенский переулок, 26 ст3";"109028";="88007070833";"support@localkitchen.ru";"http://localkitchen.onelink.me/O9JV/590lqp5u";"";"";"37.653107";"55.755432";"Досуг / Развлечения / Общественное питание";"Доставка готовых блюд"
"4";"Якитория, японские рестораны";"Москва";"улица Новый Арбат, 10";"119019";="+74952342424, +74956904311";"";"http://www.yakitoriya.ru";"https://vk.com/yakitoriyaru";"";"37.59425";"55.753124";"Досуг / Развлечения / Общественное питание";"Суши-бары / рестораны, Доставка готовых блюд"
"5";"Суши wok, магазин суши";"Москва";"Сущёвская, 13/15 ст1";"127030";="+74997544444";"ok@sushiwok.ru";"http://sushiwok.ru/msk";"https://vk.com/sushiwok";"";"37.601716";"55.780883";"Продукты питания / Напитки";"Магазины ингредиентов азиатской кухни, Доставка готовых блюд, Суши-бары / рестораны"
"6";"Bellissima, ресторан";"Москва";"Ольховская, 23";"105066";="+74996887921";"banket@hotelmandarin.ru";"http://hotelmandarin.ru/?utm_source=2gis&utm_medium=cpc&utm_campaign=promo";"https://vk.com/mandarinhotel";"";"37.668059";"55.774729";"Досуг / Развлечения / Общественное питание";"Рестораны, Банкетные залы, Доставка готовых блюд"
"7";"The Rooms Cafe, гостинично-ресторанный комплекс";"Москва";"Николоямская улица, 38/23 ст3";"109004";="+74996887922";"banket@theroomshotel.ru";"http://events.theroomshotel.ru";"https://vk.com/rooms.boutique";"";"37.65822";"55.747109";"Досуг / Развлечения / Общественное питание";"Рестораны, Доставка готовых блюд, Кафе, Банкетные залы, Бары"
"8";"Пироги №1, служба доставки";"Москва";"улица Большие Каменщики, 9 ст Б";"115172";="+74994041075";"";"http://piroginomerodin.ru/?utm_source=2gis&utm_medium=2gis&utm_campaign=general_link";"https://vk.com/piroginomerodin";"";"37.655567";"55.738557";"Досуг / Развлечения / Общественное питание";"Доставка готовых блюд"
"9";"Vprok.ru Перекрёсток, онлайн-гипермаркет";"Москва";"";"";="+74957975777";"shop@vprok.ru";"http://darkstore.onelink.me/aH8K/ad1a0770";"https://vk.com/vprokru";"";"";"";"Торговые комплексы / Спецмагазины";"Доставка продуктов / хозтоваров, Доставка готовых блюд"
"10";"Subway";"Москва";"улица Рождественка, 5/7 ст2";"107031";="+79299355674";"48587@subway.ru";"http://subway.ru";"https://vk.com/subwayrussia";"";"37.623445";"55.761315";"Досуг / Развлечения / Общественное питание";"Быстрое питание, Доставка готовых блюд"
"11";"Vnukovo Village, гостинично-ресторанный комплекс";"д. Картмазово";"Киевская, 4";"108811";="+74996887932";"reserv@vnukovovillage.ru";"http://events.vnukovovillage.ru";"https://vk.com/vnukovo_village";"";"37.392223";"55.616472";"Спорт / Отдых / Туризм";"Гостиницы, Банкетные залы, Кейтеринг, Доставка готовых блюд, Рестораны"
"12";"Tvоя Pizza, Пункт самовывоза";"Москва";"3-я Владимирская улица, 30";"111401";="+74996492223";"cc@tanuki.ru, hotline@tanuki.ru";"http://tvoyapizza.ru";"https://vk.com/tvoyapizzadelivery";"";"37.78933";"55.754563";"Досуг / Развлечения / Общественное питание";"Доставка готовых блюд"
"13";"Шикари, сеть азиатских ресторанов";"Москва";"Комсомольский проспект, 28";"119146";="+74996660400, +79653192386";"";"http://www.shikary.ru";"https://vk.com/shikari_ru";"";"37.580665";"55.727062";"Досуг / Развлечения / Общественное питание";"Рестораны, Доставка готовых блюд"
"14";"Космик, сеть развлекательных центров";"Москва";"проспект Вернадского, 6";"119313";="+74956444229, +74956444232, +74956444231, +79260019452, +74956444228";"kapitoly_adm@cosmik.ru";"http://www.cosmik.ru";"";"";"37.528252";"55.692142";"Досуг / Развлечения / Общественное питание";"Боулинг, Бильярдные залы, Кафе, Бары, Доставка готовых блюд"
"15";"EDA premium, ресторан";"Москва";"улица Пудовкина, 3";"119285";="88005000358, +74951500933";"edapremium@yandex.ru";"http://edapremium.ru";"https://vk.com/public211102394";"";"37.531146";"55.726963";"Досуг / Развлечения / Общественное питание";"Доставка готовых блюд, Рестораны, Банкетные залы, Кафе"
"16";"Биджо, бистро";"Москва";"Профсоюзная, 15";"117218";="+74993933343, +79253251515";"bistrobidjo@mail.ru";"http://bistrobidjo.ru";"https://vk.com/bistro.bidjo";"";"37.565343";"55.67896";"Досуг / Развлечения / Общественное питание";"Доставка готовых блюд, Кафе, Бары, Рестораны, Банкетные залы"
"17";"Grill Grad, ресторанный комплекс";"Московский";"Солнечная, вл4а ст1";"108811";="+79850088000, +74992881089";"grillgrad@mail.ru";"http://grillgrad.ru";"";"";"37.3712";"55.586348";"Досуг / Развлечения / Общественное питание";"Рестораны, Банкетные залы, Доставка готовых блюд, Караоке-залы, Аренда беседок"
"18";"Гамбринус, сеть ресторанов";"Москва";"улица Сергия Радонежского, 8";"105120";="+74951280245";"ilicha@gambrinus.ru";"http://gambrinus.ru";"https://vk.com/gambrinusmoscow";"";"37.675356";"55.746684";"Досуг / Развлечения / Общественное питание";"Рестораны, Бары, Кафе, Банкетные залы, Доставка готовых блюд"
"19";"IL Патио, итальянский ресторан";"Москва";"Тверская-Ямская 1-я, 2 ст1";"127006";="+74996660400, +79653192420";"";"http://www.ilpatio.ru";"https://vk.com/ilpatio_ru";"";"37.596197";"55.770167";"Досуг / Развлечения / Общественное питание";"Рестораны, Доставка готовых блюд, Пиццерии"
"20";"Папа Джонс, Пиццерия №57";"Москва";"Большая Молчановка, 34 ст2";"121069";="+74957750794,,,5057";"feedback@papajohns.ru";"http://papajohns.ru/moscow?utm_medium=maps&utm_source=2gis";"https://vk.com/papajohnsru";"";"37.588685";"55.753784";"Досуг / Развлечения / Общественное питание";"Доставка готовых блюд, Пиццерии"
"21";"Zotman pizza, пиццерия";"Москва";"улица Солянка, 1/2 ст1";"109028";="+79266279464";"";"http://zotmanpizza.ru";"https://vk.com/zotman_pizza";"";"37.637247";"55.75413";"Досуг / Развлечения / Общественное питание";"Пиццерии, Доставка готовых блюд"
"22";"Tgi fridays, ресторан";"Москва";"Пресненская набережная, 2";"123112";="+79060600726";"tgifafimall@rosinter.ru";"http://tgifridays.ru";"https://vk.com/tgifridays_ru";"";"37.539195";"55.749416";"Досуг / Развлечения / Общественное питание";"Рестораны, Бары, Доставка готовых блюд"
"23";"Eshak, ресторан";"Одинцово";"Можайское шоссе, 122";"143005";="+74994003767, +79360001818";"";"http://www.eshak.ru";"https://vk.com/eshakru";"";"37.307305";"55.686087";"Досуг / Развлечения / Общественное питание";"Рестораны, Караоке-залы, Доставка готовых блюд"
"24";"Алло! Пицца, сеть пиццерий";"Москва";"Костромская, 14Б";"127549";="+74957300502";"info@allopizza.su";"http://allopizza.su/msk/bibirevo?utm_source=2gis&utm_medium=main+link&utm_campaign=bibirevo";"https://vk.com/allo_bibermedved";"";"37.598409";"55.884888";"Досуг / Развлечения / Общественное питание";"Пиццерии, Доставка готовых блюд, Кафе"
"25";"meat_coin, ресторан";"Москва";"Смоленская площадь, 5";"121099";="+74993946464";"";"http://meat-coin.com/msk";"";"";"37.58205";"55.748381";"Досуг / Развлечения / Общественное питание";"Рестораны, Доставка готовых блюд, Кейтеринг"
"26";"КОРНЕР КАФЕ";"Москва";"Композиторская, 17";"121099";="+79163371666, +79269284582";"cornercafe040@gmail.com";"http://www.cornercafekitchenmsk.com";"";"";"37.586921";"55.751278";"Досуг / Развлечения / Общественное питание";"Суши-бары / рестораны, Доставка готовых блюд"
"27";"#СибирьСибирь, ресторан";"Москва";"Смоленская, 8";"121099";="+74996525161";"";"http://didelivery.ru/sibirsibir_msk";"https://vk.com/sibirsibirmoscow";"";"37.580429";"55.746154";"Досуг / Развлечения / Общественное питание";"Рестораны, Доставка готовых блюд"
"28";"Pinzeria by Bontempi, кафе-пиццерия";"Москва";"Большой Знаменский переулок, 2 ст3";"119019";="+74952017330, +74952017340, +74996783009";"delivery@pinzeria.ru, info@pinzeria.ru";"http://www.pinzeria.ru";"";"";"37.602311";"55.74602";"Досуг / Развлечения / Общественное питание";"Пиццерии, Доставка готовых блюд"
"29";"Mandarin Combustible, коктейльный бар&ресторан паназиатской кухни";"Москва";"Малый Черкасский переулок, 2";"109012";="+74957450700";"mandarinbar@bk.ru";"";"https://vk.com/mandarinbar";"";"37.626094";"55.758395";"Досуг / Развлечения / Общественное питание";"Рестораны, Бары, Доставка готовых блюд"
"30";"Виват Пицца, сеть кафе";"Москва";"улица Петрозаводская, 24Б";"125414";="+74993703922";"info@vivatpizza.ru";"http://www.vivatpizza.ru";"https://vk.com/vivat_pizza";"";"37.494045";"55.866914";"Досуг / Развлечения / Общественное питание";"Пиццерии, Доставка готовых блюд, Рестораны, Кафе, Суши-бары / рестораны"
"31";"Lars Vegans, бразильская закусочная";"Москва";"Новодмитровская, 1 ст1";"127015";="+79268455485";"larsvegans@gmail.com";"http://larsvegans.ru";"https://vk.com/club173949514";"";"37.58476";"55.806272";"Досуг / Развлечения / Общественное питание";"Доставка готовых блюд, Кафе, Рестораны, Бары"
"32";"Гуси-Лебеди, ресторан";"Москва";"Измайловское шоссе, 71 к3в";"105187";="+79256457935";"";"";"https://vk.com/gusirest";"";"37.74661";"55.790382";"Досуг / Развлечения / Общественное питание";"Рестораны, Банкетные залы, Доставка готовых блюд, Бары, Кейтеринг"
"33";"TODA PIZZA, сеть семейных кафе";"Москва";"Саларьевская, 11";"108811";="+79993970714";"info@todapizza.ru";"http://todapizza.ru";"https://vk.com/todapizza";"";"37.414943";"55.616344";"Досуг / Развлечения / Общественное питание";"Кафе, Рестораны, Пиццерии, Доставка готовых блюд"
"34";"MoriartyBar & Kitchen на Трёхгорке, паб";"Москва";"улица Рочдельская, 15 ст35";"123376";="+79161653024";"orlyanskiy@moriartybar.ru";"http://moriartybar.ru";"https://vk.com/moriartybar";"";"37.563104";"55.756552";"Досуг / Развлечения / Общественное питание";"Бары, Рестораны, Кафе, Доставка готовых блюд, Организация и проведение праздников"
"35";"Мегрелия, ресторан грузинской кухни";"Москва";"улица Большие Каменщики, 1";"109044";="+79251132311";"megrelia_rest@mail.ru";"http://megrelia.ru";"https://vk.com/megrelia_rest";"";"37.654053";"55.739787";"Досуг / Развлечения / Общественное питание";"Рестораны, Доставка готовых блюд, Кафе, Банкетные залы, Бары"
"36";"The МОРЕ, морской ресторан";"Москва";"Маршала Тухачевского, 49";"123154";="+74992904243";"info@themore.ru";"http://www.themore.ru";"";"";"37.464554";"55.785165";"Досуг / Развлечения / Общественное питание";"Рестораны, Бары, Доставка готовых блюд"
"37";"My family values, кофейня и магазин цветов";"Москва";"Ленинградский проспект, 29 к2";"125284";="+79165912211, +79264611611";"info@myfamilyvalues.ru";"http://myfamilyvalues.ru";"https://vk.com/myfamilyvalues";"";"37.561975";"55.786174";"Торговые комплексы / Спецмагазины";"Цветы, Доставка цветов, Услуги праздничного оформления, Кондитерские изделия, Подарочная упаковка, Кафе, Доставка готовых блюд"
"38";"Чайхана халва, кафе";"Москва";"Люблинская улица, 60 ст1";"109382";="+79691057777, +79670886060";"chaihanahalva@mail.ru, chaihanahalva-top@ya.ru, chaihanahalva@gmail.com";"http://www.chaihana-halva.ru";"https://vk.com/id686323268";"";"37.738214";"55.674056";"Досуг / Развлечения / Общественное питание";"Кафе, Доставка готовых блюд, Банкетные залы, Рестораны, Пиццерии"
"39";"Bando, кафе";"Москва";"Автозаводская, 17 к1";"115280";="+74958186164";"marina_tsoy_1970@mail.ru";"http://bando-chiken.tilda.ws";"";"";"37.654047";"55.704685";"Досуг / Развлечения / Общественное питание";"Кафе, Доставка готовых блюд"
"40";"Bloom-n-brew, кофейня";"Москва";"Нижняя Красносельская, 35 ст50";"105066";="+79162285198, +79955084430, +79773376324";"hello@bloomnbrew.coffee";"http://bloomnbrew.com";"";"";"37.673318";"55.774688";"Досуг / Развлечения / Общественное питание";"Кофейни, Доставка готовых блюд"
"41";"Московское небо, ресторан";"Москва";"проспект Мира (ВДНХ), 119 ст422";"129223";="+74955327601, +79250316101, +79261205446, +74957486101";"banket.mosnebo@gmail.com";"http://mosnebo-restoran.ru";"https://vk.com/moskovskoenebo";"";"37.625685";"55.835335";"Досуг / Развлечения / Общественное питание";"Рестораны, Доставка готовых блюд, Банкетные залы"
"42";"ВкусВилл, магазин с доставкой полезных продуктов";"Москва";"Тверская улица, 9";"125009";="+74956638602, 88005508602, +79250194226";"info@izbenka.msk.ru";"http://vkusvill.ru/?utm_campaign=2gis_maps&utm_content=glavnaya&utm_medium=spravochnik&utm_source=2gis";"https://vk.com/vkusvill_ru";"";"37.610463";"55.760107";"Торговые комплексы / Спецмагазины";"Супермаркеты, Доставка продуктов / хозтоваров, Кулинарии, Доставка готовых блюд"
"43";"Les оle, ресторан";"Москва";"улица Петровка, 23/10 ст5";"107031";="+74950980203, +74951804660, +74952238686";"lesole1@yandex.ru";"http://lesole.com";"";"";"37.614844";"55.766261";"Досуг / Развлечения / Общественное питание";"Рестораны, Доставка готовых блюд, Организация и проведение праздников"
"44";"Hansik";"Москва";"Тверская улица, 9";"125009";="+79142489848, +79142911891";"hansikkorea@mail.ru";"";"";"";"37.610969";"55.759572";"Досуг / Развлечения / Общественное питание";"Быстрое питание, Доставка готовых блюд"
"45";"Биджо, хинкальный дом";"Москва";"Новаторов, 16а";"119421";="+74994311647";"bidjodom@mail.ru";"http://bidjodom.ru";"";"";"37.524081";"55.667141";"Досуг / Развлечения / Общественное питание";"Кафе, Рестораны, Доставка готовых блюд, Бары, Банкетные залы"
"46";"Югос, сербский ресторан";"Москва";"Донская улица, 15";"119049";="+74957404858, +79263929090";"yugos-restoran@mail.ru";"http://www.yugos-restoran.ru";"https://vk.com/yugos.restoran";"";"37.607919";"55.723765";"Досуг / Развлечения / Общественное питание";"Рестораны, Доставка готовых блюд, Банкетные залы"
"47";"Pho-house";"Москва";"Сокольническая площадь, 9а";"107014";="+79232279101";"";"";"";"";"37.679928";"55.790425";"Досуг / Развлечения / Общественное питание";"Быстрое питание, Доставка готовых блюд, Кафе"
"48";"Риччи Каприччи, ресторан";"Москва";"проспект Мира (ВДНХ), 119 ст523";"129223";="+79255999777, +79255960830";"";"http://ricci-capricci.ru";"";"";"37.634327";"55.832623";"Досуг / Развлечения / Общественное питание";"Рестораны, Доставка готовых блюд"
"49";"ТехникаБезОпасности, бар";"Москва";"Сущёвская, 21 ст10";"127030";="+79773089416";"";"http://www.stereopeoplegroup.ru";"";"";"37.600516";"55.782491";"Досуг / Развлечения / Общественное питание";"Бары, Кафе, Доставка готовых блюд"
"50";"Вкус Востока, чайхана";"Москва";"Пролетарский проспект, 20 к2";"115477";="+79258462228";"vkusvostoka24.ru@mail.ru";"http://vkusvostoka24.ru";"";"";"37.658053";"55.633191";"Досуг / Развлечения / Общественное питание";"Доставка готовых блюд, Кафе"
"51";"True cost, ресторан";"Москва";"улица Рочдельская, 15 ст8";"123376";="+74954452999";"";"http://true-cost.ru";"";"";"37.56392";"55.756955";"Досуг / Развлечения / Общественное питание";"Рестораны, Бары, Доставка готовых блюд"
"52";"Кофемания, ресторан";"Москва";"Лесная, 5";"125196";="+74994951527";"";"http://coffeemania.ru/restaurants/belaya-ploschad/?utm_source=pinbox&utm_medium=cpc&utm_campaign=geo#ресторан";"https://vk.com/coffeemaniaru";"";"37.586427";"55.777863";"Досуг / Развлечения / Общественное питание";"Кофейни, Доставка готовых блюд"
"53";"Циники, био-бистро";"Москва";"Богословский переулок, 8/15 ст1";"123104";="+79151551620";"";"http://cynicvegan.ru";"";"";"37.599646";"55.762578";"Досуг / Развлечения / Общественное питание";"Доставка готовых блюд, Диетические / соевые продукты, Кафе"
"54";"Бургер Кинг, сеть ресторанов быстрого питания";"Москва";"Земляной Вал улица, 26 ст1";"105064";="+74955445000";"FeedBack@burgerking.ru, bk-361@burgerking.ru";"http://burgerkingrus.ru";"https://vk.com/burgerking";"";"37.657289";"55.758253";"Досуг / Развлечения / Общественное питание";"Быстрое питание, Доставка готовых блюд"
"55";"Uilliam`s, ресторан";"Москва";"Малая Бронная, 20а";"123104";="+74956506462, +79252069046";"";"http://uilliams.moscow";"";"";"37.595507";"55.762424";"Досуг / Развлечения / Общественное питание";"Рестораны, Доставка готовых блюд"
"56";"Вкусно — и точка";"Реутов";"Носовихинское шоссе, 12";"143965";="";"";"http://vkusnoitochka.ru";"https://vk.com/vkusno_itochka";"";"37.862719";"55.746036";"Досуг / Развлечения / Общественное питание";"Быстрое питание, Доставка готовых блюд"
"57";"Му-му, сеть кафе";"Москва";"Баррикадная, 21/34 ст3";"123242";="+74957818781, +74996784037";"dostavka@cafemumu.ru";"http://www.cafemumu.ru";"https://vk.com/cafemumu";"";"37.579506";"55.760554";"Досуг / Развлечения / Общественное питание";"Быстрое питание, Кулинарии, Кафе, Доставка готовых блюд"
"58";"Практика by Darvin, винный бар";"Москва";"улица Малая Дмитровка, 6 ст1";"127006";="+79260096565";"";"http://praktikagroup.com";"";"";"37.606562";"55.767778";"Досуг / Развлечения / Общественное питание";"Бары, Кафе, Доставка готовых блюд"
"59";"KFC, ресторан быстрого обслуживания";"Москва";"Комсомольский проспект, 24 ст1";"119021";="88005558333, 88007075477, +74950211292";"";"http://www.kfc.ru";"https://vk.com/kfcrussia";"";"37.580903";"55.727896";"Досуг / Развлечения / Общественное питание";"Быстрое питание, Доставка готовых блюд"
"60";"Riesling boyz, бар";"Москва";"улица Сретенка, 16/2";"107045";="+79252553334";"";"http://rieslingboyz.ru";"https://vk.com/rieslingboyz";"";"37.632113";"55.768432";"Досуг / Развлечения / Общественное питание";"Рестораны, Бары, Доставка готовых блюд"
"61";"The Waterfront, кафе";"Москва";"улица Большая Полянка, 51а";"119180";="+79099564266";"";"http://thewaterfront.ru";"https://vk.com/thewaterfront";"";"37.620659";"55.732025";"Досуг / Развлечения / Общественное питание";"Доставка готовых блюд, Продажа кофе, Кофейни"
"62";"Found Record Store&Pizzeria, пиццерия";"Москва";"Цветной бульвар, 15 ст1";"127051";="+74952150835, +79264580806";"";"";"";"";"37.620727";"55.771126";"Досуг / Развлечения / Общественное питание";"Рестораны, Пиццерии, Доставка готовых блюд"
"63";"Tutta la vita, бар-ресторан";"Москва";"Большая Ордынка, 20 ст7";"119017";="+74957821870, +74951145020";"";"http://www.tuttalavita.ru";"";"";"37.624648";"55.741102";"Досуг / Развлечения / Общественное питание";"Рестораны, Доставка готовых блюд"
"64";"The rink, кафе";"д. Сколково";"Новая, ст100";"143030";="+79672992211";"";"http://therink.ru";"";"";"37.386767";"55.692727";"Досуг / Развлечения / Общественное питание";"Кафе, Доставка готовых блюд"
"65";"Rebbelion clubhouse, кофейня";"Москва";"Петровский бульвар, 8 ст1";"127051";="";"";"http://www.theclubhouse.ru/linkinbio";"";"";"37.616084";"55.767661";"Досуг / Развлечения / Общественное питание";"Кофейни, Доставка готовых блюд"
"66";"Вкусно — и точка";"Москва";"Покрышкина, 2";"119602";="";"";"http://vkusnoitochka.ru";"https://vk.com/vkusno_itochka";"";"37.481335";"55.66417";"Досуг / Развлечения / Общественное питание";"Быстрое питание, Доставка готовых блюд"
"67";"Сыроварня, ресторан";"Москва";"Лесная, 20 ст4";"125196";="";"";"http://www.syrovarnya.com";"";"";"37.591483";"55.779573";"Досуг / Развлечения / Общественное питание";"Рестораны, Сыры, Доставка готовых блюд"
"68";"Soho country club, ресторан";"д. Раздоры";"Мякининское шоссе 1 км, ст3";"143082";="+74995500500, +79859209585";"";"http://sohocountry.com";"https://vk.com/soho.countryclub";"";"37.353259";"55.797538";"Досуг / Развлечения / Общественное питание";"Рестораны, Банкетные залы, Доставка готовых блюд"
"69";"Вкусно — и точка";"Москва";"Каширское шоссе, 61/15";"115563";="";"";"http://vkusnoitochka.ru";"https://vk.com/vkusno_itochka";"";"37.718045";"55.612219";"Досуг / Развлечения / Общественное питание";"Быстрое питание, Доставка готовых блюд"
"70";"Кофемания, ресторан";"Москва";"Ленинградский проспект, 37а к14 ст6";"125167";="+74994954235";"";"http://coffeemania.ru/restaurants/arcus/?utm_source=pinbox&utm_medium=cpc&utm_campaign=geo#ресторан";"https://vk.com/coffeemaniaru";"";"37.542862";"55.790913";"Досуг / Развлечения / Общественное питание";"Кофейни, Доставка готовых блюд"
"71";"Энтузиаст, мотокафе";"Москва";"переулок Столешников, 7 ст5";"107031";="+79153304098";"";"http://enthusiastmoscow.ru";"";"";"37.6142";"55.763836";"Досуг / Развлечения / Общественное питание";"Кафе, Бары, Доставка готовых блюд"
"72";"Тануки, сеть японских ресторанов";"Москва";"Большой Златоустинский переулок, 1 ст1";"101000";="+74996492223";"cc@tanuki.ru, zlatoustinskiy@tanuki.ru";"http://tanukifamily.ru";"https://vk.com/tanuki.official";"";"37.631737";"55.759757";"Досуг / Развлечения / Общественное питание";"Доставка готовых блюд, Суши-бары / рестораны"
"73";"Рыбы нет, мясной ресторан";"Москва";"улица Никольская, 12";"109012";="+74952584206, +79851875645, +79167266950";"";"http://nofishrest.ru";"";"";"37.625152";"55.758888";"Досуг / Развлечения / Общественное питание";"Рестораны, Доставка готовых блюд"
"74";"Live stars, клуб-ресторан";"Москва";"Берсеневский переулок, 5 ст2";"119072";="+74993752014";"";"http://livestarsclub.ru";"https://vk.com/livestarsclub";"";"37.609918";"55.741204";"Досуг / Развлечения / Общественное питание";"Ночные клубы, Рестораны, Бары, Доставка готовых блюд"
"75";"Mercedes, бар";"Москва";"Кутузовский проспект, 2/1 ст1";"121248";="+74952298309";"";"http://mercedesbarmoscow.ru";"https://vk.com/mercedesbar_moscow";"";"37.566246";"55.75166";"Досуг / Развлечения / Общественное питание";"Бары, Доставка готовых блюд, Рестораны"
"76";"Teika boom by Ksenia Borodina, семейный ресторан и активити-парк";"Москва";"Автозаводская, 18";"115280";="88002221318";"";"http://teikaboom.ru";"https://vk.com/teikaboom_official";"";"37.643434";"55.705232";"Досуг / Развлечения / Общественное питание";"Кафе, Организация и проведение праздников, Детские игровые залы / Игротеки, Аттракционы, Доставка готовых блюд"
"77";"Angel сakes, кофейня";"Москва";"1-й Красногвардейский проезд, 22 ст2";"123317";="+79883978155, +79168611010";"";"http://angelcakes.ru";"";"";"37.534424";"55.751389";"Продукты питания / Напитки";"Кондитерские изделия, Кофейни, Доставка готовых блюд, Продажа кофе, Кулинарии"
"78";"Mission, бар";"Москва";"Спартаковская, 3 ст3";"105066";="+79261587820";"";"http://mission.moscow";"";"";"37.67077";"55.770519";"Досуг / Развлечения / Общественное питание";"Бары, Доставка готовых блюд, Кафе"
"79";"Краснодарский Парень, бургерная";"Балашиха";"улица Советская, 36Б";"143902";="+74951206535";"";"http://balashiha.krd-paren.ru";"https://vk.com/krdparen_balashikha";"";"37.957533";"55.813028";"Досуг / Развлечения / Общественное питание";"Доставка готовых блюд, Кафе"
"80";"Рыба моя, рыбный ресторан";"Москва";"Тверская-Ямская 1-я, 21";"125047";="+74952293177";"";"http://myfish.msk.ru";"";"";"37.587355";"55.774428";"Досуг / Развлечения / Общественное питание";"Рестораны, Доставка готовых блюд"
"81";"Littles kids play cafe, семейный ресторан";"Москва";"улица Сергея Макеева, 9 к1";"123100";="+79019019441";"";"http://littleskidscafe.ru";"";"";"37.549943";"55.760688";"Досуг / Развлечения / Общественное питание";"Рестораны, Доставка готовых блюд"
"82";"Sisters, кафе";"Москва";"улица Покровка, 6";"101000";="+79955071150";"";"http://sisterscafe.ru";"";"";"37.642275";"55.758792";"Досуг / Развлечения / Общественное питание";"Кафе, Доставка готовых блюд"
"83";"KFC, ресторан быстрого обслуживания";"Москва";"Комсомольская площадь, 3";"107140";="88005558333, 88007075477";"";"http://www.kfc.ru";"https://vk.com/kfcrussia";"";"37.654845";"55.777571";"Досуг / Развлечения / Общественное питание";"Быстрое питание, Доставка готовых блюд"
"84";"O`Donoghue`s, паб";"Москва";"Пятницкая улица, 29";"115184";="+74950980338";"";"http://odpub.ru";"";"";"37.629219";"55.740891";"Досуг / Развлечения / Общественное питание";"Бары, Кафе, Доставка готовых блюд"
"85";"Сыроварня, ресторан";"Москва";"Крымский Вал улица, 9 ст1";"119049";="+79685256500";"";"http://www.novikovgroup.ru/restaurants/syrovarnya/syrovarnya_379.html";"";"";"37.604446";"55.731475";"Досуг / Развлечения / Общественное питание";"Рестораны, Доставка готовых блюд"
"86";"Козловица, чешская пивная";"Москва";"улица Сретенка, 4";"107045";="+74956216164, +74956280885";"";"http://kozlovica.ru";"https://vk.com/kozlovna.kozlovica";"";"37.631718";"55.766996";"Досуг / Развлечения / Общественное питание";"Рестораны, Бары, Доставка готовых блюд"
"87";"Кимчи, корейский ресторан";"Москва";"Стремянный переулок, 26";"115054";="+74955140426, +74957488748";"";"http://kimchicafe.ru";"https://vk.com/kimchi_restaurant";"";"37.630627";"55.727918";"Досуг / Развлечения / Общественное питание";"Рестораны, Доставка готовых блюд"
"88";"Vаниль, ресторан";"Москва";"улица Остоженка, 1/9";"119034";="+74956371082";"";"http://vanil.ru";"https://vk.com/club49435182";"";"37.602279";"55.744169";"Досуг / Развлечения / Общественное питание";"Рестораны, Доставка готовых блюд"
"89";"Кофемания, ресторан";"Москва";"улица Большая Никитская, 13";"125009";="+74994951574";"";"http://coffeemania.ru/restaurants/nikitskaya/?utm_source=pinbox&utm_medium=cpc&utm_campaign=geo#ресторан";"https://vk.com/coffeemaniaru";"";"37.604853";"55.756484";"Досуг / Развлечения / Общественное питание";"Кофейни, Доставка готовых блюд"
"90";"Андерcон, семейное кафе-кондитерская";"Москва";"улица Льва Толстого, 23 к1";"119021";="+74954871705, +79037309818, +79032113322";"";"http://www.andersonresort.ru";"";"";"37.58338";"55.736114";"Досуг / Развлечения / Общественное питание";"Доставка готовых блюд, Кондитерские изделия, Организация и проведение праздников, Кафе, Кейтеринг"
"91";"Кофемания, ресторан";"Москва";"Малый Черкасский переулок, 2";"109012";="+74994951582";"";"http://coffeemania.ru/restaurants/grand-kofemaniya/?utm_source=pinbox&utm_medium=cpc&utm_campaign=geo#ресторан";"https://vk.com/coffeemaniaru";"";"37.626546";"55.75861";"Досуг / Развлечения / Общественное питание";"Кофейни, Доставка готовых блюд"
"92";"Flaner, ресторан";"Москва";"Кривоколенный переулок, 7";"101000";="+79969644488";"";"http://flanermoscow.ru";"";"";"37.63669";"55.76249";"Досуг / Развлечения / Общественное питание";"Рестораны, Бары, Доставка готовых блюд"
"93";"КолиzейХолл, ресторанно-банкетный комплекс";"Москва";"улица Кондратюка, 1а";"129515";="+74955183030, +74956878777, +79255183030";"";"http://kolizeyhall.ru";"";"";"37.636815";"55.819564";"Досуг / Развлечения / Общественное питание";"Рестораны, Банкетные залы, Доставка готовых блюд"
"94";"Scramble, кафе";"Москва";"улица Спиридоновка, 24/1";"123001";="+79100046067";"";"http://friends-forever.ru";"";"";"37.591776";"55.761702";"Продукты питания / Напитки";"Кондитерские изделия, Кафе, Доставка готовых блюд"
"95";"Вкусно — и точка";"Москва";"Ленинградский проспект, 80 к21";"125315";="";"";"http://vkusnoitochka.ru";"https://vk.com/vkusno_itochka";"";"37.513086";"55.809096";"Досуг / Развлечения / Общественное питание";"Быстрое питание, Доставка готовых блюд"
"96";"Айва, чайхана";"Москва";"Павелецкая площадь, 1";"115114";="+79850060405";"";"";"";"";"37.640858";"55.731679";"Досуг / Развлечения / Общественное питание";"Кафе, Доставка готовых блюд"
"97";"Leningrad, клуб-ресторан";"Москва";"Ленинградский проспект, 24а ст7";"125040";="+79057030806";"";"http://clubleningrad.ru";"https://vk.com/leningradclub";"";"37.574481";"55.783618";"Досуг / Развлечения / Общественное питание";"Рестораны, Ночные клубы, Караоке-залы, Банкетные залы, Доставка готовых блюд"
"98";"Токио-city, городской ресторан";"Одинцово";"Можайское шоссе, 121Б";"143005";="+74959001000, 88005111000, +74959001019";"";"http://www.tokyo-city.ru";"https://vk.com/club_tokyocity";"";"37.291492";"55.682156";"Досуг / Развлечения / Общественное питание";"Рестораны, Доставка готовых блюд"
"99";"Клево, рыбный ресторан";"Москва";"улица Петровка, 27";"107031";="+74957901596";"";"http://klevorest.ru";"";"";"37.613543";"55.76785";"Досуг / Развлечения / Общественное питание";"Рестораны, Доставка готовых блюд"
"100";"Пифагор, ресторан";"Москва";"Трубная площадь, 2";"107031";="+74957555015";"";"";"";"";"37.623149";"55.766511";"Досуг / Развлечения / Общественное питание";"Рестораны, Доставка готовых блюд"
"101";"CoffeeBar`17, кофейня";"Москва";"Головинское шоссе, 10Б";"125212";="";"";"";"https://vk.com/coffeebar17";"";"37.496759";"55.836571";"Продукты питания / Напитки";"Продажа кофе, Кондитерские изделия, Кофейни, Доставка готовых блюд"
"102";"Бургер Кинг, сеть ресторанов быстрого питания";"Щёлково";"Пролетарский проспект, 10";"141100";="+74955445000";"FeedBack@burgerking.ru";"http://burgerkingrus.ru";"https://vk.com/burgerking";"";"38.000986";"55.924147";"Досуг / Развлечения / Общественное питание";"Быстрое питание, Доставка готовых блюд"
"103";"Al ponte, кафе";"Химки";"Набережный проезд, 1 к1";"141402";="+79254790880";"";"";"";"";"37.441387";"55.95996";"Досуг / Развлечения / Общественное питание";"Кафе, Доставка готовых блюд"
"104";"Гиссар, чайхана";"Красногорск";"Железнодорожный переулок, 7Б";"143402";="+79684754949";"";"";"https://vk.com/chaihanagissar";"";"37.341334";"55.817052";"Досуг / Развлечения / Общественное питание";"Кафе, Доставка готовых блюд"
"105";"Mac&Cheese, кафе быстрого питания";"Москва";"Театральный проезд, 5 ст1";"109012";="+79254395608, +79253193949";"";"";"";"";"37.624865";"55.760394";"Досуг / Развлечения / Общественное питание";"Быстрое питание, Доставка готовых блюд"
"106";"Domino`s Pizza, пиццерия";"Москва";"Ходынский бульвар, 22";"125252";="88003331616, +74959000143";"";"http://dominospizza.ru/?st=co&utm_source=2gis&utm_medium=maps&utm_campaign=2gis_maps_msk&utm_content=akcia_68";"https://vk.com/dominospizzarussia";"";"37.524835";"55.791273";"Досуг / Развлечения / Общественное питание";"Пиццерии, Доставка готовых блюд"
"107";"Якитория, японские рестораны";"Балашиха";"Октябрьская, 1 к1";"143980";="+74952342424, +74955220909";"";"http://www.yakitoriya.ru";"https://vk.com/yakitoriyaru";"";"38.005021";"55.751055";"Досуг / Развлечения / Общественное питание";"Суши-бары / рестораны, Доставка готовых блюд"
"108";"Белый Город, ресторан";"Москва";"улица Петрозаводская, 1";"125502";="+79269269222";"";"http://bel-gorod.ru";"";"";"37.502329";"55.863532";"Досуг / Развлечения / Общественное питание";"Рестораны, Банкетные залы, Доставка готовых блюд"
"109";"Сказка lounge, ресторан";"Дзержинский";"Ленина, 23";"140090";="+74955058112, +79161127817";"";"http://skazka-lounge.ru";"https://vk.com/club209913617";"";"37.847769";"55.63244";"Досуг / Развлечения / Общественное питание";"Рестораны, Банкетные залы, Доставка готовых блюд"
"110";"Однажды в Самарканде, чайхана";"Москва";"проезд Стратонавтов, 12 ст1";"125424";="+74951250908";"";"http://vsamarkande.ru";"";"";"37.435231";"55.827836";"Досуг / Развлечения / Общественное питание";"Кафе, Доставка готовых блюд"
"111";"Додо Пицца, сеть пиццерий";"Москва";"Суздальская, 30/2";"111673";="88003020060";"feedback@dodopizza.com";"http://dodopizza.onelink.me/YlkM?pid=2GIS&af_web_dp=https%3A%2F%2Fdodopizza.ru%2F%3Futm_source%3D2gis%26utm_medium%3Dbanner%26utm_campaign%3Dpremium_card&c=2GIS.maps&af_dp=dodo%3A%2F%2Fmain&af_click_lookback";"https://vk.com/dodomsk";"";"37.86349";"55.743554";"Досуг / Развлечения / Общественное питание";"Доставка готовых блюд, Пиццерии"
"112";"Шоколадница, кофейня";"Москва";"Сиреневый бульвар, 31";"105215";="+79164841331";"";"http://shoko.ru";"https://vk.com/shokoru";"";"37.79965";"55.803637";"Досуг / Развлечения / Общественное питание";"Кофейни, Доставка готовых блюд"
"113";"Штолле, кафе-пироговая";"Москва";"Марксистская, 5";"109147";="+74956444045";"";"http://msk.stolle.ru";"https://vk.com/stolle_msk";"";"37.663098";"55.737691";"Досуг / Развлечения / Общественное питание";"Доставка готовых блюд, Кафе"
"114";"БлинБери, блинная быстрого обслуживания";"Москва";"улица Вавилова, 64";"119261";="88005502220";"";"http://блинбери.рф";"https://vk.com/blinberryrf";"";"37.550919";"55.684141";"Досуг / Развлечения / Общественное питание";"Быстрое питание, Доставка готовых блюд"
"115";"Bocconcino, пиццерия";"Москва";"Кутузовский проспект, 57";"121170";="+79269265926, +79299291929, +74952801554";"";"http://www.bocconcino.ru";"https://vk.com/bocconcino.moscow";"";"37.477467";"55.728382";"Досуг / Развлечения / Общественное питание";"Пиццерии, Рестораны, Доставка готовых блюд"
"116";"ВкусВилл, магазин с доставкой полезных продуктов";"пос. Коммунарка";"Бачуринская, 9а к1";"108814";="+74956638602, 88005508602";"info@izbenka.msk.ru";"http://vkusvill.ru/?utm_campaign=2gis_maps&utm_content=glavnaya&utm_medium=spravochnik&utm_source=2gis";"https://vk.com/vkusvill_ru";"";"37.480965";"55.579187";"Торговые комплексы / Спецмагазины";"Супермаркеты, Кулинарии, Доставка продуктов / хозтоваров, Доставка готовых блюд"
"117";"Novikov, ресторан-бар";"Москва";"Тверская улица, 3";"125009";="+74957975720";"";"http://novikovdelivery.ru";"";"";"37.613561";"55.75716";"Досуг / Развлечения / Общественное питание";"Доставка готовых блюд"
"118";"Шампури, шашлычная";"Щёлково";"Пролетарский проспект, ст6Б";"141100";="+79645183513";"";"";"";"";"37.997785";"55.918638";"Досуг / Развлечения / Общественное питание";"Быстрое питание, Доставка готовых блюд"
"119";"Восточный уют, ресторан";"Москва";"Енисейская, 12а";"129344";="+74954700515";"";"";"";"";"37.66147";"55.862831";"Досуг / Развлечения / Общественное питание";"Доставка готовых блюд, Банкетные залы, Рестораны"
"120";"Sandwich, кафе быстрого питания";"Москва";"Миклухо-Маклая, 11Б";"117198";="+79777774575";"";"http://sandwish.ru";"https://vk.com/sandwich_bistro";"";"37.502573";"55.652975";"Досуг / Развлечения / Общественное питание";"Быстрое питание, Доставка готовых блюд"
"121";"Вкус Востока, кафе";"Москва";"Малая Калужская, 15 ст4";"119071";="+79099377999";"";"";"";"";"37.598136";"55.71814";"Досуг / Развлечения / Общественное питание";"Кафе, Доставка готовых блюд"
"122";"More Poke, кафе гавайской кухни";"Москва";"улица Краснобогатырская, 90 ст2";"107076";="+79197774133";"";"http://moscow.morepoke.ru";"";"";"37.710602";"55.801134";"Досуг / Развлечения / Общественное питание";"Кафе, Доставка готовых блюд"
"123";"Вкусно — и точка";"с. Быково";"Шоссейная, 238";"140153";="";"";"http://vkusnoitochka.ru";"https://vk.com/vkusno_itochka";"";"38.070199";"55.611238";"Досуг / Развлечения / Общественное питание";"Быстрое питание, Доставка готовых блюд"
"124";"Оранжевый экспресс, семейное кафе и служба доставки";"Домодедово";"Вокзальная, 59в";"142006";="+74952121383";"";"http://pizza-sushi.com";"https://vk.com/orange_express";"";"37.817826";"55.404097";"Досуг / Развлечения / Общественное питание";"Доставка готовых блюд"
"125";"ВкусВилл, магазин с доставкой полезных продуктов";"Люберцы";"Кирова, 1";"140002";="+74956638602, 88005508602, +79256253129";"info@izbenka.msk.ru";"http://vkusvill.ru/?utm_campaign=2gis_maps&utm_content=glavnaya&utm_medium=spravochnik&utm_source=2gis";"https://vk.com/vkusvill_ru";"";"37.861694";"55.691497";"Торговые комплексы / Спецмагазины";"Супермаркеты, Доставка продуктов / хозтоваров, Кулинарии, Доставка готовых блюд"
"126";"Алёнка, фирменный магазин кондитерских изделий";"Москва";"";"115470";="88004441496, 88002005599";"";"http://alenka.ru";"https://vk.com/shopalenka";"";"37.665023";"55.679514";"Продукты питания / Напитки";"Кондитерские изделия, Доставка готовых блюд"
"127";"Фабрика Andy, кафе";"д. Глухово";"Центральная, 43";"143421";="+79800007700";"";"http://fabrica-andy.ru";"https://vk.com/fabrica_andy";"";"37.252536";"55.771914";"Досуг / Развлечения / Общественное питание";"Кафе, Банкетные залы, Доставка готовых блюд"
"128";"Domino`s Pizza, пиццерия";"Москва";"улица Просторная, 6";"107392";="88003331616, +74954788882";"";"http://dominospizza.ru/?st=co&utm_source=2gis&utm_medium=maps&utm_campaign=2gis_maps_msk&utm_content=akcia_68";"https://vk.com/dominospizzarussia";"";"37.715928";"55.804875";"Досуг / Развлечения / Общественное питание";"Пиццерии, Доставка готовых блюд"
"129";"Вкусно — и точка";"Москва";"Староватутинский проезд, 14";"129281";="";"";"http://vkusnoitochka.ru";"https://vk.com/vkusno_itochka";"";"37.665831";"55.875939";"Досуг / Развлечения / Общественное питание";"Быстрое питание, Доставка готовых блюд"
"130";"Апшерон, ресторан";"Подольск";"улица Машиностроителей, 3";"142115";="+79260667677, +79687590150";"";"http://restoran-apsheron.ru";"";"";"37.565919";"55.410694";"Досуг / Развлечения / Общественное питание";"Рестораны, Доставка готовых блюд"
"131";"Boncake, кафе";"Реутов";"Юбилейный проспект, 47";"143962";="+79254720022";"";"http://boncake.cafe";"";"";"37.876678";"55.752524";"Досуг / Развлечения / Общественное питание";"Кафе, Доставка готовых блюд"
"132";"Милти, магазин готовой еды";"Москва";"Новослободская, 4";"127055";="+74952151311";"";"http://mealty.ru";"https://vk.com/mealty";"";"37.602065";"55.779687";"Досуг / Развлечения / Общественное питание";"Кулинарии, Доставка готовых блюд"
"133";"Дом с мезонином, ресторан";"Коломна";"Лажечникова, 4";"140400";="+74956424226, +79255072203";"";"http://dommezonin.ru";"https://vk.com/dommezonin";"";"38.754005";"55.102834";"Досуг / Развлечения / Общественное питание";"Рестораны, Доставка готовых блюд"
"134";"Узбечка, кафе-бистро";"Москва";"Киевское шоссе 23 км, 1";"108811";="";"";"";"";"";"37.422759";"55.622124";"Досуг / Развлечения / Общественное питание";"Быстрое питание, Доставка готовых блюд"
"135";"KFC, ресторан быстрого обслуживания";"Москва";"Покрышкина, 4";"119602";="88005558333, 88007075477, +74957816701";"";"http://www.kfc.ru";"https://vk.com/kfcrussia";"";"37.481491";"55.664862";"Досуг / Развлечения / Общественное питание";"Быстрое питание, Доставка готовых блюд"
"136";"Вкусно — и точка, Автокафе";"Москва";"Чертановская улица, 20 ст3";"117525";="";"";"http://vkusnoitochka.ru";"https://vk.com/vkusno_itochka";"";"37.593978";"55.624892";"Досуг / Развлечения / Общественное питание";"Быстрое питание, Доставка готовых блюд"
"137";"Гнездо, ресторан";"Щербинка";"40 лет Октября, 14а";"108851";="+79151358690, +74955056188";"";"";"";"";"37.574039";"55.511387";"Досуг / Развлечения / Общественное питание";"Рестораны, Доставка готовых блюд"
"138";"Sedelice, французская пекарня";"Москва";"Цветной бульвар, 21 ст1";"127051";="+79686232884, +79258536241";"";"http://sedelice.ru";"";"";"37.620837";"55.772232";"Продукты питания / Напитки";"Хлебобулочные изделия, Кондитерские изделия, Доставка готовых блюд"
"139";"Вкусно — и точка";"Москва";"Каширское шоссе, 80";"115569";="+74956601201";"";"http://vkusnoitochka.ru";"https://vk.com/vkusno_itochka";"";"37.709493";"55.624785";"Досуг / Развлечения / Общественное питание";"Быстрое питание, Доставка готовых блюд"
"140";"Эрмитаж, ресторан";"Москва";"Вишнёвая улица, 13";"125362";="+74954904900";"";"http://www.4904900.ru";"";"";"37.44741";"55.834887";"Досуг / Развлечения / Общественное питание";"Рестораны, Бары, Доставка готовых блюд"
"141";"Сапуре, грузинская пекарня";"Москва";"улица Маршала Мерецкова, 4";"123060";="+79636341361";"";"http://sapure.ru";"https://vk.com/sapurekitchen";"";"37.490382";"55.793988";"Досуг / Развлечения / Общественное питание";"Пекарни, Доставка готовых блюд, Быстрое питание"
"142";"Шанхайка, ресторан китайской кухни";"Москва";"Профсоюзная, 129а";"117574";="";"";"";"";"";"37.506477";"55.618948";"Досуг / Развлечения / Общественное питание";"Быстрое питание, Доставка готовых блюд"
"143";"ВкусВилл, магазин с доставкой полезных продуктов";"Москва";"Люсиновская, 36/50";"115093";="+74956638602, 88005508602, +79257861867";"info@izbenka.msk.ru";"http://vkusvill.ru/?utm_campaign=2gis_maps&utm_content=glavnaya&utm_medium=spravochnik&utm_source=2gis";"https://vk.com/vkusvill_ru";"";"37.621656";"55.722672";"Торговые комплексы / Спецмагазины";"Супермаркеты, Доставка продуктов / хозтоваров, Кулинарии, Доставка готовых блюд"
"144";"Дагестанская лавка, ресторан быстрого питания";"Москва";"Ленинградский проспект, 36";"125167";="+79689870505";"";"http://www.daglavka.com";"";"";"37.561532";"55.791968";"Досуг / Развлечения / Общественное питание";"Быстрое питание, Доставка готовых блюд"
"145";"Роллы №1, служба доставки блюд";"Москва";"улица Большие Каменщики, 9 к Е";"115172";="+74997557870";"";"http://mnogolososya.ru";"https://vk.com/mnogolososyaa";"";"37.656037";"55.738096";"Досуг / Развлечения / Общественное питание";"Доставка готовых блюд"
"146";"Пульчинелла, кафе-пиццерия";"Химки";"Совхозная улица, 16 к2";"141406";="+79993509497";"";"http://cafepulcinella.ru";"https://vk.com/pulcinella_himki";"";"37.480086";"55.902489";"Досуг / Развлечения / Общественное питание";"Банкетные залы, Доставка готовых блюд, Кафе"
"147";"KFC, ресторан быстрого обслуживания";"Москва";"Дубравная, 34/29";"125368";="88005558333, 88007075477, +79269006722";"";"http://www.kfc.ru";"https://vk.com/kfcrussia";"";"37.358708";"55.846313";"Досуг / Развлечения / Общественное питание";"Быстрое питание, Доставка готовых блюд"
"148";"Бургер Кинг, сеть ресторанов быстрого питания";"Москва";"Каховка, 29а";"117461";="+74955445000";"FeedBack@burgerking.ru";"http://burgerkingrus.ru";"https://vk.com/burgerking";"";"37.569313";"55.656208";"Досуг / Развлечения / Общественное питание";"Быстрое питание, Доставка готовых блюд"
"149";"Ngon, вьетнамское кафе";"Москва";"Автозаводская, 23 ст931 к5";"115280";="+79684046661, +79060099992";"";"";"";"";"37.658991";"55.690897";"Досуг / Развлечения / Общественное питание";"Быстрое питание, Доставка готовых блюд"
"150";"La вилка, кафе";"Москва";"улица Большие Каменщики, 9 ст С";"115172";="+79204942525";"";"";"";"";"37.654921";"55.738092";"Досуг / Развлечения / Общественное питание";"Кафе, Доставка готовых блюд"
"151";"Subway";"Москва";"Сельскохозяйственная улица, 17 к1";"129226";="+79250424140";"";"http://subway.ru";"https://vk.com/subwayrussia";"";"37.636474";"55.837595";"Досуг / Развлечения / Общественное питание";"Быстрое питание, Доставка готовых блюд"
"152";"Subway";"Москва";"Ленинградский проспект, 74 к6";"125315";="+79689613075";"";"http://subway.ru";"https://vk.com/subwayrussia";"";"37.516895";"55.806471";"Досуг / Развлечения / Общественное питание";"Быстрое питание, Доставка готовых блюд"
"153";"У Бурчо, ресторан";"Москва";"Садовническая набережная, 79";"115035";="+74959790642, +74957394574, +74956495754";"";"http://www.burcho.ru";"";"";"37.641657";"55.734733";"Досуг / Развлечения / Общественное питание";"Рестораны, Доставка готовых блюд"
"154";"Лепим и варим, кафе";"Москва";"Ленинградское шоссе, 16а ст4";"125171";="+79295006437";"";"http://www.lepimivarim.ru";"https://vk.com/lepimivarim";"";"37.496818";"55.823249";"Досуг / Развлечения / Общественное питание";"Быстрое питание, Доставка готовых блюд"
"155";"Милти, магазин готовой еды";"Москва";"Овчинниковская набережная, 22/24 ст1";"115035";="+74952151311";"";"http://mealty.ru";"https://vk.com/mealty";"";"37.632993";"55.743258";"Досуг / Развлечения / Общественное питание";"Кулинарии, Доставка готовых блюд"
"156";"Grao de cafe, ресторан";"Москва";"Пятницкая улица, 45";"119017";="+79266255555, +79268888058";"";"http://graocafe.moscow";"";"";"37.628349";"55.737453";"Досуг / Развлечения / Общественное питание";"Рестораны, Доставка готовых блюд"
"157";"Winners, кофейня";"Москва";"улица Берзарина, 30 к3";"123060";="88003005708, +79167381660";"";"http://winnerscoffee.ru";"";"";"37.473216";"55.789044";"Досуг / Развлечения / Общественное питание";"Кофейни, Доставка готовых блюд, Кондитерские изделия, Продажа кофе"
"158";"Сахар, арт-кафе";"Москва";"улица Барклая, 6 ст25";"121087";="+74991480800";"";"http://saxar.su";"https://vk.com/artsaxar";"";"37.509355";"55.741392";"Досуг / Развлечения / Общественное питание";"Кафе, Организация и проведение праздников, Бары, Доставка готовых блюд"
"159";"Хинкальная 11, кафе";"Москва";"улица Щербаковская, 11";"105318";="+79252757998";"";"http://khinkalnaia-11.ru";"";"";"37.72803";"55.78281";"Досуг / Развлечения / Общественное питание";"Кафе, Доставка готовых блюд"
"160";"Уми Суши, служба доставки и самовывоза готовых блюд";"Красногорск";"Ильинский бульвар, 9";"143410";="+79055509696";"";"http://sushipoima.ru";"https://vk.com/umisushipoima";"";"37.372292";"55.818432";"Досуг / Развлечения / Общественное питание";"Доставка готовых блюд"
"161";"Shaurma and People, кафе быстрого питания";"Москва";"Электродная, 2 ст32";"111524";="+79060892926";"";"http://shaurmaandpeople.ru";"";"";"37.753306";"55.753469";"Досуг / Развлечения / Общественное питание";"Быстрое питание, Доставка готовых блюд"
"162";"М&m, бургерная";"Москва";"Большая Татарская, 20 ст1";"115184";="+79166093669";"";"";"";"";"37.632534";"55.740467";"Досуг / Развлечения / Общественное питание";"Быстрое питание, Доставка готовых блюд"
"163";"Бургер Кинг, сеть ресторанов быстрого питания";"Королёв";"проспект Космонавтов, 23а";"141075";="+74955445000";"FeedBack@burgerking.ru, bk-334@burgerking.ru";"http://burgerkingrus.ru";"https://vk.com/burgerking";"";"37.868329";"55.915964";"Досуг / Развлечения / Общественное питание";"Быстрое питание, Доставка готовых блюд"
"164";"ВкусВилл, магазин с доставкой полезных продуктов";"Москва";"Молодогвардейская, 26 к1";"121351";="+74956638602, 88005508602, +79261606338";"info@izbenka.msk.ru";"http://vkusvill.ru/?utm_campaign=2gis_maps&utm_content=glavnaya&utm_medium=spravochnik&utm_source=2gis";"https://vk.com/vkusvill_ru";"";"37.418978";"55.734103";"Торговые комплексы / Спецмагазины";"Супермаркеты, Доставка продуктов / хозтоваров, Кулинарии, Доставка готовых блюд"
"165";"Волконский, кафе-пекарня";"Москва";"Плющиха, 53/25 ст1";"119121";="+79269419903";"";"http://wolkonsky.com";"https://vk.com/wolkonsky_official";"";"37.57652";"55.739045";"Досуг / Развлечения / Общественное питание";"Кофейни, Кондитерские изделия, Хлебобулочные изделия, Доставка готовых блюд"
"166";"Милти, магазин готовой еды";"Москва";"Красная Пресня, 23 к Б ст1";"123022";="+74952151311";"";"http://mealty.ru";"https://vk.com/mealty";"";"37.568203";"55.761795";"Досуг / Развлечения / Общественное питание";"Кулинарии, Доставка готовых блюд"
"167";"ВкусВилл, магазин с доставкой полезных продуктов";"Москва";"улица Расковой, 12";"125040";="+74956638602, 88005508602, +79257860506";"info@izbenka.msk.ru";"http://vkusvill.ru/?utm_campaign=2gis_maps&utm_content=glavnaya&utm_medium=spravochnik&utm_source=2gis";"https://vk.com/vkusvill_ru";"";"37.571478";"55.786609";"Торговые комплексы / Спецмагазины";"Супермаркеты, Доставка продуктов / хозтоваров, Кулинарии, Доставка готовых блюд"
"168";"PhoBo, кафе";"Москва";"Шарикоподшипниковская, 13";"115088";="+74952151199, +79175352295";"";"http://phobo.cafe/?utm_source=2gis_maps";"https://vk.com/phobo.cafe";"";"37.677292";"55.720541";"Досуг / Развлечения / Общественное питание";"Кафе, Доставка готовых блюд"
"169";"Лен и гречка, магазин-пекарня";"Москва";"Усачёва, 26";"119048";="+79168128519, +74951099193";"";"http://lenandgrechka.com";"";"";"37.567692";"55.72732";"Продукты питания / Напитки";"Кондитерские изделия, Пекарни, Быстрое питание, Доставка готовых блюд"
"170";"Kuzina, кондитерская";"Москва";"Ленинский проспект, 73/8";"119296";="+74952307288";"";"http://kuzina.ru";"https://vk.com/kuzina_russia";"";"37.547209";"55.688501";"Досуг / Развлечения / Общественное питание";"Доставка готовых блюд, Кафе-кондитерские"
"171";"Tokpokki, кафе корейской и японской еды";"Москва";"Складочная улица, 1 ст1";"127018";="+74953746470";"";"http://tokpokki.ru";"https://vk.com/tokpokkimsk";"";"37.595952";"55.800111";"Досуг / Развлечения / Общественное питание";"Быстрое питание, Доставка готовых блюд"
"172";"Старая Купавна, ресторан";"Старая Купавна";"Большая Московская улица, 116";"142450";="+79168505511";"";"http://kupavna-r.ru";"https://vk.com/kupavnarest";"";"38.182564";"55.811699";"Досуг / Развлечения / Общественное питание";"Рестораны, Доставка готовых блюд, Банкетные залы"
"173";"Han cook, корейское бистро";"Москва";"улица Вавилова, 64";"119261";="+79261230932";"";"";"";"";"37.550316";"55.683995";"Досуг / Развлечения / Общественное питание";"Быстрое питание, Доставка готовых блюд"
"174";"Грин Палас, ресторан-бильярдная";"Москва";"улица Грина, 15";"117216";="+74957131245, +74957131236";"";"http://greenpalace15.ru";"https://vk.com/greenbutovo";"";"37.564778";"55.568395";"Досуг / Развлечения / Общественное питание";"Рестораны, Бильярдные залы, Доставка готовых блюд, Банкетные залы"
"175";"Шаверма-братуха, точка быстрого питания";"Москва";"улица Планерная, 12 к1";"125481";="+79773950597";"";"http://bratukha.ru";"";"";"37.436755";"55.861633";"Досуг / Развлечения / Общественное питание";"Быстрое питание, Доставка готовых блюд"
"176";"Cinnabon, кафе-пекарня";"Москва";"Автозаводская, 18";"115280";="+74995798830";"";"http://cinnabonrussia.com";"https://vk.com/cinnabon_rus";"";"37.64047";"55.705169";"Досуг / Развлечения / Общественное питание";"Кофейни, Доставка готовых блюд"
"177";"Якитория, японские рестораны";"Щёлково";"Талсинская, 1";"141109";="+74952342424, +74962585878";"";"http://www.yakitoriya.ru";"https://vk.com/yakitoriyaru";"";"37.996309";"55.924975";"Досуг / Развлечения / Общественное питание";"Суши-бары / рестораны, Доставка готовых блюд"
"178";"Corneli pizza, пиццерия";"Москва";"улица Героев Панфиловцев, 7";"125480";="+74951200033";"";"http://www.cornelipizza.ru";"";"";"37.43233";"55.857294";"Досуг / Развлечения / Общественное питание";"Доставка готовых блюд, Быстрое питание"
"179";"Molletta, ресторан";"Москва";"Щепкина, 32 ст1";"129090";="+74953574737";"";"";"";"";"37.629433";"55.77963";"Досуг / Развлечения / Общественное питание";"Рестораны, Доставка готовых блюд"
"180";"Халва, чайхана";"Люберцы";"Новорязанское шоссе, 3 к1а";"140011";="";"";"";"";"";"37.861956";"55.674021";"Досуг / Развлечения / Общественное питание";"Быстрое питание, Доставка готовых блюд"
"181";"Umami ramen bistro, кафе быстрого питания";"Москва";"Космодамианская набережная, 52 ст3";"115035";="";"";"";"https://vk.com/umamiramenbistro";"";"37.644869";"55.732463";"Досуг / Развлечения / Общественное питание";"Быстрое питание, Доставка готовых блюд"
"182";"La Bellezza Паста&Пицца, ресторан";"Москва";"Большая Дорогомиловская, 11";"121151";="+79252002627";"";"http://labellezza.bar";"";"";"37.553426";"55.746003";"Досуг / Развлечения / Общественное питание";"Рестораны, Доставка готовых блюд"
"183";"Costa Coffee, сеть кофеен";"Москва";"улица Волхонка, 9 ст1";"119019";="+79233718153";"";"http://www.costacoffee.ru";"https://vk.com/costacoffeerussia";"";"37.607413";"55.747047";"Досуг / Развлечения / Общественное питание";"Кофейни, Доставка готовых блюд"
"184";"Domino`s Pizza, пиццерия";"Москва";"улица Дмитрия Ульянова, 12 к1";"117292";="88003331616, +74954788844";"";"http://dominospizza.ru/?st=co&utm_source=2gis&utm_medium=maps&utm_campaign=2gis_maps_msk&utm_content=akcia_68";"https://vk.com/dominospizzarussia";"";"37.568331";"55.689132";"Досуг / Развлечения / Общественное питание";"Пиццерии, Доставка готовых блюд"
"185";"ВкусВилл, магазин с доставкой полезных продуктов";"Москва";"Профсоюзная, 104";"117437";="+74956638602, 88005508602, +79257861870";"info@izbenka.msk.ru";"http://vkusvill.ru/?utm_campaign=2gis_maps&utm_content=glavnaya&utm_medium=spravochnik&utm_source=2gis";"https://vk.com/vkusvill_ru";"";"37.523632";"55.641149";"Торговые комплексы / Спецмагазины";"Супермаркеты, Доставка продуктов / хозтоваров, Кулинарии, Доставка готовых блюд"
"186";"ВкусВилл, магазин с доставкой полезных продуктов";"Москва";"Головинское шоссе, 5 к1";"125212";="+74956638602, 88005508602, +79257861840";"info@izbenka.msk.ru";"http://vkusvill.ru/?utm_campaign=2gis_maps&utm_content=glavnaya&utm_medium=spravochnik&utm_source=2gis";"https://vk.com/vkusvill_ru";"";"37.491175";"55.839887";"Торговые комплексы / Спецмагазины";"Супермаркеты, Доставка продуктов / хозтоваров, Кулинарии, Доставка готовых блюд"
"187";"Идель, ресторан татарской кухни";"Москва";"Мичуринский проспект, 29";"119607";="+79151251120";"";"http://idel.cafe";"";"";"37.498678";"55.696292";"Досуг / Развлечения / Общественное питание";"Доставка готовых блюд, Банкетные залы"
"188";"Хачапури, грузинский ресторан";"Москва";"улица Генерала Кузнецова, 22";"109156";="+79690808800";"";"http://restoran-hachapuri.ru";"";"";"37.854239";"55.685418";"Досуг / Развлечения / Общественное питание";"Рестораны, Доставка готовых блюд"
"189";"Каретный двор, кафе";"Москва";"улица Поварская, 52/55 ст3";"121069";="+79858513193, +79057830011, +79057810022";"";"";"";"";"37.585883";"55.757925";"Досуг / Развлечения / Общественное питание";"Кафе, Доставка готовых блюд"
"190";"Фергана, кафе";"Москва";"Платовская, 4";"121151";="+79164123634";"";"";"";"";"37.555251";"55.744806";"Досуг / Развлечения / Общественное питание";"Кафе, Доставка готовых блюд"
"191";"ВкусВилл, магазин с доставкой полезных продуктов";"Москва";"улица Октябрьская, 33";"127018";="+74956638602, 88005508602, +79253313597";"info@izbenka.msk.ru";"http://vkusvill.ru/?utm_campaign=2gis_maps&utm_content=glavnaya&utm_medium=spravochnik&utm_source=2gis";"https://vk.com/vkusvill_ru";"";"37.613326";"55.788777";"Торговые комплексы / Спецмагазины";"Супермаркеты, Доставка продуктов / хозтоваров, Кулинарии, Доставка готовых блюд"
"192";"Primitivo, ресторан";"Москва";"Никитский бульвар, 25";"119019";="+74952013260";"";"http://primitivo.ru";"";"";"37.598132";"55.756954";"Досуг / Развлечения / Общественное питание";"Рестораны, Доставка готовых блюд"
"193";"Додо Пицца, сеть пиццерий";"Москва";"Воронежская улица, 36 к1";"115597";="88003020060";"feedback@dodopizza.com";"http://dodopizza.onelink.me/YlkM?pid=2GIS&af_web_dp=https%3A%2F%2Fdodopizza.ru%2F%3Futm_source%3D2gis%26utm_medium%3Dbanner%26utm_campaign%3Dpremium_card&c=2GIS.maps&af_dp=dodo%3A%2F%2Fmain&af_click_lookback";"https://vk.com/dodomsk";"";"37.739846";"55.610506";"Досуг / Развлечения / Общественное питание";"Доставка готовых блюд, Пиццерии"
"194";"Милти, магазин готовой еды";"Москва";"улица Новинки, 1";"115470";="+74952151311";"";"http://mealty.ru";"https://vk.com/mealty";"";"37.666233";"55.677394";"Досуг / Развлечения / Общественное питание";"Кулинарии, Доставка готовых блюд"
"195";"Додо Пицца, сеть пиццерий";"Мытищи";"Белобородова, 15";"141006";="88003020060";"feedback@dodopizza.com";"http://dodopizza.onelink.me/YlkM?pid=2GIS&af_web_dp=https%3A%2F%2Fdodopizza.ru%2F%3Futm_source%3D2gis%26utm_medium%3Dbanner%26utm_campaign%3Dpremium_card&c=2GIS.maps&af_dp=dodo%3A%2F%2Fmain&af_click_lookback";"https://vk.com/dodomsk";"";"37.745322";"55.919672";"Досуг / Развлечения / Общественное питание";"Доставка готовых блюд, Пиццерии"
"196";"Хинкали Gали, кафе";"Москва";"Рабочая, 53 ст2";"109544";="+79255966691";"";"http://www.hinkaligali.ru";"";"";"37.690994";"55.739847";"Досуг / Развлечения / Общественное питание";"Кафе, Доставка готовых блюд"
"197";"Семейные традиции, ресторан";"Видное";"Школьная, 79а ст2";"142703";="+74957405825";"";"";"";"";"37.692686";"55.5512";"Досуг / Развлечения / Общественное питание";"Рестораны, Доставка готовых блюд"
"198";"Mr. A.An, кафе вьетнамской кухни";"Москва";"Люсиновская, 11/12 ст1";"115093";="+79663035610, +79854878866";"";"";"";"";"37.623519";"55.728107";"Досуг / Развлечения / Общественное питание";"Кафе, Доставка готовых блюд"
"199";"Fast Soup, кафе";"Москва";"Новодмитровская, 1 ст9";"127015";="+79268859419";"";"";"";"";"37.58331";"55.806936";"Досуг / Развлечения / Общественное питание";"Быстрое питание, Доставка готовых блюд"
"200";"Бургер Кинг, сеть ресторанов быстрого питания";"Москва";"Варшавское шоссе, 140";"117519";="+74955445000";"FeedBack@burgerking.ru, bk-233@burgerking.ru";"http://burgerkingrus.ru";"https://vk.com/burgerking";"";"37.607812";"55.611446";"Досуг / Развлечения / Общественное питание";"Быстрое питание, Доставка готовых блюд"
"201";"Алёнка, фирменный магазин кондитерских изделий";"Москва";"Спартаковская, 24";"105066";="88004441496, 88002005599";"";"http://alenka.ru";"https://vk.com/shopalenka";"";"37.676502";"55.772598";"Продукты питания / Напитки";"Кондитерские изделия, Доставка готовых блюд"
"202";"Милана, семейный ресторан";"Жуковский";"Менделеева, 12а";"140181";="+74951618668, +79262540154";"";"http://group.pizza-milana.ru/restaurants/zhukovskiy";"https://vk.com/milana_zhukovskiy.rest";"";"38.109416";"55.602905";"Досуг / Развлечения / Общественное питание";"Доставка готовых блюд, Рестораны"
"203";"7 элемент, кафе-бар";"Москва";"улица Новопесчаная, 10 ст1";"125252";="+74991575408, +79250377740, +79015150144";"";"http://7element-cafe.ru";"";"";"37.514396";"55.799186";"Досуг / Развлечения / Общественное питание";"Кафе, Бары, Доставка готовых блюд"
"204";"Очаг Гурманов, кафе";"Москва";"Каширское шоссе, 51 к3";"115211";="+74953447592, +79660783858";"";"http://ochag-gurmanov.ru";"";"";"37.690583";"55.640334";"Досуг / Развлечения / Общественное питание";"Банкетные залы, Кафе, Караоке-залы, Доставка готовых блюд"
"205";"Abrakadabra doner kebab, бистро";"Москва";"Большая Серпуховская, 17 ст1";"115093";="+79061817727";"";"";"";"";"37.626063";"55.727034";"Досуг / Развлечения / Общественное питание";"Быстрое питание, Доставка готовых блюд"
"206";"Шардени, грузинская лавка";"Люберцы";"Новорязанское шоссе, 1а/1";"140011";="+79255337379";"";"";"";"";"37.85848";"55.676796";"Досуг / Развлечения / Общественное питание";"Пекарни, Кулинарии, Быстрое питание, Доставка готовых блюд"
"207";"Дым шашлык, кафе";"Химки";"Юбилейный проспект, 51 к1";"141407";="+79659898988";"";"";"";"";"37.411937";"55.889609";"Досуг / Развлечения / Общественное питание";"Быстрое питание, Доставка готовых блюд"
"208";"Subway";"Москва";"проспект Вернадского, 6";"119313";="+79859277500";"subway65110@mail.ru";"http://subway.ru";"https://vk.com/subwayrussia";"";"37.527648";"55.692065";"Досуг / Развлечения / Общественное питание";"Быстрое питание, Доставка готовых блюд"
"209";"ВкусВилл, магазин с доставкой полезных продуктов";"Москва";"Новотушинский проезд, 10 к2";"125464";="+74956638602, 88005508602, +79257860503";"info@izbenka.msk.ru";"http://vkusvill.ru/?utm_campaign=2gis_maps&utm_content=glavnaya&utm_medium=spravochnik&utm_source=2gis";"https://vk.com/vkusvill_ru";"";"37.380795";"55.840559";"Торговые комплексы / Спецмагазины";"Супермаркеты, Доставка продуктов / хозтоваров, Кулинарии, Доставка готовых блюд"
"210";"Булошная, ресторанный дом";"Москва";"улица Новочерёмушкинская, 58";"117418";="+79651617161";"";"http://www.buloshnaya.ru";"";"";"37.563695";"55.668069";"Продукты питания / Напитки";"Кондитерские изделия, Кафе, Доставка готовых блюд"
"211";"Оранжевый экспресс, семейное кафе и служба доставки";"Домодедово";"Текстильщиков, 1ж";"142002";="+74952121383";"";"http://domodedovo.pizza-sushi.com";"https://vk.com/orange_express";"";"37.725067";"55.441211";"Досуг / Развлечения / Общественное питание";"Доставка готовых блюд, Кафе"
"212";"Kitchen, семейное кафе";"Москва";"Большая Марфинская, 4 к1";"127276";="88005502179, +79261240550";"";"http://cafe-kitchen.ru";"";"";"37.593563";"55.826659";"Досуг / Развлечения / Общественное питание";"Кафе, Кейтеринг, Кондитерские изделия, Доставка готовых блюд"
"213";"Тарелка, столовая другого формата";"Москва";"3-я улица Ямского Поля, 2 к26";"125124";="+79995455898";"";"http://www.tarelkas.ru";"https://vk.com/tarelka_life";"";"37.582354";"55.781926";"Досуг / Развлечения / Общественное питание";"Столовые, Доставка готовых блюд"
"214";"Aqua cafe, кофейня";"Москва";"Лужники, 24 ст4";"119048";="+74956635049";"";"";"";"";"37.559294";"55.712535";"Досуг / Развлечения / Общественное питание";"Доставка готовых блюд, Кофейни"
"215";"Cofefest, кофейня";"Москва";"Новогиреевская улица, 1 к3";"111123";="";"";"http://cofefest.ru";"https://vk.com/cofefest";"";"37.793902";"55.763669";"Досуг / Развлечения / Общественное питание";"Кофейни, Доставка готовых блюд"
"216";"Изюм, чайхана";"Солнечногорск";"Красноармейская, 8а ст1";"141508";="+79969757555, +79168664345";"";"";"";"";"36.993863";"56.182813";"Досуг / Развлечения / Общественное питание";"Кафе, Доставка готовых блюд"
"217";"Kool i cha, кафе-пекарня";"Москва";"Паромная, 9 к4";"115408";="+79260498303";"";"";"";"";"37.763307";"55.636202";"Досуг / Развлечения / Общественное питание";"Пекарни, Доставка готовых блюд, Кондитерские изделия, Быстрое питание"
"218";"Subway";"Москва";"2-я Владимирская улица, 36";"111401";="+79261321002";"";"http://subway.ru";"https://vk.com/subwayrussia";"";"37.783592";"55.751003";"Досуг / Развлечения / Общественное питание";"Быстрое питание, Доставка готовых блюд"
"219";"Subway";"Москва";"9-я Парковая улица, 27";"105043";="+79036187320";"";"http://subway.ru";"https://vk.com/subwayrussia";"";"37.799016";"55.796067";"Досуг / Развлечения / Общественное питание";"Быстрое питание, Доставка готовых блюд"
"220";"Вкусно — и точка";"Москва";"Новоясеневский проспект, вл7";"117588";="";"";"http://vkusnoitochka.ru";"https://vk.com/vkusno_itochka";"";"37.532919";"55.60801";"Досуг / Развлечения / Общественное питание";"Быстрое питание, Доставка готовых блюд"
"221";"ВкусВилл, магазин с доставкой полезных продуктов";"Москва";"Фрунзенская набережная, 34";"119146";="+74956638602, 88005508602, +79295227340";"info@izbenka.msk.ru";"http://vkusvill.ru/?utm_campaign=2gis_maps&utm_content=glavnaya&utm_medium=spravochnik&utm_source=2gis";"https://vk.com/vkusvill_ru";"";"37.586077";"55.722265";"Торговые комплексы / Спецмагазины";"Супермаркеты, Доставка продуктов / хозтоваров, Доставка готовых блюд"
"222";"Вкусный хауз, ресторан";"Москва";"Коровинское шоссе, 1 к1";"127486";="+79670112277, +79252570072, +79296962921";"";"";"";"";"37.543665";"55.865227";"Досуг / Развлечения / Общественное питание";"Рестораны, Бильярдные залы, Караоке-залы, Доставка готовых блюд"
"223";"Baranka, кафе-бар";"Одинцово";"Маршала Неделина, 6";"143002";="+74955964076";"";"http://barankacafe.ru";"";"";"37.267803";"55.678405";"Досуг / Развлечения / Общественное питание";"Кафе, Бары, Доставка готовых блюд"
"224";"Тбилисобо, кафе";"д. Глухово";"Центральная, 34";"143421";="+79037652859, +79031040487";"";"http://tbilisobo.ru";"";"";"37.253318";"55.771692";"Досуг / Развлечения / Общественное питание";"Кафе, Доставка готовых блюд"
"225";"ALY`S POKE, кафе";"Москва";"проспект Вернадского, 86в";"119571";="+79097887114, +79052462179";"";"";"";"";"37.480145";"55.661802";"Досуг / Развлечения / Общественное питание";"Быстрое питание, Доставка готовых блюд"
"226";"Поймали Хинкали, ресторан быстрого питания грузинской кухни";"Красногорск";"Подмосковный бульвар, 13";"143401";="+79919211218";"";"";"";"";"37.374063";"55.823672";"Досуг / Развлечения / Общественное питание";"Быстрое питание, Доставка готовых блюд"
"227";"Вкусно — и точка";"Москва";"проспект Андропова, 1";"115533";="";"";"http://vkusnoitochka.ru";"https://vk.com/vkusno_itochka";"";"37.677286";"55.694016";"Досуг / Развлечения / Общественное питание";"Быстрое питание, Доставка готовых блюд"
"228";"Black star burger, ресторан быстрого питания";"Москва";"7-я Кожуховская улица, 9";"115193";="";"";"http://blackstarburger.ru";"https://vk.com/blackstarburger";"";"37.674881";"55.710298";"Досуг / Развлечения / Общественное питание";"Быстрое питание, Доставка готовых блюд"
"229";"La basilica, итальянское кафе";"Москва";"Анны Ахматовой, 10";"108849";="+74957908389";"";"http://labasilico.ru";"";"";"37.333324";"55.63676";"Досуг / Развлечения / Общественное питание";"Кафе, Доставка готовых блюд"
"230";"Zotman pizza, пиццерия";"Москва";"Малышева, 20";"109390";="+79990011118";"";"http://zotmanpizza.ru";"https://vk.com/zotman_pizza";"";"37.742152";"55.700754";"Досуг / Развлечения / Общественное питание";"Пиццерии, Доставка готовых блюд"
"231";"Сушистор, суши-бар";"Москва";"Тишинская площадь, 1 ст1";"123056";="+74952300000";"";"http://sushistor.ru";"https://vk.com/sushistore";"";"37.583646";"55.769399";"Досуг / Развлечения / Общественное питание";"Доставка готовых блюд, Быстрое питание"
"232";"KFC, ресторан быстрого обслуживания";"Москва";"Комсомольская площадь, 2";"107140";="88005558333, 88007075477, +79636300451";"";"http://www.kfc.ru";"https://vk.com/kfcrussia";"";"37.656456";"55.774556";"Досуг / Развлечения / Общественное питание";"Быстрое питание, Доставка готовых блюд"
"233";"Camera obscura, кофейня";"Москва";"переулок Столешников, 9 ст3";"107031";="+79850809812";"";"http://camcoffee.ru";"https://vk.com/camcoffee";"";"37.614438";"55.763333";"Досуг / Развлечения / Общественное питание";"Доставка готовых блюд, Точки кофе, Быстрое питание"
"234";"Z?RNA, кофейня-пекарня";"Москва";"Татьянин Парк улица, 15 к1";"119618";="+79254512457";"";"";"";"";"37.423774";"55.657758";"Досуг / Развлечения / Общественное питание";"Кофейни, Хлебобулочные изделия, Доставка готовых блюд"
"235";"Шашлычный дворик, кафе";"Москва";"Братиславская, 14";"109451";="+79151052929, +74953477000";"";"http://www.shashliknazakaz.ru";"";"";"37.754067";"55.65942";"Досуг / Развлечения / Общественное питание";"Кафе, Доставка готовых блюд"
"236";"ВкусВилл, магазин с доставкой полезных продуктов";"Москва";"улица Мельникова, 3 к1";"109316";="+74956638602, 88005508602, +79267800226";"info@izbenka.msk.ru";"http://vkusvill.ru/?utm_campaign=2gis_maps&utm_content=glavnaya&utm_medium=spravochnik&utm_source=2gis";"https://vk.com/vkusvill_ru";"";"37.676917";"55.726906";"Торговые комплексы / Спецмагазины";"Супермаркеты, Доставка продуктов / хозтоваров, Доставка готовых блюд, Кулинарии"
"237";"Чайхана №5";"Москва";"Новокосинская, 19";"111673";="+79653234555";"";"";"";"";"37.859214";"55.740368";"Досуг / Развлечения / Общественное питание";"Доставка готовых блюд, Караоке-залы, Рестораны"
"238";"Vivo, кафе";"Москва";"Благовещенский переулок, 1а";"123001";="+79067179326";"";"";"https://vk.com/vivocafe";"";"37.596791";"55.766754";"Досуг / Развлечения / Общественное питание";"Кафе, Доставка готовых блюд"
"239";"В своей тарелке, кафе";"Красногорск";"Молодёжная, 3";"143405";="+74957752777";"";"http://tarelka.coffee";"";"";"37.356246";"55.815636";"Досуг / Развлечения / Общественное питание";"Кафе, Доставка готовых блюд"
"240";"VivaRoma, пиццерия";"Пушкино";"Московский проспект, 7а";"141207";="+74996382727";"";"http://vivaroma.ru";"";"";"37.847922";"56.011598";"Досуг / Развлечения / Общественное питание";"Доставка готовых блюд, Кафе"
"241";"Восадули";"Москва";"проспект Вернадского, 61 к2";"119415";="+74950250287";"";"http://vosadulilavka.ru";"https://vk.com/vosadulilavka";"";"37.504031";"55.67158";"Досуг / Развлечения / Общественное питание";"Кулинарии, Доставка готовых блюд, Продукты быстрого приготовления"
"242";"Алло! Пицца, сеть пиццерий";"Москва";"Полярная улица, 10 ст1";"127221";="";"info@allopizza.su";"http://allopizza.su/msk/medvedkovo?utm_source=2gis&utm_medium=main+link&utm_campaign=medvedkovo";"https://vk.com/allo_bibermedved";"";"37.638038";"55.874416";"Досуг / Развлечения / Общественное питание";"Пиццерии, Доставка готовых блюд, Кафе"
"243";"Закарпатские узоры, кафе";"Москва";"Школьная, 21";"109544";="+79636670101";"";"http://zu-restoran.ru";"";"";"37.67186";"55.745734";"Досуг / Развлечения / Общественное питание";"Кафе, Доставка готовых блюд"
"244";"ВкусВилл, магазин с доставкой полезных продуктов";"Москва";"улица Барклая, 7 к1";"121096";="+74956638602, 88005508602, +79258117807";"info@izbenka.msk.ru";"http://vkusvill.ru/?utm_campaign=2gis_maps&utm_content=glavnaya&utm_medium=spravochnik&utm_source=2gis";"https://vk.com/vkusvill_ru";"";"37.499752";"55.740533";"Торговые комплексы / Спецмагазины";"Супермаркеты, Доставка продуктов / хозтоваров, Кулинарии, Доставка готовых блюд"
"245";"Кампания, крафтовый бар";"Москва";"Южнобутовская, 44";"117042";="+79859403202";"";"http://bio.site/Kampania_craftbar";"https://vk.com/kampania_craftbeer";"";"37.53582";"55.539185";"Досуг / Развлечения / Общественное питание";"Бары, Быстрое питание, Доставка готовых блюд"
"246";"Poke wave, кафе";"Москва";"Смоленская площадь, 5";"121099";="";"";"";"";"";"37.581549";"55.748165";"Досуг / Развлечения / Общественное питание";"Быстрое питание, Доставка готовых блюд"
"247";"Шоколадница, кофейня";"Реутов";"МКАД 2 Километр, вл1";"143968";="+79268375873";"";"http://shoko.ru";"https://vk.com/shokoru";"";"37.845082";"55.76282";"Досуг / Развлечения / Общественное питание";"Кофейни, Доставка готовых блюд"
"248";"IL Патио, итальянский ресторан";"Москва";"Каширское шоссе, 26";"115522";="+74996660400, +74951059327";"";"http://www.ilpatio.ru";"https://vk.com/ilpatio_ru";"";"37.647221";"55.653745";"Досуг / Развлечения / Общественное питание";"Рестораны, Доставка готовых блюд, Пиццерии"
"249";"ВкусВилл, магазин с доставкой полезных продуктов";"Москва";"Енисейская, 22 к2";"129327";="+74956638602, 88005508602, +79295859088";"info@izbenka.msk.ru";"http://vkusvill.ru/?utm_campaign=2gis_maps&utm_content=glavnaya&utm_medium=spravochnik&utm_source=2gis";"https://vk.com/vkusvill_ru";"";"37.664624";"55.8689";"Торговые комплексы / Спецмагазины";"Супермаркеты, Доставка продуктов / хозтоваров, Кулинарии, Доставка готовых блюд"
"250";"Штолле, кафе-пироговая";"Москва";"улица 10 лет Октября, 9";"119048";="+74956444045";"";"http://msk.stolle.ru";"https://vk.com/stolle_msk";"";"37.562871";"55.725546";"Досуг / Развлечения / Общественное питание";"Доставка готовых блюд, Кафе"
"251";"Domino`s Pizza, пиццерия";"Москва";"3-я Парковая улица, 24";"105043";="88003331616, +74954788851, +74954788864";"";"http://dominospizza.ru/?st=co&utm_source=2gis&utm_medium=maps&utm_campaign=2gis_maps_msk&utm_content=akcia_68";"https://vk.com/dominospizzarussia";"";"37.783016";"55.794904";"Досуг / Развлечения / Общественное питание";"Пиццерии, Доставка готовых блюд"
"252";"ВкусВилл, магазин с доставкой полезных продуктов";"Москва";"Сиреневый бульвар, 59 ст1";"105484";="+74956638602, 88005508602, +79295234697";"info@izbenka.msk.ru";"http://vkusvill.ru/?utm_campaign=2gis_maps&utm_content=glavnaya&utm_medium=spravochnik&utm_source=2gis";"https://vk.com/vkusvill_ru";"";"37.817562";"55.803521";"Торговые комплексы / Спецмагазины";"Супермаркеты, Доставка продуктов / хозтоваров, Кулинарии, Доставка готовых блюд"
"253";"Лепим и варим, кафе";"Москва";"Цветной бульвар, 15 ст1";"127051";="+74993993123";"";"http://www.lepimivarim.ru";"https://vk.com/lepimivarim";"";"37.620164";"55.770992";"Досуг / Развлечения / Общественное питание";"Быстрое питание, Доставка готовых блюд"
"254";"Милти, магазин готовой еды";"Москва";"улица Мясницкая, 24/7 ст8";"101000";="+74952151311";"";"http://mealty.ru";"https://vk.com/mealty";"";"37.635608";"55.76305";"Досуг / Развлечения / Общественное питание";"Кулинарии, Доставка готовых блюд"
"255";"Al bano, пиццерия";"рп. Октябрьский";"Ленина, 3а вл1";"140060";="+79175020404";"";"http://albanopizza.ru";"";"";"37.971782";"55.612928";"Досуг / Развлечения / Общественное питание";"Доставка готовых блюд, Быстрое питание"
"256";"Pronto pizza, итальянское кафе";"Балашиха";"Пролетарская, 2/2";"143980";="+74955055757, +74985055757";"";"http://www.pronto24.ru";"https://vk.com/pizzapronto";"";"38.007724";"55.750545";"Досуг / Развлечения / Общественное питание";"Пиццерии, Доставка готовых блюд"
"257";"Венское, кафе";"Москва";"Измайловское шоссе, 71 к4г-д";"105187";="+74957377000,,,7284";"";"";"";"";"37.748004";"55.791497";"Досуг / Развлечения / Общественное питание";"Кафе, Доставка готовых блюд"
"258";"Хмельбург, ресторан";"Долгопрудный";"Лихачёвский проспект, 64";"141720";="+79037260653, +74957995356";"";"http://www.hmelburg.ru";"https://vk.com/hmelburg";"";"37.494149";"55.931483";"Досуг / Развлечения / Общественное питание";"Бары, Доставка готовых блюд, Кафе"
"259";"Луна, кафе-бар";"Москва";"улица Плещеева, 11в";"127560";="+79685176677";"";"";"";"";"37.614113";"55.888678";"Досуг / Развлечения / Общественное питание";"Кафе, Банкетные залы, Доставка готовых блюд"
"260";"Сушистор, суши-бар";"д. Островцы";"Молодёжная, 40в";"140125";="+74952300000, +79255252532";"";"http://sushistor.ru";"https://vk.com/sushistore";"";"37.980309";"55.602091";"Досуг / Развлечения / Общественное питание";"Доставка готовых блюд, Быстрое питание"
"261";"Cassette Cafe, кофейня";"Москва";"Серпуховский Вал улица, 21 к1";"115191";="+79639634820";"";"";"";"";"37.610482";"55.710792";"Досуг / Развлечения / Общественное питание";"Кофейни, Доставка готовых блюд"
"262";"Noba, кофейня";"Москва";"проспект Андропова, 22";"115533";="+79850280084";"";"http://nobadelivery.ru";"";"";"37.662908";"55.68275";"Досуг / Развлечения / Общественное питание";"Кофейни, Доставка готовых блюд, Кафе-кондитерские"
"263";"Balabowl";"Москва";"Варшавское шоссе, 7";"117105";="+79655150335";"";"";"";"";"37.621744";"55.700925";"Досуг / Развлечения / Общественное питание";"Быстрое питание, Доставка готовых блюд"
"264";"KFC, ресторан быстрого обслуживания";"Чехов";"Московская улица, вл96";"142300";="88005558333, 88007075477";"";"http://www.kfc.ru";"https://vk.com/kfcrussia";"";"37.45979";"55.15362";"Досуг / Развлечения / Общественное питание";"Быстрое питание, Доставка готовых блюд"
"265";"Папа Джонс, пиццерия";"Москва";"Бакунинская, 23/41";"105082";="+74957750794,,,5027";"";"http://papajohns.ru/moscow";"https://vk.com/papajohnsru";"";"37.684026";"55.775539";"Досуг / Развлечения / Общественное питание";"Пиццерии, Доставка готовых блюд"
"266";"Kitchen, семейное кафе";"Москва";"улица Академика Анохина, 13";"119571";="88005502179, +79261460220";"";"http://cafe-kitchen.ru";"";"";"37.472153";"55.656483";"Продукты питания / Напитки";"Кондитерские изделия, Кулинарии, Доставка готовых блюд, Кафе"
"267";"Суши wok, магазин суши";"Москва";"Открытое шоссе, 5 к13";"107370";="+74997544444";"ok@sushiwok.ru";"http://sushiwok.ru/msk";"https://vk.com/sushiwok";"";"37.731597";"55.814638";"Продукты питания / Напитки";"Магазины ингредиентов азиатской кухни, Доставка готовых блюд, Суши-бары / рестораны"
"268";"Vыжималка, джуси-бар";"Москва";"улица Арбат, 32";"119002";="+79850907542";"";"";"";"";"37.589765";"55.74912";"Досуг / Развлечения / Общественное питание";"Кафе, Доставка готовых блюд"
"269";"Барави, французская пекарня-кондитерская";"Москва";"Мясницкий проезд, 2/1";"107078";="+74956233705";"";"http://baravi-t.com";"https://vk.com/baravi_t";"";"37.646459";"55.768011";"Продукты питания / Напитки";"Кондитерские изделия, Кофейни, Пекарни, Доставка готовых блюд, Кулинарии"
"270";"Ikigai Sushi & Ramen Bar, кафе";"Москва";"проспект Мира, 211";"129226";="+79211809839";"";"";"https://vk.com/ikigaibar";"";"37.661649";"55.845435";"Досуг / Развлечения / Общественное питание";"Быстрое питание, Доставка готовых блюд"
"271";"Штолле, кафе-пироговая";"Москва";"Большая Семёновская улица, 11 ст3";"107023";="+74956444045";"";"http://msk.stolle.ru";"https://vk.com/stolle_msk";"";"37.702382";"55.783091";"Досуг / Развлечения / Общественное питание";"Доставка готовых блюд, Кафе"
"272";"IL Патио, итальянский ресторан";"Котельники";"Новорязанское шоссе, 8";"140054";="+74996660400, +74956688292";"";"http://www.ilpatio.ru";"https://vk.com/ilpatio_ru";"";"37.880452";"55.66168";"Досуг / Развлечения / Общественное питание";"Рестораны, Доставка готовых блюд, Пиццерии"
"273";"Domino`s Pizza, пиццерия";"Люберцы";"Побратимов, 30а";"140009";="88003331616, +74959000168";"";"http://dominospizza.ru/?st=co&utm_source=2gis&utm_medium=maps&utm_campaign=2gis_maps_lubertsy&utm_content=akcia_67";"https://vk.com/dominospizzarussia";"";"37.899643";"55.689455";"Досуг / Развлечения / Общественное питание";"Пиццерии, Доставка готовых блюд"
"274";"Каприция гриль";"Одинцово";"улица Сколковская, 1Б";"143001";="+79262058444";"";"http://capricia-grill.ru";"";"";"37.324479";"55.694609";"Досуг / Развлечения / Общественное питание";"Доставка готовых блюд, Быстрое питание"
"275";"Para palok, суши-бар";"Москва";"Автозаводская, 23Б к2";"115280";="+79771134403, +79859955996";"";"";"";"";"37.650355";"55.700252";"Досуг / Развлечения / Общественное питание";"Доставка готовых блюд, Быстрое питание"
"276";"Бургер Кинг, сеть ресторанов быстрого питания";"Щербинка";"Симферопольское шоссе, 20а ст1";"";="+74955445000";"FeedBack@burgerking.ru";"http://burgerkingrus.ru";"https://vk.com/burgerking";"";"37.564985";"55.485815";"Досуг / Развлечения / Общественное питание";"Быстрое питание, Доставка готовых блюд"
"277";"Додо Пицца, сеть пиццерий";"Троицк";"Сиреневый бульвар, 1Б";"108840";="88003020060";"feedback@dodopizza.com";"http://dodopizza.onelink.me/YlkM?pid=2GIS&af_web_dp=https%3A%2F%2Fdodopizza.ru%2F%3Futm_source%3D2gis%26utm_medium%3Dbanner%26utm_campaign%3Dpremium_card&c=2GIS.maps&af_dp=dodo%3A%2F%2Fmain&af_click_lookback";"https://vk.com/dodotroitsk";"";"37.29638";"55.467618";"Досуг / Развлечения / Общественное питание";"Доставка готовых блюд, Пиццерии"
"278";"ВкусВилл, магазин с доставкой полезных продуктов";"Москва";"Марии Ульяновой, 9 к4";"119331";="+74956638602, 88005508602, +79257861794";"info@izbenka.msk.ru";"http://vkusvill.ru/?utm_campaign=2gis_maps&utm_content=glavnaya&utm_medium=spravochnik&utm_source=2gis";"https://vk.com/vkusvill_ru";"";"37.525608";"55.680016";"Торговые комплексы / Спецмагазины";"Супермаркеты, Доставка продуктов / хозтоваров, Кулинарии, Доставка готовых блюд"
"279";"Ryba international, суши-бар";"Москва";"Ходынский бульвар, 20а";"125252";="+74952607889";"";"";"";"";"37.523876";"55.791296";"Досуг / Развлечения / Общественное питание";"Суши-бары / рестораны, Доставка готовых блюд"
"280";"IL Патио, итальянский ресторан";"Москва";"Мичуринский проспект, 27";"119607";="+74996660400, +74995860622";"";"http://www.ilpatio.ru";"https://vk.com/ilpatio_ru";"";"37.50069";"55.697809";"Досуг / Развлечения / Общественное питание";"Рестораны, Доставка готовых блюд, Пиццерии, Бары, Банкетные залы"
"281";"Верона, кафе";"Москва";"Воронцовская, 36 ст1";"109044";="+74956764150";"";"http://veronacafe.ru";"";"";"37.661622";"55.734454";"Досуг / Развлечения / Общественное питание";"Кафе, Доставка готовых блюд"
"282";"Суп, кафе";"Москва";"Скаковая, 17 ст2";"125040";="+74959452454";"";"";"";"";"37.573181";"55.77788";"Досуг / Развлечения / Общественное питание";"Кафе, Банкетные залы, Доставка готовых блюд"
"283";"Вкусно — и точка";"рп. Селятино";"посёлок Селятино, 231";"143345";="";"";"http://vkusnoitochka.ru";"https://vk.com/vkusno_itochka";"";"36.990558";"55.512322";"Досуг / Развлечения / Общественное питание";"Быстрое питание, Доставка готовых блюд"
"284";"Domino`s Pizza, пиццерия";"Одинцово";"Маршала Жукова, 41а";"143003";="88003331616, +74959000127";"";"http://dominospizza.ru/?st=co&utm_source=2gis&utm_medium=maps&utm_campaign=2gis_maps_odintsovo&utm_content=akcia_72";"https://vk.com/dominospizzarussia";"";"37.26559";"55.68125";"Досуг / Развлечения / Общественное питание";"Пиццерии, Доставка готовых блюд"
"285";"ВкусВилл, магазин с доставкой полезных продуктов";"Москва";"Волгоградский проспект, 3-5 ст2";"109316";="+74956638602, 88005508602, +79257761073";"info@izbenka.msk.ru";"http://vkusvill.ru/?utm_campaign=2gis_maps&utm_content=glavnaya&utm_medium=spravochnik&utm_source=2gis";"https://vk.com/vkusvill_ru";"";"37.671768";"55.732204";"Торговые комплексы / Спецмагазины";"Супермаркеты, Доставка продуктов / хозтоваров, Кулинарии, Доставка готовых блюд"
"286";"Пан Запекан, кулинария";"Москва";"Корабельная, 6";"115142";="+79037981212, +79684460690";"";"http://panzapekan.ru";"https://vk.com/panzapekan";"";"37.69554";"55.679124";"Досуг / Развлечения / Общественное питание";"Кулинарии, Доставка готовых блюд"
"287";"Demokrat";"Москва";"Лесная, 20 ст2";"125196";="+74951501475";"";"http://demokratbar.ru";"";"";"37.59159";"55.77892";"Досуг / Развлечения / Общественное питание";"Рестораны, Доставка готовых блюд"
"288";"Вкусно — и точка";"Подольск";"Большая Серпуховская, 45";"142104";="";"";"http://vkusnoitochka.ru";"https://vk.com/vkusno_itochka";"";"37.547813";"55.420391";"Досуг / Развлечения / Общественное питание";"Быстрое питание, Доставка готовых блюд"
"289";"Теремок, ресторан быстрого питания";"Москва";"Дмитровское шоссе, 89";"127486";="";"";"http://teremok.ru";"https://vk.com/teremok";"";"37.544794";"55.864044";"Досуг / Развлечения / Общественное питание";"Быстрое питание, Доставка готовых блюд"
"290";"BB Grill, ресторан";"Москва";"Автозаводская, 18";"115280";="+74959001049";"";"http://bbcafe.ru";"";"";"37.642021";"55.70543";"Досуг / Развлечения / Общественное питание";"Рестораны, Доставка готовых блюд"
"291";"ВкусВилл, магазин с доставкой полезных продуктов";"Москва";"800-летия Москвы, 22 к2";"127247";="+74956638602, 88005508602, +79257862226";"info@izbenka.msk.ru";"http://vkusvill.ru/?utm_campaign=2gis_maps&utm_content=glavnaya&utm_medium=spravochnik&utm_source=2gis";"https://vk.com/vkusvill_ru";"";"37.556927";"55.879156";"Торговые комплексы / Спецмагазины";"Супермаркеты, Доставка продуктов / хозтоваров, Кулинарии, Доставка готовых блюд"
"292";"Дом суши и пиццы";"Химки";"Германа Титова, 10а";"141401";="+74952263322";"";"http://jivo.chat/BUG5qlAk5R";"https://vk.com/dom_sushi_pizza";"";"37.413698";"55.91814";"Досуг / Развлечения / Общественное питание";"Доставка готовых блюд, Быстрое питание"
"293";"Сказка, кафе-бар";"Реутов";"Юбилейный проспект, 32/1";"143965";="+74957910476, +79959017331";"";"";"";"";"37.866972";"55.749866";"Досуг / Развлечения / Общественное питание";"Кафе, Бары, Банкетные залы, Доставка готовых блюд"
"294";"Биджо и лавка, кафе-пекарня";"д. Мисайлово";"Литературный бульвар, 7";"142721";="+79263311051";"";"http://bijo-lavka.ru";"https://vk.com/bijolavka";"";"37.81224";"55.56022";"Досуг / Развлечения / Общественное питание";"Пекарни, Кафе, Доставка готовых блюд"
"295";"Бургер Кинг, сеть ресторанов быстрого питания";"Москва";"улица Перерва, 43 к1";"109341";="+74955445000";"FeedBack@burgerking.ru, bk-70@burgerking.ru";"http://burgerkingrus.ru";"https://vk.com/burgerking";"";"37.750061";"55.659936";"Досуг / Развлечения / Общественное питание";"Быстрое питание, Доставка готовых блюд"
"296";"Вкусно — и точка";"Москва";"Большая Семёновская улица, 17а";"107023";="";"";"http://vkusnoitochka.ru";"https://vk.com/vkusno_itochka";"";"37.705852";"55.78274";"Досуг / Развлечения / Общественное питание";"Быстрое питание, Доставка готовых блюд"
"297";"Бенджамин, кафе";"Москва";"50 лет Октября, вл2Б ст1";"119618";="+74959243377";"";"http://cafebenjamin.ru";"https://vk.com/cafebenjaminru";"";"37.415902";"55.652691";"Досуг / Развлечения / Общественное питание";"Кафе, Доставка готовых блюд"
"298";"The хлебъ, кафе-пекарня";"д. Путилково";"Сходненская, 17";"143441";="+79252373797";"";"http://pizza-na-rayone.ru";"";"";"37.388286";"55.877127";"Досуг / Развлечения / Общественное питание";"Кофейни, Пекарни, Доставка готовых блюд"
"299";"Додо Пицца, сеть пиццерий";"Щёлково";"площадь Ленина, 2а";"141100";="88003020060";"feedback@dodopizza.com";"http://dodopizza.onelink.me/YlkM?pid=2GIS&af_web_dp=https%3A%2F%2Fdodopizza.ru%2F%3Futm_source%3D2gis%26utm_medium%3Dbanner%26utm_campaign%3Dpremium_card&c=2GIS.maps&af_dp=dodo%3A%2F%2Fmain&af_click_lookback";"https://vk.com/dodomsk";"";"37.992129";"55.921518";"Досуг / Развлечения / Общественное питание";"Доставка готовых блюд, Пиццерии"
"300";"Дядька кофе, кофейня";"Москва";"улица Электрозаводская, 21";"107023";="+79252854213";"";"";"https://vk.com/dyadkacoffee";"";"37.70556";"55.787128";"Досуг / Развлечения / Общественное питание";"Кофейни, Доставка готовых блюд"
"301";"Коллаборация, кафе";"Видное";"Завидная, 24";"142701";="+79771050656";"";"";"";"";"37.722952";"55.53831";"Досуг / Развлечения / Общественное питание";"Кофейни, Доставка готовых блюд"
"302";"KFC, ресторан быстрого обслуживания";"Москва";"Большая Черёмушкинская, 1";"117447";="88005558333, 88007075477, +79623667992, +74952408424,,,9544";"";"http://www.kfc.ru";"https://vk.com/kfcrussia";"";"37.601456";"55.690305";"Досуг / Развлечения / Общественное питание";"Быстрое питание, Доставка готовых блюд"
"303";"Сан Ремо, ресторан";"Долгопрудный";"Лихачёвское шоссе, 14 к1";"141707";="+74954084439";"";"http://res-sanremo.ru";"";"";"37.49288";"55.948145";"Досуг / Развлечения / Общественное питание";"Рестораны, Доставка готовых блюд"
"304";"ВкусВилл, магазин с доставкой полезных продуктов";"Москва";"Дыбенко, 14 к2";"125475";="+74956638602, 88005508602, +79295798567";"info@izbenka.msk.ru";"http://vkusvill.ru/?utm_campaign=2gis_maps&utm_content=glavnaya&utm_medium=spravochnik&utm_source=2gis";"https://vk.com/vkusvill_ru";"";"37.485675";"55.870593";"Торговые комплексы / Спецмагазины";"Супермаркеты, Доставка продуктов / хозтоваров, Кулинарии, Доставка готовых блюд"
"305";"ВкусВилл, магазин с доставкой полезных продуктов";"Москва";"Лобненская улица, 9";"127411";="+74956638602, 88005508602, +79295237678";"info@izbenka.msk.ru";"http://vkusvill.ru/?utm_campaign=2gis_maps&utm_content=glavnaya&utm_medium=spravochnik&utm_source=2gis";"https://vk.com/vkusvill_ru";"";"37.537295";"55.889123";"Торговые комплексы / Спецмагазины";"Супермаркеты, Кулинарии, Доставка продуктов / хозтоваров, Доставка готовых блюд"
"306";"Gio`s, гастробар";"Орехово-Зуево";"Ленина, 78";"142600";="+79686441333, +79256441333";"";"http://giospizza.ru";"https://vk.com/giosgastrobaroz";"";"38.987898";"55.808379";"Досуг / Развлечения / Общественное питание";"Доставка готовых блюд, Кафе"
"307";"Бургер Кинг, сеть ресторанов быстрого питания";"Щёлково";"Комарова, 2а";"141100";="+74955445000";"FeedBack@burgerking.ru";"http://burgerkingrus.ru";"https://vk.com/burgerking";"";"37.992249";"55.921267";"Досуг / Развлечения / Общественное питание";"Быстрое питание, Доставка готовых блюд"
"308";"Бургер Кинг, сеть ресторанов быстрого питания";"Москва";"Кировоградская улица, 9 к4";"117587";="+74955445000";"FeedBack@burgerking.ru";"http://burgerkingrus.ru";"https://vk.com/burgerking";"";"37.609665";"55.621789";"Досуг / Развлечения / Общественное питание";"Быстрое питание, Доставка готовых блюд"
"309";"Вкусно — и точка";"пос. опытного хозяйства "Ермолино"";"Центральная, 40";"141863";="";"";"http://vkusnoitochka.ru";"https://vk.com/vkusno_itochka";"";"37.490982";"56.147753";"Досуг / Развлечения / Общественное питание";"Быстрое питание, Доставка готовых блюд"
"310";"Кариночка, ресторан";"Москва";"улица Новочерёмушкинская, 44 к1";"117418";="+79104340517, +74991280911, +79264091818, +79257817777";"";"http://karinochka.com";"";"";"37.568665";"55.67258";"Досуг / Развлечения / Общественное питание";"Рестораны, Банкетные залы, Доставка готовых блюд"
"311";"IL Патио, итальянский ресторан";"Москва";"шоссе Энтузиастов, 12 ст2";"111024";="+74996660400, +79037208665";"";"http://www.ilpatio.ru";"https://vk.com/ilpatio_ru";"";"37.705335";"55.747516";"Досуг / Развлечения / Общественное питание";"Рестораны, Доставка готовых блюд"
"312";"ВкусВилл, магазин с доставкой полезных продуктов";"Москва";"Волгоградский проспект, 133 к2";"109443";="+74956638602, 88005508602, +79250600273";"info@izbenka.msk.ru";"http://vkusvill.ru/?utm_campaign=2gis_maps&utm_content=glavnaya&utm_medium=spravochnik&utm_source=2gis";"https://vk.com/vkusvill_ru";"";"37.771793";"55.705081";"Торговые комплексы / Спецмагазины";"Супермаркеты, Кулинарии, Доставка продуктов / хозтоваров, Доставка готовых блюд"
"313";"ВкусВилл, магазин с доставкой полезных продуктов";"Красногорск";"Дежнёва, 6";"143444";="+74956638602, 88005508602, +79253312055";"info@izbenka.msk.ru";"http://vkusvill.ru/?utm_campaign=2gis_maps&utm_content=glavnaya&utm_medium=spravochnik&utm_source=2gis";"https://vk.com/vkusvill_ru";"";"37.23947";"55.83412";"Торговые комплексы / Спецмагазины";"Супермаркеты, Доставка продуктов / хозтоваров, Кулинарии, Доставка готовых блюд"
"314";"Стейк&бургер, бургерная";"Москва";"Киевская, 2";"121059";="88005502719, +79854240817";"";"http://burgermiratorg.shop";"https://vk.com/burgers_by_miratorg";"";"37.563353";"55.743326";"Досуг / Развлечения / Общественное питание";"Быстрое питание, Доставка готовых блюд"
"315";"Бургер Кинг, сеть ресторанов быстрого питания";"Химки";"Ленинградское шоссе (квартал Кирилловка), вл9";"141446";="+74955445000";"FeedBack@burgerking.ru";"http://burgerkingrus.ru";"https://vk.com/burgerking";"";"37.33382";"55.962463";"Досуг / Развлечения / Общественное питание";"Быстрое питание, Доставка готовых блюд"
"316";"Шоколадница, кофейня";"Химки";"Молодёжная, ст6а";"141407";="+79154743391";"";"http://shoko.ru";"https://vk.com/shokoru";"";"37.419214";"55.881108";"Досуг / Развлечения / Общественное питание";"Кофейни, Доставка готовых блюд"
"317";"Domino`s Pizza, пиццерия";"Москва";"Луганская улица, 11";"115304";="88003331616, +74954788858";"";"http://dominospizza.ru/?st=co&utm_source=2gis&utm_medium=maps&utm_campaign=2gis_maps_msk&utm_content=akcia_68";"https://vk.com/dominospizzarussia";"";"37.669539";"55.621913";"Досуг / Развлечения / Общественное питание";"Пиццерии, Доставка готовых блюд"
"318";"Hatimaki, кафе";"Москва";"улица Старокрымская, 15 к1";"117624";="+74951204423, 88002228075";"";"http://www.hatimaki.ru/2gis1";"https://vk.com/cafe_hatimaki";"";"37.556504";"55.557469";"Досуг / Развлечения / Общественное питание";"Доставка готовых блюд, Кафе"
"319";"Shawarma bar, кафе";"Москва";"Пятницкая улица, 24";"115035";="+79295538660";"";"";"";"";"37.628406";"55.741352";"Досуг / Развлечения / Общественное питание";"Быстрое питание, Доставка готовых блюд"
"320";"Андерcон, семейное кафе-кондитерская";"Королёв";"проспект Космонавтов, 4в";"141075";="+74954871705, +74955105550, +79850740188, +79167801064";"";"http://jivo.chat/7WEBhJ4tex";"";"";"37.867937";"55.920491";"Досуг / Развлечения / Общественное питание";"Доставка готовых блюд, Кондитерские изделия, Организация и проведение праздников, Кафе"
"321";"Чао пицца, кафе";"Москва";"Ходынский бульвар, 4";"125252";="+79060167240, +79035342493";"";"";"";"";"37.530406";"55.791";"Досуг / Развлечения / Общественное питание";"Доставка готовых блюд, Быстрое питание"
"322";"Simfoniya, караоке-кафе";"Одинцово";"Можайское шоссе, 13";"143005";="+74955997343, +79035944545";"";"http://simfoniya-odi.ru";"";"";"37.260487";"55.670827";"Досуг / Развлечения / Общественное питание";"Кафе, Караоке-залы, Бары, Доставка готовых блюд"
"323";"The мангал, кафе";"пос. Коммунарка";"улица Сосенский Стан, 10/2";"108814";="+79262731753";"";"";"";"";"37.472024";"55.564172";"Досуг / Развлечения / Общественное питание";"Быстрое питание, Доставка готовых блюд"
"324";"Папа Джонс, пиццерия";"Люберцы";"Комсомольский проспект, 7/1";"140009";="+74957750794,,,5400";"";"http://papajohns.ru/moscow";"https://vk.com/papajohnsru";"";"37.898671";"55.688014";"Досуг / Развлечения / Общественное питание";"Пиццерии, Доставка готовых блюд"
"325";"ВкусВилл, магазин с доставкой полезных продуктов";"Москва";"Скобелевская, 14";"117042";="+74956638602, 88005508602, +79263942494";"info@izbenka.msk.ru";"http://vkusvill.ru/?utm_campaign=2gis_maps&utm_content=glavnaya&utm_medium=spravochnik&utm_source=2gis";"https://vk.com/vkusvill_ru";"";"37.554395";"55.548968";"Торговые комплексы / Спецмагазины";"Супермаркеты, Доставка продуктов / хозтоваров, Кулинарии, Доставка готовых блюд"
"326";"Милти, магазин готовой еды";"Москва";"улица Сретенка, 21/28 ст1";"127051";="+74952151311";"";"http://mealty.ru";"https://vk.com/mealty";"";"37.632248";"55.770493";"Досуг / Развлечения / Общественное питание";"Кулинарии, Доставка готовых блюд"
"327";"Суши&роллы, кафе";"Ногинск";"Рабочая улица, 20";"142400";="+79637728383, +79637728484, +79011837879";"";"http://sushi-noginsk.com";"";"";"38.438427";"55.857033";"Досуг / Развлечения / Общественное питание";"Кафе, Доставка готовых блюд"
"328";"Cotto, кофейня";"Москва";"Лазоревый проезд, 3";"129323";="+79104648451";"";"";"";"";"37.635979";"55.848927";"Досуг / Развлечения / Общественное питание";"Кофейни, Доставка готовых блюд, Кулинарии"
"329";"Pizza pazza, пиццерия";"Коломна";"Партизан, 1в";"140408";="+79653061403";"";"";"https://vk.com/pizza_pazza";"";"38.792988";"55.091867";"Досуг / Развлечения / Общественное питание";"Пиццерии, Доставка готовых блюд"
"330";"Буханка, пекарня";"Котельники";"Сосновая, 1 к4";"140055";="+79067777541";"";"http://buhanka.ru";"https://vk.com/pekarnya_buhanka";"";"37.857044";"55.671636";"Досуг / Развлечения / Общественное питание";"Пекарни, Доставка готовых блюд"
"331";"Пушкинъ у фонтана, кафе";"Москва";"Красная площадь, 3";"109012";="+74950250033";"";"http://gum.cafe-pushkin.ru";"";"";"37.621637";"55.754776";"Досуг / Развлечения / Общественное питание";"Доставка готовых блюд, Кафе"
"332";"Асса";"Москва";"Садовническая улица, 76/71";"115035";="";"";"";"";"";"37.641367";"55.73852";"Досуг / Развлечения / Общественное питание";"Рестораны, Доставка готовых блюд"
"333";"ВкусВилл, магазин с доставкой полезных продуктов";"Москва";"Жулебинский бульвар, 9";"109145";="+74956638602, 88005508602, +79261842993";"info@izbenka.msk.ru";"http://vkusvill.ru/?utm_campaign=2gis_maps&utm_content=glavnaya&utm_medium=spravochnik&utm_source=2gis";"https://vk.com/vkusvill_ru";"";"37.848556";"55.697973";"Торговые комплексы / Спецмагазины";"Супермаркеты, Доставка готовых блюд"
"334";"ВкусВилл, магазин с доставкой полезных продуктов";"Москва";"Анны Ахматовой, 11 к1";"108849";="+74956638602, 88005508602, +79999178590";"info@izbenka.msk.ru";"http://vkusvill.ru/?utm_campaign=2gis_maps&utm_content=glavnaya&utm_medium=spravochnik&utm_source=2gis";"https://vk.com/vkusvill_ru";"";"37.333144";"55.634688";"Торговые комплексы / Спецмагазины";"Супермаркеты, Доставка продуктов / хозтоваров, Кулинарии, Доставка готовых блюд"
"335";"Праймбиф, ресторан-бар";"Москва";"Мытная, 74";"115191";="+74993220112";"";"http://primebeef.ru";"";"";"37.621129";"55.712166";"Досуг / Развлечения / Общественное питание";"Быстрое питание, Мясо / Полуфабрикаты, Доставка готовых блюд"
"336";"В окошках, кафе";"Москва";"5-я Парковая улица, 25";"105043";="+74952115248, +79168350855";"";"http://vokoshkah.ru";"https://vk.com/cafe_vokoshkah";"";"37.787926";"55.79556";"Досуг / Развлечения / Общественное питание";"Кафе, Доставка готовых блюд, Организация и проведение праздников"
"337";"Doner grill, кафе быстрого питания";"Москва";"Люсиновская, 48-50 к10";"115093";="+79671515600";"";"";"";"";"37.621555";"55.720993";"Досуг / Развлечения / Общественное питание";"Быстрое питание, Доставка готовых блюд"
"338";"Греки здесь, кафе";"Москва";"Авиаконструктора Миля, 3а";"109156";="+79652412424";"";"";"";"";"37.851581";"55.686782";"Досуг / Развлечения / Общественное питание";"Быстрое питание, Доставка готовых блюд"
"339";"Венский Штрудель, кафе-кондитерская";"Мытищи";"улица Колонцова, 5";"141009";="+79685773788";"";"";"https://vk.com/venskystrudel";"";"37.76453";"55.915331";"Досуг / Развлечения / Общественное питание";"Кафе-кондитерские, Доставка готовых блюд, Кондитерские изделия, Кулинарии, Хлебобулочные изделия"
"340";"Vako, пекарня";"Москва";"улица Нагатинская, 24";"115487";="+79252492844";"";"";"";"";"37.655634";"55.677658";"Досуг / Развлечения / Общественное питание";"Пекарни, Кафе-кондитерские, Доставка готовых блюд"
"341";"Bocconcino, пиццерия";"Москва";"Ленинградское шоссе, 16а ст4";"125171";="+79269265926, +79299291929";"";"http://www.bocconcino.ru";"https://vk.com/bocconcino.moscow";"";"37.495366";"55.823763";"Досуг / Развлечения / Общественное питание";"Пиццерии, Рестораны, Доставка готовых блюд"
"342";"Тунец, суши-бар";"Одинцово";"Чистяковой, вл26в";"143001";="+74955320082";"";"http://odincovo.sushi-tunec.ru";"https://vk.com/sushi_tunec";"";"37.323618";"55.697848";"Досуг / Развлечения / Общественное питание";"Доставка готовых блюд, Быстрое питание"
"343";"Бургер Кинг, сеть ресторанов быстрого питания";"Москва";"улица Генерала Кузнецова, 22";"109156";="+74955445000";"FeedBack@burgerking.ru";"http://burgerkingrus.ru";"https://vk.com/burgerking";"";"37.854505";"55.685902";"Досуг / Развлечения / Общественное питание";"Быстрое питание, Доставка готовых блюд"
"344";"ВкусВилл, магазин с доставкой полезных продуктов";"Москва";"улица Бориса Галушкина, 16";"129301";="+74956638602, 88005508602, +79252702528";"info@izbenka.msk.ru";"http://vkusvill.ru/?utm_campaign=2gis_maps&utm_content=glavnaya&utm_medium=spravochnik&utm_source=2gis";"https://vk.com/vkusvill_ru";"";"37.656301";"55.823466";"Торговые комплексы / Спецмагазины";"Супермаркеты, Доставка продуктов / хозтоваров, Кулинарии, Доставка готовых блюд"
"345";"ВкусВилл, магазин с доставкой полезных продуктов";"Москва";"улица Ботаническая, 19";"127427";="+74956638602, 88005508602, +79258088573";"info@izbenka.msk.ru";"http://vkusvill.ru/?utm_campaign=2gis_maps&utm_content=glavnaya&utm_medium=spravochnik&utm_source=2gis";"https://vk.com/vkusvill_ru";"";"37.601143";"55.828297";"Торговые комплексы / Спецмагазины";"Супермаркеты, Доставка продуктов / хозтоваров, Кулинарии, Доставка готовых блюд"
"346";"Культура, бар";"Электросталь";"Корешкова, 8/50";"144000";="+79690653653";"";"http://menu.restik.com/kultura_bar";"https://vk.com/kultura_bar_stal";"";"38.448611";"55.785559";"Досуг / Развлечения / Общественное питание";"Бары, Кафе, Доставка готовых блюд"
"347";"Хлеб насущный, кафе-пекарня";"Москва";"Шаболовка, 30/12";"115419";="88003504565, +74959894560, +74956624024";"";"http://hlebnasushny.ru";"https://vk.com/hlebnasushny";"";"37.608313";"55.719566";"Досуг / Развлечения / Общественное питание";"Кафе-кондитерские, Кондитерские изделия, Кулинарии, Пекарни, Доставка готовых блюд"
"348";"Мос Донер, кафе быстрого питания";"Москва";"Ладожская, 4/6 ст6";"105005";="+74952666782,,,1";"";"http://www.mosdoner.ru";"";"";"37.681209";"55.771326";"Досуг / Развлечения / Общественное питание";"Быстрое питание, Доставка готовых блюд"
"349";"2-й этаж, кафе-столовая";"Москва";"улица Новый Арбат, 21";"119019";="+79645590550";"";"http://2level.ru";"https://vk.com/2levelru";"";"37.585373";"55.752201";"Досуг / Развлечения / Общественное питание";"Столовые, Доставка готовых блюд"
"350";"Yoko, ресторан";"Москва";"Соймоновский проезд, 5";"119034";="+74956371371";"";"http://novikovgroup.ru/restaurants/yoko/yoko_66.html";"";"";"37.604078";"55.743362";"Досуг / Развлечения / Общественное питание";"Рестораны, Суши-бары / рестораны, Доставка готовых блюд"
"351";"Донер хауз, кафе";"Москва";"Ладожская, 7";"105005";="+79629313178";"";"";"";"";"37.682822";"55.771596";"Досуг / Развлечения / Общественное питание";"Быстрое питание, Доставка готовых блюд"
"352";"Domino`s Pizza, пиццерия";"Москва";"Ярцевская, 22а к2";"121351";="88003331616, +74959000133";"";"http://dominospizza.ru/?st=co&utm_source=2gis&utm_medium=maps&utm_campaign=2gis_maps_msk&utm_content=akcia_68";"https://vk.com/dominospizzarussia";"";"37.415404";"55.737974";"Досуг / Развлечения / Общественное питание";"Пиццерии, Доставка готовых блюд"
"353";"Вилладж, семейный ресторан";"Балашиха";"Звёздная, 7Б";"143909";="+79252028489";"";"http://village-rest.ru";"https://vk.com/restaurant_village";"";"37.954164";"55.828418";"Досуг / Развлечения / Общественное питание";"Рестораны, Доставка готовых блюд"
"354";"Матча суши&bento, магазин суши";"Москва";"Новопетровская улица, 6";"125130";="+79299366027";"";"http://matchasushi.ru";"";"";"37.516365";"55.825999";"Досуг / Развлечения / Общественное питание";"Быстрое питание, Доставка готовых блюд"
"355";"Додо Пицца, сеть пиццерий";"Чехов";"Московская улица, 45";"142306";="88003020060";"feedback@dodopizza.com";"http://dodopizza.onelink.me/YlkM?pid=2GIS&af_web_dp=https%3A%2F%2Fdodopizza.ru%2F%3Futm_source%3D2gis%26utm_medium%3Dbanner%26utm_campaign%3Dpremium_card&c=2GIS.maps&af_dp=dodo%3A%2F%2Fmain&af_click_lookback";"https://vk.com/dodomsk";"";"37.453909";"55.144817";"Досуг / Развлечения / Общественное питание";"Доставка готовых блюд, Пиццерии"
"356";"Додо Пицца, сеть пиццерий";"Москва";"Лескова, 19а ст2";"127543";="88003020060";"feedback@dodopizza.com";"http://dodopizza.onelink.me/YlkM?pid=2GIS&af_web_dp=https%3A%2F%2Fdodopizza.ru%2F%3Futm_source%3D2gis%26utm_medium%3Dbanner%26utm_campaign%3Dpremium_card&c=2GIS.maps&af_dp=dodo%3A%2F%2Fmain&af_click_lookback";"https://vk.com/dodomsk";"";"37.616503";"55.894063";"Досуг / Развлечения / Общественное питание";"Доставка готовых блюд, Пиццерии"
"357";"Плов-хаус, кафе";"Москва";"Волгоградский проспект, 42 к29";"109316";="";"";"http://plov-house.ru";"";"";"37.726495";"55.703474";"Досуг / Развлечения / Общественное питание";"Кафе, Рестораны, Доставка готовых блюд"
"358";"Суши Точка, магазин";"Подольск";"Генерала Варенникова, 4";"142121";="+74951203707,,,1, +74951203707,,,1";"";"http://sushitochka99.ru";"https://vk.com/sushitochka";"";"37.488746";"55.416939";"Досуг / Развлечения / Общественное питание";"Доставка готовых блюд, Быстрое питание"
