"id";"name";"city_name";"geometry_name";"post_code";"phone";"email";"website";"vkontakte";"instagram";"lon";"lat";"category";"subcategory"
"1";"СамоварМаркет.ру, магазин подарков";"Москва";"улица Кожевническая, 7";"115114";="+74951505016, 88003335061";"info@samovarmarket.ru";"http://samovarmarket.ru";"https://vk.com/public126038783";"";"37.645193";"55.730561";"Компьютеры / Бытовая техника / Офисная техника";"Бытовая техника, Антиквариат, Сувениры, Посуда, Товары национальных / народных ремёсел, Новогодние товары"
"2";"Капитал Голд, центр скупки золота и ювелирных изделий";"Москва";"улица Большая Якиманка, 39";"119049";="+74959215833";"info@capital-gold.ru";"http://capital-gold.ru";"";"";"37.613199";"55.734004";"Торговые комплексы / Спецмагазины";"Покупка драгоценных металлов / ювелирных изделий, Приём / переработка драгоценных металлов, Антиквариат"
"3";"Алмаз Антик, антикварно-ювелирный салон";"Москва";"улица Рождественка, 5/7 ст1";"107031";="+74952989857, +79266333334";"moskvaskupka@yandex.ru";"http://almazantik.ru";"";"";"37.623433";"55.761452";"Культура / Искусство / Религия";"Антиквариат, Покупка драгоценных металлов / ювелирных изделий, Часы / Аксессуары, Инвестиционные драгоценные металлы"
"4";"Компания по скупке монет, банкнот, икон";"Москва";"Профсоюзная, 3";"117292";="+79166120666, +79856266600";"100@скупкамонет.рф";"http://скупкамонет.рф";"https://vk.com/club63390569";"";"37.572356";"55.685814";"Культура / Искусство / Религия";"Антиквариат, Филателия / Нумизматика, Покупка драгоценных металлов / ювелирных изделий, Комиссионные магазины, Инвестиционные драгоценные металлы"
"5";"Скупка 24, комиссионный магазин";"Москва";"Нахимовский проспект, 46";"117292";="+79262904700";"";"http://Горскупка24.РФ";"";"";"37.561768";"55.679095";"Торговые комплексы / Спецмагазины";"Комиссионные магазины, Аксессуары к мобильным телефонам, Аудиотехника / Видеотехника, Бензоинструмент, Антиквариат, Велосипеды, Компьютеры / Комплектующие, Мобильные телефоны, Музыкальные инструменты / Аксессуары, Фототовары, Часы / Аксессуары"
"6";"Московский дом книги, магазин";"Москва";"улица Новый Арбат, 8";"119019";="+74957893591, +74956481768";"";"http://www.mdk-arbat.ru";"https://vk.com/mdk.arbat";"";"37.596054";"55.753078";"Хозтовары / Канцелярия / Упаковка";"Книги, Учебная литература, Канцелярские товары / Учебные принадлежности, Антиквариат"
"7";"Москва, торговый дом книги";"Москва";"Тверская улица, 8";"125009";="+74957978716, +74956296483, +74957969414";"";"http://www.moscowbooks.ru";"https://vk.com/moscowbooks_ru";"";"37.608801";"55.762607";"Хозтовары / Канцелярия / Упаковка";"Книги, Антиквариат, Сувениры, Канцелярские товары / Учебные принадлежности, Подарочная упаковка"
"8";"Чумодан, служба вывоза ненужных вещей";"Москва";"1-я улица Машиностроения, 10";"115088";="+74951201456";"";"http://chumodan.com";"https://vk.com/chumodancom";"";"37.672586";"55.713708";"Одежда / Обувь";"Секонд-хенд, Книги, Антиквариат"
"9";"Ретро, блошиный рынок";"Москва";"Самокатная, 4 ст1";"111033";="+79298931349, +79252499579";"";"http://www.retrobloha.ru";"";"";"37.677115";"55.756837";"Культура / Искусство / Религия";"Художественные выставки / Галереи, Антиквариат, Организация выставок"
"10";"Левша, рынок";"Москва";"Новосходненское шоссе, вл167";"141408";="";"";"http://www.rynok-levsha.ru";"https://vk.com/rynoklevsha";"";"37.34957";"55.936408";"Торговые комплексы / Спецмагазины";"Рынки, Антиквариат"
"11";"Улица Ленина, винтажный универмаг";"Москва";"Костякова, 9";"127422";="+79261249231";"";"http://retrotovar.com";"";"";"37.571386";"55.812818";"Культура / Искусство / Религия";"Антиквариат, Комиссионные магазины, Музыкальные пластинки"
"12";"Листва, книжная лавка";"Москва";"улица Жуковского, 4 ст1";"101000";="+79958838317";"";"http://chernaya100.com";"https://vk.com/listva_books_msk";"";"37.645348";"55.763264";"Хозтовары / Канцелярия / Упаковка";"Книги, Антиквариат, Учебная литература, Комиксы, Календари / Открытки"
"13";"Ломаковский музей старинных автомобилей и мотоциклов";"Москва";"Краснодарская, вл58";"109559";="+74993567995";"";"http://www.lomakovka.ru";"";"";"37.771698";"55.67481";"Культура / Искусство / Религия";"Музеи, Антиквариат, Сценические декорации / Бутафория"
"14";"Чумодан, служба вывоза ненужных вещей";"Химки";"Гоголя, 5Б";"141401";="+74951201456, +74994502566";"";"http://chumodan.com";"https://vk.com/chumodancom";"";"37.453329";"55.894296";"Одежда / Обувь";"Секонд-хенд, Книги, Антиквариат, Пункты приёма"
"15";"Добро, комиссионный магазин";"Москва";"Дмитровское шоссе, 73 ст3";"125504";="+74958110173";"";"http://dobrokomok.ru/";"https://vk.com/dobrokomok";"";"37.557853";"55.856976";"Торговые комплексы / Спецмагазины";"Комиссионные магазины, Женская одежда, Мужская одежда, Антиквариат, Бижутерия, Бытовая техника, Аудиотехника / Видеотехника, Верхняя одежда, Головные / шейные уборы, Детская одежда, Детская обувь, Игрушки, Посуда, Спортивная одежда / обувь, Сумки / Кожгалантерея, Часы / Аксессуары, Электроинструмент, Аксессуары к мобильным телефонам, Меха / Дублёнки / Кожа, Музыкальные инструменты / Аксессуары, Обувные магазины, Спортивный инвентарь, Спортивное оборудование, Товары для новорождённых, Товары для охоты, Товары для рыбалки, Школьная форма, Джинсовая одежда, Компьютеры / Комплектующие, Мобильные телефоны, Снаряжение для туризма и отдыха"
"16";"Сделано в СССР, блошиный рынок";"Москва";"Большая Семёновская улица, 10 ст13";"107023";="+79670589589, +79687111336";"";"http://antikvintage.ru";"https://vk.com/sdelano_v_cccp";"";"37.702094";"55.78255";"Культура / Искусство / Религия";"Антиквариат, Художественные выставки / Галереи, Организация выставок"
"17";"Numizmatik.ru, интернет-магазин монет";"Москва";"Тверская улица, 12 ст8";"125009";="+79150022223, +79030060044, 88003331477";"";"http://numizmatik.ru";"https://vk.com/numizmatikru";"";"37.609582";"55.764062";"Культура / Искусство / Религия";"Филателия / Нумизматика, Антиквариат, Инвестиционные драгоценные металлы, Сувениры"
"18";"The-lombard.ru, центр по скупке золота";"Москва";"Тверская улица, 27 ст1";"125009";="+74957245755, +79255558922";"";"http://www.the-lombard.ru";"";"";"37.597879";"55.768586";"Торговые комплексы / Спецмагазины";"Покупка драгоценных металлов / ювелирных изделий, Антиквариат, Часы / Аксессуары"
"19";"818 vintage, магазин винтажных украшений";"Москва";"Спартаковская площадь, 16/15 ст15";"105005";="+79771628188, +79651241212";"";"http://818vintage.ru";"";"";"37.679667";"55.776035";"Одежда / Обувь";"Бижутерия, Антиквариат"
"20";"Мосвинтаж, рынок старинных и ремесленных товаров";"Москва";"Зубовский бульвар, 2 ст1";"119021";="+79037439378";"";"http://taplink.cc/mosvintage.ru";"https://vk.com/antiquemarket";"";"37.593565";"55.736418";"Культура / Искусство / Религия";"Антиквариат, Художественные товары"
"21";"Базисголд, компания";"Москва";"Земляной Вал улица, 21/2-4 ст2";"105064";="+74951352105";"";"http://bazisgold.ru";"";"";"37.659019";"55.760608";"Торговые комплексы / Спецмагазины";"Покупка драгоценных металлов / ювелирных изделий, Антиквариат"
"22";"Антресоль";"Москва";"улица Кржижановского, 24/35 к3";"117218";="+79959180028, +79957881505, +79161680029";"";"http://antresol.msk.ru";"";"";"37.577991";"55.677062";"Одежда / Обувь";"Секонд-хенд, Антиквариат, Книги, Канцелярские товары / Учебные принадлежности, Сувениры"
"23";"Chaban vintage, магазин винтажной одежды";"Москва";"Пятницкая улица, 50/2 ст5";"119017";="+79269622280";"";"";"https://vk.com/chaban.vintage";"";"37.626768";"55.735238";"Одежда / Обувь";"Женская одежда, Верхняя одежда, Головные / шейные уборы, Мужская одежда, Антиквариат"
"24";"Мосвинтаж, рынок старинных и ремесленных товаров";"Москва";"Большая Новодмитровская, 36 ст2";"127015";="+79037439378";"";"http://taplink.cc/mosvintage.ru";"";"";"37.585212";"55.804845";"Культура / Искусство / Религия";"Антиквариат, Товары национальных / народных ремёсел"
"25";"Империал, нумизматический магазин";"Москва";"Тверская улица, 20 ст1";"125009";="+74993903997, 88005502644";"";"http://imperial-mag.ru";"https://vk.com/imperialmagru";"";"37.602758";"55.766601";"Культура / Искусство / Религия";"Филателия / Нумизматика, Антиквариат"
"26";"Книжная ностальгия, антикварно-букинистический магазин";"Москва";"Щёлковское шоссе, 3 ст1";"105122";="+79262166449, +79037733122";"";"http://nostalgy-books.ru";"";"";"37.753042";"55.803751";"Культура / Искусство / Религия";"Антиквариат, Книги"
"27";"Пионер, комиссионный магазин";"Москва";"Верхняя Масловка, 21";"127083";="+79636188621";"";"http://pioner.msk.ru";"https://vk.com/komispioner";"";"37.560354";"55.796234";"Торговые комплексы / Спецмагазины";"Комиссионные магазины, Женская одежда, Мужская одежда, Посуда, Обувные магазины, Сумки / Кожгалантерея, Сувениры, Секонд-хенд, Антиквариат"
"28";"Однажды";"Москва";"Краснопролетарская, 7";"127006";="+74956625815";"";"http://Odnajdy.ru";"https://vk.com/odnajdyshop";"";"37.606814";"55.775156";"Культура / Искусство / Религия";"Антиквариат"
"29";"Лавка старьевщика Макса Верника";"Москва";"переулок Сивцев Вражек, 36";"119002";="+79253147777";"";"";"";"";"37.588582";"55.747017";"Культура / Искусство / Религия";"Антиквариат, Сувениры"
"30";"Антикварная лавка в Калашном";"Москва";"улица Большая Никитская, 21/18 ст1";"125009";="+74956917509, +74956905413";"";"http://akcia-antique.ru";"https://vk.com/akcia_antique";"";"37.600131";"55.756954";"Культура / Искусство / Религия";"Антиквариат, Книги, Ювелирные изделия, Комиссионные магазины, Покупка драгоценных металлов / ювелирных изделий, Мягкая мебель, Часы / Аксессуары"
"31";"Русский Библиофил, магазин антикварной книги";"Москва";"Чистопрудный бульвар, 14 ст3";"101000";="+74956259090, +74957236919";"";"http://www.rbfl.ru";"";"";"37.644578";"55.759982";"Хозтовары / Канцелярия / Упаковка";"Книги, Антиквариат"
"32";"Винтаж, комиссионный магазин";"Москва";"Талалихина, 6-8/2 ст3";"109147";="+79031519715";"";"";"";"";"37.675437";"55.737293";"Торговые комплексы / Спецмагазины";"Комиссионные магазины, Антиквариат, Сувениры, Товары национальных / народных ремёсел, Посуда"
"33";"Винтажный комиссионный №1";"Одинцово";"Можайское шоссе, 71в";"143007";="+79264149812";"";"";"";"";"37.282043";"55.678227";"Культура / Искусство / Религия";"Антиквариат, Художественные мастерские"
"34";"Коллекционер, магазин";"Москва";"Долгоруковская улица, 40";"127006";="+74955184096, +74999782603";"";"http://filateliamag.ru";"";"";"37.602744";"55.778047";"Культура / Искусство / Религия";"Антиквариат"
"35";"Селекция, салон цветов";"Москва";"Новокузнецкая улица, 4/12 ст2";"119017";="+74956439643, +79856676767";"";"";"";"";"37.629631";"55.739737";"Торговые комплексы / Спецмагазины";"Цветы, Сувениры, Антиквариат, Доставка цветов, Сувенирные композиции"
"36";"Скупка24";"Подольск";"Революционный проспект, 34/29";"142116";="+79253511201, +74993254369";"";"http://ломбард.com/?utm_source=2gis_rev34";"https://vk.com/kmskupka";"";"37.557359";"55.431527";"Торговые комплексы / Спецмагазины";"Комиссионные магазины, Бытовая техника, Покупка драгоценных металлов / ювелирных изделий, Антиквариат, Мобильные телефоны, Компьютеры / Комплектующие, Электроинструмент, Аудиотехника / Видеотехника, Ремонт компьютеров, Часы / Аксессуары, Бензоинструмент, Велосипеды"
"37";"Читальный зал дяди Гиляя, антикварный салон";"Москва";"Никитский бульвар, 8";"119019";="+74956977902, +79852498797";"";"http://knigiantikvar.ru";"";"";"37.60121";"55.754188";"Культура / Искусство / Религия";"Антиквариат, Книги, Календари / Открытки"
"38";"Скупка №1, комиссионный магазин";"Москва";"9-я Парковая улица, 25";"105043";="+79268053885, +74994442589";"";"http://skypka1.com";"https://vk.com/skupkan1";"";"37.798678";"55.795853";"Торговые комплексы / Спецмагазины";"Комиссионные магазины, Компьютеры / Комплектующие, Мобильные телефоны, Аудиотехника / Видеотехника, Автозвук, Антиквариат, Электроинструмент, Аксессуары к мобильным телефонам, CD / DVD / BD"
"39";"Gutmagaz, комиссионный магазин";"Москва";"Дубнинская, 27 к2";"127474";="+79036184090, +79036117794";"";"http://gutmagaz.business.site";"https://vk.com/gutmagaz";"";"37.562972";"55.864049";"Торговые комплексы / Спецмагазины";"Комиссионные магазины, Секонд-хенд, Обувные магазины, Сувениры, Сумки / Кожгалантерея, Художественные товары, Детская одежда, Посуда, Антиквариат, Часы / Аксессуары, Ювелирные изделия, Меха / Дублёнки / Кожа, Верхняя одежда, Джинсовая одежда, Женская одежда, Спортивная одежда / обувь, Головные / шейные уборы, Мужская одежда, Школьная форма, Бижутерия"
"40";"Центральная книжная лавка писателей международного литфонда";"Москва";"улица Кузнецкий Мост, 18/7";"107031";="+74956244239, +74956244645";"";"";"";"";"37.6224";"55.761893";"Хозтовары / Канцелярия / Упаковка";"Книги, Антиквариат"
"41";"Тульские самовары, магазин сувениров и посуды";"Москва";"Дубининская, 70";"115054";="+74957441041";"";"http://samovary.ru";"";"";"37.635232";"55.721121";"Торговые комплексы / Спецмагазины";"Сувениры, Посуда, Товары для пивоварения / самогоноварения, Товары национальных / народных ремёсел, Антиквариат"
"42";"Русская эмаль, аукционный дом";"Москва";"Гоголевский бульвар, 29";"119019";="+74957888616";"";"http://auction-rusenamel.ru";"";"";"37.599847";"55.749982";"Юридические / финансовые / бизнес-услуги";"Организация и проведение тендеров / аукционов, Антиквариат"
"43";"Редкие монеты, аукционный дом";"Москва";"Дмитровский переулок, 9";"107031";="+74997034135";"";"http://www.rarecoins.ru";"https://vk.com/auction_rarecoins";"";"37.617038";"55.762589";"Культура / Искусство / Религия";"Антиквариат"
"44";"Старая книга, магазин антикварных книг";"Москва";"Малый Головин переулок, 5";"107045";="+74957492631";"";"http://www.oldbooks.ru";"";"";"37.634456";"55.7692";"Хозтовары / Канцелярия / Упаковка";"Книги, Антиквариат"
"45";"Лейбштандарт, торговая компания";"Москва";"Большой Саввинский переулок, 9 ст3";"119435";="+74956942055, +74956940700, +79057166122";"";"http://antikvariat.ru";"";"";"37.568707";"55.735078";"Культура / Искусство / Религия";"Антиквариат, Сценические декорации / Бутафория, Сувениры"
"46";"Антикзон, антикварный магазин";"Москва";"Рождественский бульвар, 10/7 ст1";"107031";="+79260055171, +74956484496, 88003022808";"";"http://antikzone.ru";"";"";"37.626579";"55.766296";"Культура / Искусство / Религия";"Антиквариат, Подарочная упаковка"
"47";"Почти даром, магазин";"Москва";"Щёлковское шоссе, 3 ст1";"105122";="+79670086828";"";"";"";"";"37.752943";"55.803621";"Культура / Искусство / Религия";"Антиквариат, Книги, Филателия / Нумизматика"
"48";"Арт-Самовар, магазин Тульских самоваров, сувениров и подарков";"Москва";"улица Вавилова, 66";"119261";="+79168161691, +79674357575";"";"http://art-samovar.ru";"https://vk.com/art.samovar";"";"37.549834";"55.68305";"Торговые комплексы / Спецмагазины";"Товары национальных / народных ремёсел, Сувениры, Антиквариат, Посуда"
"49";"Rezonu, комиссионный магазин";"Москва";"Деловая, 11 к2 ст2";"115477";="+79690101122, +79852231325, +74959696368";"";"http://rezonu.ru";"https://vk.com/rezonu";"";"37.644343";"55.632291";"Торговые комплексы / Спецмагазины";"Комиссионные магазины, Бытовая техника, Мягкая мебель, Офисная мебель, Корпусная мебель, Антиквариат, Посуда, Матрасы, Детская мебель, Женская одежда, Верхняя одежда, Игрушки, Мебель для кухни, Сумки / Кожгалантерея, Часы / Аксессуары, Секонд-хенд, Керамические изделия, Бижутерия, Сувениры, Светотехника, Художественные товары"
"50";"Магазин антиквариариата";"Москва";"улица Арбат, 54/2 ст1";"119002";="+79175224634, +74951200215";"";"http://antikvariat74.ru";"https://vk.com/club11257303";"";"37.583557";"55.747209";"Культура / Искусство / Религия";"Антиквариат, Часы / Аксессуары, Посуда, Сувениры, Ювелирные изделия"
"51";"Салон скупки";"Москва";"улица Арбат, 42 ст1";"119002";="+74950552250, +79254072100, +79267706721";"";"http://skupka-24.ru";"";"";"37.587027";"55.748216";"Торговые комплексы / Спецмагазины";"Покупка драгоценных металлов / ювелирных изделий, Приём / переработка драгоценных металлов, Антиквариат, Ювелирные камни"
"52";"Imbrium, интернет-магазин сувениров";"д. Чёрная Грязь";"";"";="+79254177962";"";"http://imbrium.ru";"";"";"";"";"Торговые комплексы / Спецмагазины";"Сувениры, Антиквариат, Книги"
"53";"Сервисный центр и комиссионный магазин";"Москва";"Новоясеневский проспект, 2Б";"117574";="";"";"";"";"";"37.508243";"55.617126";"Интернет / Связь / Информационные технологии";"Аксессуары к мобильным телефонам, Ремонт мобильных телефонов, Антиквариат, Комиссионные магазины, Ремонт / изготовление ювелирных изделий"
"54";"Лавка антиквариата";"Лобня";"Ленина, 9а";"141730";="+79036860845";"";"";"";"";"37.481584";"56.012359";"Культура / Искусство / Религия";"Антиквариат"
"55";"1я скупка";"Москва";"Верхняя Сыромятническая, 2";"105120";="+79331118181";"";"http://1-skupka.ru";"";"";"37.66007";"55.754315";"Торговые комплексы / Спецмагазины";"Покупка драгоценных металлов / ювелирных изделий, Антиквариат"
"56";"New live, комиссионный бутик";"Апрелевка";"Августовская улица, 1Б";"143360";="+79269266600";"";"";"";"";"37.072396";"55.551922";"Торговые комплексы / Спецмагазины";"Комиссионные магазины, Женская одежда, Мужская одежда, Обувные магазины, Антиквариат"
"57";"Раритетъ, антикварный магазин";"Московский";"Хабарова, 2";"108811";="+79267862020";"";"";"";"";"37.349339";"55.592963";"Культура / Искусство / Религия";"Антиквариат, Сувениры, Художественные товары"
"58";"Дух эпох, антикварный салон";"Москва";"Щёлковское шоссе, 3 ст1";"105122";="+79660950706";"";"http://dyxenox.ru";"https://vk.com/antikvariate";"";"37.752909";"55.803535";"Культура / Искусство / Религия";"Антиквариат"
"59";"Высший свет, арт-проект";"пос. Дубровицы";"посёлок Дубровицы, 1 ст3";"142132";="+79032323772";"";"";"https://vk.com/vsvet_art";"";"37.492235";"55.441083";"Мебель / Материалы / Фурнитура";"Ремонт / реставрация мебели, Антиквариат, Сувениры"
"60";"Французский антиквариат, комиссионный магазин";"Москва";"Щёлковское шоссе, 3 ст1";"105122";="+79114975877";"";"";"";"";"37.752824";"55.804015";"Торговые комплексы / Спецмагазины";"Комиссионные магазины, Антиквариат, Печи / Камины"
"61";"Антикварный магазин";"Электросталь";"проспект Ленина, 25";"144005";="+79099158661, +79151456000";"";"";"https://vk.com/antikvar750";"";"38.440239";"55.79632";"Культура / Искусство / Религия";"Антиквариат"
"62";"АнтикварЪ, магазин антиквариата";"Москва";"1-я Квесисская улица, 18 ст11";"127015";="+79151851423";"";"";"";"";"37.579293";"55.794966";"Культура / Искусство / Религия";"Антиквариат"
"63";"Антикварная лавка";"Москва";"Осенний бульвар, 18 к1";"121614";="+79685551222";"";"http://ekber.ru";"";"";"37.408244";"55.761933";"Культура / Искусство / Религия";"Антиквариат, Сувениры, Комиссионные магазины"
"64";"Магазин антиквариата";"Москва";"1-я Дубровская улица, 1а";"109044";="+79663874933, +79919291880";"";"";"";"";"37.66933";"55.728296";"Культура / Искусство / Религия";"Антиквариат, Комиссионные магазины"
"65";"Магазин янтарных украшений";"Подольск";"Ленинградская, 7";"142121";="+79099389067";"";"";"";"";"37.50101";"55.426362";"Торговые комплексы / Спецмагазины";"Сувениры, Антиквариат, Художественные товары, Бижутерия, Ювелирные изделия"
"66";"Meandr antik, антикварный магазин";"Москва";"Фрунзенская набережная, 52";"119270";="+74992428474, +79255066926";"";"http://meandr-antik.ru";"";"";"37.579103";"55.717022";"Культура / Искусство / Религия";"Антиквариат"
"67";"На горке, комиссионный магазин";"Москва";"Веерная улица, 24г";"119501";="+79858096371, +79167008850";"";"";"";"";"37.484813";"55.70857";"Торговые комплексы / Спецмагазины";"Комиссионные магазины, Женская одежда, Мужская одежда, Обувные магазины, Часы / Аксессуары, Антиквариат"
"68";"Магазин антикварных книг";"";"Новорижское шоссе 23 км, ст1";"143420";="";"";"";"";"";"37.280586";"55.799961";"Хозтовары / Канцелярия / Упаковка";"Книги, Антиквариат"
"69";"Компания по скупке товаров народного потребления";"Люберцы";"Волковская, вл9/2";"140000";="+79779769999";"";"";"";"";"37.895722";"55.681498";"Торговые комплексы / Спецмагазины";"Комиссионные магазины, Бытовая техника, Аудиотехника / Видеотехника, Аксессуары к мобильным телефонам, Антиквариат, Велосипеды, Компьютеры / Комплектующие, Музыкальные инструменты / Аксессуары, Электроинструмент, Часы / Аксессуары, Мобильные телефоны, Бензоинструмент"
"70";"Компания по скупке товаров народного потребления";"с. Быково";"Театральная, 1";"140153";="+79779769999";"";"";"";"";"38.086667";"55.610044";"Торговые комплексы / Спецмагазины";"Комиссионные магазины, Бытовая техника, Аудиотехника / Видеотехника, Аксессуары к мобильным телефонам, Антиквариат, Велосипеды, Компьютеры / Комплектующие, Музыкальные инструменты / Аксессуары, Электроинструмент, Часы / Аксессуары, Мобильные телефоны, Бензоинструмент"
"71";"Antik-AB, магазин антикварный мебели";"рп. Новоивановское";"Западная, 100";"143026";="+79588060678";"";"http://antikab.ru";"";"";"37.375317";"55.71245";"Культура / Искусство / Религия";"Антиквариат, Корпусная мебель, Мебель для кухни"
"72";"AntikButik101, магазин антиквариата";"рп. Новоивановское";"Западная, 100";"143026";="+79639937617";"";"http://antikbutik101.com";"";"";"37.374309";"55.712576";"Торговые комплексы / Спецмагазины";"Сувениры, Антиквариат"
"73";"Лавка старины, антикварный магазин";"Киржач";"Гагарина, 29Б";"601010";="+79260907272";"";"";"";"";"38.870286";"56.161273";"Культура / Искусство / Религия";"Антиквариат"
"74";"Шалфей, магазин подарков";"пос. Горки-10";"посёлок Горки 10, 27/1";"143032";="+79852110609, +79168051060";"";"";"";"";"37.027384";"55.704737";"Хозтовары / Канцелярия / Упаковка";"Посуда, Сувениры, Календари / Открытки, Подарочная упаковка, Антиквариат"
"75";"СССР, комиссионный магазин";"Электроугли";"Школьная, 27";"142455";="+79261122773, +79168778481";"";"";"https://vk.com/skypkacccp";"";"38.216934";"55.716895";"Торговые комплексы / Спецмагазины";"Комиссионные магазины, Антиквариат, Аудиотехника / Видеотехника, Мобильные телефоны, Ювелирные изделия, Спортивный инвентарь, Электроинструмент"
"76";"Спутник-Букинист, книжный магазин";"Москва";"Ленинский проспект, 32";"119334";="+74991371371";"";"http://www.alib.ru/bs.php4?bs=Sputnik";"https://vk.com/club98648661";"";"37.579988";"55.709205";"Хозтовары / Канцелярия / Упаковка";"Книги, Антиквариат"
"77";"Ретро, комиссионный магазин";"Москва";"улица Череповецкая, 24";"127576";="+74954459590, +79317775500";"";"http://www.moskomcenter.ru";"https://vk.com/retroshopmsk";"";"37.58433";"55.897324";"Торговые комплексы / Спецмагазины";"Комиссионные магазины, Антиквариат, Товары национальных / народных ремёсел, Посуда"
"78";"Плюшкин двор, магазин подарков";"д. Воробьи";"Московская улица, 80/2";"249163";="+79107070011";"";"";"";"";"36.814313";"55.150873";"Культура / Искусство / Религия";"Антиквариат"
"79";"Книжный аристократ, магазин";"Москва";"Ленинградский проспект, 37Б";"125167";="+79263805050, +74950152342, +79646419400, +74994090646";"";"http://www.arbook.ru";"";"";"37.544538";"55.790386";"Торговые комплексы / Спецмагазины";"Сувениры, Книги, Антиквариат, Художественные товары, Религиозные товары"
"80";"Подарки с историей, антикварный магазин";"дп. Снегири";"Московская, 12";"143590";="+79091595515";"";"";"";"";"37.036998";"55.887554";"Культура / Искусство / Религия";"Антиквариат, Комиссионные магазины, Посуда, Керамические изделия, Товары национальных / народных ремёсел"
"81";"Антикварная лавка";"Москва";"Митинская улица, 42";"125430";="+79651542938";"";"http://antique-store-1512.business.site";"";"";"37.359776";"55.848225";"Культура / Искусство / Религия";"Антиквариат"
"82";"Ekaterina Kostrigina, ювелирный салон";"Москва";"улица Охотный Ряд, 2";"103265";="+79295408261";"";"";"";"";"37.617638";"55.757266";"Торговые комплексы / Спецмагазины";"Ювелирные изделия, Сувениры, Антиквариат, Керамические изделия"
"83";"Комиссионка СССР";"с. Быково";"Театральная, 3 ст44";"140153";="+79261473892";"";"";"";"";"38.084848";"55.609327";"Торговые комплексы / Спецмагазины";"Комиссионные магазины, Антиквариат"
"84";"Комиссионка, комиссионный магазин";"с. Быково";"Театральная, 3 ст3";"140153";="+79251978888";"";"";"";"";"38.084963";"55.609854";"Торговые комплексы / Спецмагазины";"Комиссионные магазины, Антиквариат, Бытовая техника, Садово-огородный инвентарь / техника, Электроинструмент, Бензоинструмент, Музыкальные инструменты / Аксессуары, Мобильные телефоны, Компьютеры / Комплектующие, Товары для реабилитации, Аудиотехника / Видеотехника"
"85";"Комиссионный магазин";"Зеленоград";"Новокрюковская, 9";"124617";="+79255858085, +79257053232";"";"";"";"";"37.171988";"55.980204";"Торговые комплексы / Спецмагазины";"Комиссионные магазины, Бытовая техника, Мобильные телефоны, Антиквариат"
"86";"Бельведер, антикварный салон";"Москва";"Садовая-Кудринская улица, 25";"123001";="+79166850994, +79854392095, +79857696139";"";"";"";"";"37.590013";"55.765805";"Культура / Искусство / Религия";"Антиквариат"
"87";"Компания по скупке антиквариата";"Москва";"Судостроительная, 1";"115470";="+79164700889";"";"";"";"";"37.666448";"55.679421";"Торговые комплексы / Спецмагазины";"Комиссионные магазины, Антиквариат"
"88";"Компания по скупке антиквариата";"Москва";"Шаболовка, 38";"115419";="+79164700889";"";"";"";"";"37.607456";"55.71709";"Торговые комплексы / Спецмагазины";"Комиссионные магазины, Антиквариат"
"89";"Антикварный магазин";"Москва";"проспект Мира, 31";"129110";="+79299000655";"";"";"";"";"37.632464";"55.780061";"Культура / Искусство / Религия";"Антиквариат, Комиссионные магазины"
"90";"Интерес, комиссионный магазин";"Москва";"Тверская-Ямская 1-я, 27 ст5";"125047";="88005113407, +79015413699";"";"";"";"";"37.585327";"55.775461";"Торговые комплексы / Спецмагазины";"Комиссионные магазины, Женская одежда, Бытовая техника, Мужская одежда, Бижутерия, Аксессуары к мобильным телефонам, Антиквариат, Аудиотехника / Видеотехника, Верхняя одежда, Запчасти к мобильным телефонам, Компьютеры / Комплектующие, Меха / Дублёнки / Кожа, Мобильные телефоны, Музыкальные инструменты / Аксессуары, Посуда, Сумки / Кожгалантерея, Спортивный инвентарь, Фототовары, Звуковое / световое / видеооборудование, Бензоинструмент, Велосипеды, Часы / Аксессуары, Электроинструмент, Игрушки, Обувные магазины, Сварочное оборудование, Снаряжение для туризма и отдыха, Спортивная одежда / обувь"
"91";"Ln mebell-стильный интерьер, салон мебели и декора";"Москва";"бульвар Веласкеса, 1 к3";"108802";="+74957895508, +79850175353";"";"http://lnmebell.ru";"https://vk.com/lnmebell";"";"37.455508";"55.592674";"Мебель / Материалы / Фурнитура";"Корпусная мебель, Мягкая мебель, Детская мебель, Матрасы, Мебель для кухни, Офисная мебель, Изготовление мебели под заказ, Мебель для ванных комнат, Керамические изделия, Антиквариат, Сувенирные композиции, Ковры, Посуда"
"92";"Антикварная лавка";"Королёв";"Фрунзе, 2а";"141070";="";"";"";"";"";"37.821525";"55.92393";"Культура / Искусство / Религия";"Антиквариат, Комиссионные магазины"
"93";"Антикварный магазин";"Москва";"улица Покровка, 4 ст1";"101000";="+74956283246";"";"";"";"";"37.640673";"55.758393";"Культура / Искусство / Религия";"Антиквариат"
"94";"Скупка 24, комиссионный магазин";"Москва";"Днепропетровская улица, 3 к1";"117525";="+79057887989";"";"http://skupka24south.ru";"";"";"37.604625";"55.621735";"Торговые комплексы / Спецмагазины";"Комиссионные магазины, Аксессуары к мобильным телефонам, Аудиотехника / Видеотехника, Бензоинструмент, Антиквариат, Велосипеды, Компьютеры / Комплектующие, Мобильные телефоны, Музыкальные инструменты / Аксессуары, Фототовары, Часы / Аксессуары"
"95";"Комиссионный магазин";"Пушкино";"Лермонтова, 2а";"141207";="";"";"";"";"";"37.841251";"56.013983";"Торговые комплексы / Спецмагазины";"Комиссионные магазины, Посуда, Часы / Аксессуары, Антиквариат, Филателия / Нумизматика"
"96";"Competentia, магазин для коллекционеров";"Москва";"Щёлковское шоссе, 3 ст1";"105122";="+79256222001, +79264258499, +79197744464";"";"";"";"";"37.753157";"55.803488";"Культура / Искусство / Религия";"Антиквариат, Филателия / Нумизматика"
"97";"Полполушкин, антикварный салон";"Москва";"Щёлковское шоссе, 3 ст1";"105122";="+79057746554";"";"";"https://vk.com/id581995134";"";"37.753087";"55.803691";"Культура / Искусство / Религия";"Филателия / Нумизматика, Антиквариат"
"98";"Антиквар №1, аукционный дом";"Москва";"Щёлковское шоссе, 3 ст1";"105122";="+79259257047, +79683637753";"";"";"";"";"37.75333";"55.803539";"Культура / Искусство / Религия";"Антиквариат, Филателия / Нумизматика"
"99";"Магазин по покупке и продаже монет";"Москва";"Щёлковское шоссе, 3 ст1";"105122";="";"";"";"";"";"37.753312";"55.803823";"Культура / Искусство / Религия";"Филателия / Нумизматика, Антиквариат"
"100";"Сервисный центр, с. Немчиновка";"с. Немчиновка";"Советский проспект, 62 ст2";"143025";="+79153464746";"";"http://master-gin.ru";"";"";"37.354634";"55.723524";"Коммунальные / бытовые / ритуальные услуги";"Изготовление ключей, Ремонт мобильных телефонов, Аксессуары к мобильным телефонам, Копировальные услуги, Перевод с иностранных языков, Комиссионные магазины, Запчасти к мобильным телефонам, Ремонт компьютеров, Мобильные телефоны, Заточка / шлифовка режущих инструментов, Антиквариат, Часы / Аксессуары, Заправка картриджей, Элементы питания, Компьютеры / Комплектующие, Ремонт часов, Покупка драгоценных металлов / ювелирных изделий"
"101";"Компания по скупке золота и антикварных предметов";"Москва";"Марксистская, 34 к10";"109147";="+79153405707, +79775098987, +79998049210";"";"";"";"";"37.664753";"55.734087";"Культура / Искусство / Религия";"Антиквариат, Комиссионные магазины, Покупка драгоценных металлов / ювелирных изделий, Приём / переработка драгоценных металлов"
"102";"Комиссионный магазин";"Москва";"проспект Мира, 122а";"129164";="+79160711559, +79773883949";"";"";"";"";"37.640842";"55.812389";"Торговые комплексы / Спецмагазины";"Комиссионные магазины, Часы / Аксессуары, CD / DVD / BD, Музыкальные пластинки, Антиквариат"
"103";"Комиссионный магазин";"Москва";"проспект Мира, 122Б";"129164";="+79263511777";"";"";"";"";"37.640723";"55.812181";"Торговые комплексы / Спецмагазины";"Ремонт / изготовление ювелирных изделий, Комиссионные магазины, Ювелирные изделия, Антиквариат, Филателия / Нумизматика"
"104";"Центр скупки";"Москва";"Таганская улица, 2";"109147";="+79689433000";"";"";"";"";"37.657214";"55.740844";"Торговые комплексы / Спецмагазины";"Комиссионные магазины, Мобильные телефоны, Компьютеры / Комплектующие, Часы / Аксессуары, Антиквариат, Электроинструмент"
"105";"Компания по скупке антиквариата и предметов старины";"Москва";"Каспийская улица, 36 ст2";"115516";="+79661660199";"";"http://895428.tilda.ws/skupka_stariny";"";"";"37.667569";"55.619372";"Культура / Искусство / Религия";"Антиквариат, Комиссионные магазины"
"106";"Компания по скупке антиквариата и предметов старины";"Москва";"Часовая, 11/3";"125315";="+79661660199";"";"http://895428.tilda.ws";"";"";"37.529205";"55.808301";"Культура / Искусство / Религия";"Антиквариат, Комиссионные магазины"
"107";"Компания по скупке антиквариата и предметов старины";"Москва";"Балаклавский проспект, вл5а ст12";"117639";="+79661660199, +79670646432";"";"";"";"";"37.608367";"55.640261";"Культура / Искусство / Религия";"Антиквариат, Комиссионные магазины"
"108";"Компания по скупке антиквариата и предметов старины";"Москва";"Колодезный переулок, 3";"107076";="+79661660199";"";"";"";"";"37.697269";"55.798162";"Культура / Искусство / Религия";"Антиквариат, Комиссионные магазины"
"109";"Магазин для коллекционеров";"Чехов";"Вишнёвый бульвар, 1";"142301";="+79161615881";"";"";"";"";"37.488242";"55.14739";"Культура / Искусство / Религия";"Филателия / Нумизматика, Антиквариат"
"110";"Времена, антикварная галерея";"Москва";"Садовая-Кудринская улица, 25";"123001";="+79037217870";"";"";"";"";"37.590013";"55.765805";"Культура / Искусство / Религия";"Антиквариат"
"111";"Form & bronze, галерея";"Москва";"Садовая-Кудринская улица, 25";"123001";="";"";"http://form-bronze.com";"https://vk.com/formandbronze";"";"37.590013";"55.765805";"Культура / Искусство / Религия";"Антиквариат"
"112";"Armantik, галерея антикварного оружия";"Москва";"Садовая-Кудринская улица, 25";"123001";="+79032881798";"";"http://armantik.ru";"";"";"37.590013";"55.765805";"Культура / Искусство / Религия";"Антиквариат"
"113";"Moscow art gallery";"Москва";"Садовая-Кудринская улица, 25";"123001";="";"";"http://artgallery.moscow";"";"";"37.590013";"55.765805";"Культура / Искусство / Религия";"Антиквариат, Художественные товары"
"114";"Гараж, антикварный магазин";"Москва";"Электрический переулок, 1 ст21";"123557";="+79857118809";"";"http://гараж-маркет.рф";"";"";"37.574477";"55.771669";"Культура / Искусство / Религия";"Антиквариат, Ремонт / реставрация мебели"
"115";"Лавка вечного коллекционера, компания по скупке антиквариата";"Москва";"Ленинский проспект, 39/1";"119334";="+79253841249";"";"http://lavkavk.ru";"";"";"37.581615";"55.706837";"Культура / Искусство / Религия";"Антиквариат"
"116";"Лавка вечного коллекционера, компания по скупке антиквариата";"Москва";"площадь Победы, 1 к А";"121170";="+79253841249";"";"http://lavkavk.ru";"";"";"37.522058";"55.736478";"Культура / Искусство / Религия";"Антиквариат"
"117";"Купим всё из СССР";"Орехово-Зуево";"улица Пролетарская, 16";"142611";="+79154800705";"";"";"";"";"39.000025";"55.802555";"Культура / Искусство / Религия";"Антиквариат, Комиссионные магазины, Сувениры, Садово-огородный инвентарь / техника"
"118";"Ксин антик, антикварный салон";"Москва";"улица Ильинка, 4";"109012";="+79313290281";"";"";"";"";"37.624553";"55.754342";"Культура / Искусство / Религия";"Антиквариат"
"119";"Сэр Комиссионер, комиссионный магазин";"Москва";"Боровское шоссе, 36";"119634";="88005501606";"";"http://cliningtut.ru";"";"";"37.353746";"55.639636";"Торговые комплексы / Спецмагазины";"Комиссионные магазины, Посуда, Антиквариат, Филателия / Нумизматика"
"120";"Pazirik, галерея персидских ковров";"Москва";"улица Пречистенка, 30/2";"119034";="+74959707610";"";"http://pazirik.ru";"";"";"37.592199";"55.741447";"Текстиль / Предметы интерьера";"Ковры, Художественные выставки / Галереи, Товары национальных / народных ремёсел, Антиквариат"
"121";"Антикварные сезоны, салон подарков";"Москва";"улица Пречистенка, 30/2";"119034";="+79853314881";"";"http://auction-ruseasons.ru";"";"";"37.591916";"55.741329";"Культура / Искусство / Религия";"Антиквариат, Сувениры"
"122";"Магазин по приему и продаже предметов старины";"Москва";"Измайловский проспект, вл54";"105043";="+79670646432";"";"";"";"";"37.785959";"55.788271";"Торговые комплексы / Спецмагазины";"Комиссионные магазины, Антиквариат"
"123";"В Слободе, магазин антиквариата";"Москва";"улица Нагатинская, 16";"115487";="+79850858090";"";"http://www.sloboda-antique.ru";"https://vk.com/public212950333";"";"37.64413";"55.678914";"Культура / Искусство / Религия";"Антиквариат"
"124";"Boutique Antique, салон антиквариата";"Москва";"Якиманский переулок, 6";"119049";="+79251468377";"";"";"https://vk.com/boutiqueantique";"";"37.609961";"55.733932";"Культура / Искусство / Религия";"Антиквариат"
"125";"WoodStream, мебельная компания";"пос. совхоза "Крекшино"";"Южная, 33а ст1";"108810";="88005513166";"";"http://woodstream.online";"https://vk.com/club87567029";"";"37.111449";"55.586064";"Культура / Искусство / Религия";"Антиквариат"
"126";"Достояние, интернет-магазин антикварных вещей";"Москва";"переулок Лучников, 4 ст2";"101000";="+74951425064";"";"http://dostoyanie-shop.ru";"";"";"37.631758";"55.758392";"Культура / Искусство / Религия";"Антиквариат, Сувениры, Пункты выдачи интернет-заказов"
"127";"Евроблоха, шоурум";"Люберцы";"Красная, 1 к23";"140000";="88007004503";"";"http://eurobloha.ru";"https://vk.com/eurobloha";"";"37.890774";"55.683894";"Мебель / Материалы / Фурнитура";"Мягкая мебель, Корпусная мебель, Антиквариат"
"128";"Антик Витрина";"Москва";"Ленинский проспект, 42 к1-2-3";"119119";="+79859115095";"";"http://antik-vitrina.ru";"";"";"37.566957";"55.702537";"Культура / Искусство / Религия";"Антиквариат"
"129";"Антикварный магазин";"Мытищи";"улица Крупской, 3";"141008";="+79162824546";"";"";"";"";"37.73777";"55.912793";"Культура / Искусство / Религия";"Антиквариат"
"130";"Аврора, антикварный салон";"Москва";"Ветошный переулок, 9";"109012";="+79683334888";"";"http://aurora-antik.ru";"";"";"37.621569";"55.755385";"Культура / Искусство / Религия";"Антиквариат"
"131";"Антикъ-Бутикъ, интернет-магазин";"Москва";"";"";="+79253072914, +74994502904";"";"";"";"";"";"";"Культура / Искусство / Религия";"Антиквариат"
"132";"Магазин товаров для бань и саун";"д. Коргашино";"Тарасовская, вл2 ст16";"141033";="+79261169953";"";"";"";"";"37.746522";"55.970004";"Торговые комплексы / Спецмагазины";"Товары для бань / саун, Печи / Камины, Антиквариат"
"133";"Заметки нумизмата, интернет-магазин";"Москва";"3-й Сетуньский проезд, 10";"119136";="+74957845061, +79857845061";"";"http://numizmatium.ru";"https://vk.com/numizmatium";"";"37.534196";"55.732557";"Культура / Искусство / Религия";"Филателия / Нумизматика, Антиквариат"
"134";"Kiselev & Co, интернет-аукцион монет и банкнот";"Москва";"Щёлковское шоссе, 3 ст1";"105122";="+79211292339";"";"";"https://vk.com/kiselevco";"";"37.752737";"55.803992";"Культура / Искусство / Религия";"Антиквариат, Филателия / Нумизматика"
"135";"Комиссионный магазин";"Апрелевка";"Горького, 19";"143360";="+79264040500";"";"";"";"";"37.077314";"55.541279";"Коммунальные / бытовые / ритуальные услуги";"Пункты приёма, Антиквариат, Комиссионные магазины, Мобильные телефоны"
"136";"Jap-art.ru, интернет-магазин японских подарков";"Москва";"";"";="+74952042816";"";"http://www.jap-art.ru";"";"";"";"";"Торговые комплексы / Спецмагазины";"Сувениры, Антиквариат"
"137";"Оценкамарок.рф";"Люберцы";"Инициативная, 13";"140015";="+79151726511";"";"http://ocenkamarok.ru";"";"";"37.900737";"55.685072";"Культура / Искусство / Религия";"Филателия / Нумизматика, Антиквариат"
"138";"Магазин";"";"Новорижское шоссе 57 км, вл10";"143521";="+79031727749";"";"";"";"";"36.808303";"55.848732";"Одежда / Обувь";"Женская одежда, Посуда, Антиквариат, Товары для пивоварения / самогоноварения"
"139";"ТехМобил, сервисный центр и комиссионный магазин";"Москва";"Новоясеневский проспект, 2 ст2";"117574";="+79999116768";"";"";"";"";"37.506714";"55.617656";"Торговые комплексы / Спецмагазины";"Комиссионные магазины, Мобильные телефоны, Ремонт мобильных телефонов, Антиквариат"
"140";"Спектр Ю";"Москва";"Краснопресненская набережная, 16 ст1";"123100";="+79296012777";"";"http://xtribal.ru";"";"";"37.544013";"55.748456";"Культура / Искусство / Религия";"Антиквариат, Ювелирные изделия"
"141";"Стиль, антикварный магазин";"Коломна";"проспект Кирова, 16";"140407";="+79150238736";"";"";"";"";"38.765265";"55.088343";"Культура / Искусство / Религия";"Антиквариат"
"142";"Incognito Gold, комиссионный магазин";"Москва";"Новослободская, 20";"127055";="+79264408080";"";"http://incgold.ru";"";"";"37.598518";"55.782635";"Торговые комплексы / Спецмагазины";"Комиссионные магазины, Антиквариат, Покупка драгоценных металлов / ювелирных изделий, Приём / переработка драгоценных металлов, Часы / Аксессуары, Ювелирные камни, Сувениры, Ювелирные изделия"
"143";"Kupim, компания по оценке и скупке антиквариата";"Москва";"Преображенская площадь, 7а";"107076";="";"";"";"";"";"37.709261";"55.795468";"Культура / Искусство / Религия";"Антиквариат, Часы / Аксессуары, Приём / переработка драгоценных металлов, Филателия / Нумизматика, Покупка драгоценных металлов / ювелирных изделий"
"144";"Компания по скупке и оценке антиквариата";"Москва";"улица Арбат, 36/2 ст1";"119002";="";"";"";"";"";"37.588436";"55.748888";"Торговые комплексы / Спецмагазины";"Комиссионные магазины, Покупка драгоценных металлов / ювелирных изделий, Антиквариат"
"145";"Ваш Антиквар";"Москва";"улица Пречистенка, 30/2";"119034";="";"";"";"";"";"37.591916";"55.741329";"Культура / Искусство / Религия";"Антиквариат"
"146";"Комиссионный магазин";"Коломна";"площадь Восстания, 6";"140408";="88005006191";"";"http://www.avito.ru/user/c509f8d4f55ca26650c7da3628057438/profile?src=sharing";"";"";"38.802985";"55.084784";"Торговые комплексы / Спецмагазины";"Покупка драгоценных металлов / ювелирных изделий, Копировальные услуги, Комиссионные магазины, Антиквариат"
"147";"Комиссионный магазин";"Москва";"Люблинская улица, 112а";"109369";="+79850707144";"";"";"";"";"37.742718";"55.651169";"Культура / Искусство / Религия";"Антиквариат"
"148";"Боспор, антикварная галерея";"Москва";"Малая Семёновская улица, 5";"107023";="88002019038, +79966909653";"";"http://bosporshop.ru";"https://vk.com/bosporshop";"";"37.707875";"55.78476";"Культура / Искусство / Религия";"Антиквариат, Филателия / Нумизматика"
"149";"Комиссионный магазин";"Москва";"улица Коптевская, 24 ст1";"125239";="+79999440900";"";"";"";"";"37.522496";"55.833415";"Торговые комплексы / Спецмагазины";"Комиссионные магазины, Антиквариат, Сувениры"
"150";"Доверие, комиссионный магазин";"Реутов";"Южная, 2";"143965";="+79990012063, +79998430926";"";"";"";"";"37.859744";"55.74998";"Торговые комплексы / Спецмагазины";"Комиссионные магазины, Мобильные телефоны, Аудиотехника / Видеотехника, Антиквариат, Посуда"
"151";"Русский самовар, магазин антиквариата";"Апрелевка";"Киевское шоссе 44 км, вл1";"143360";="+79037139404";"";"";"";"";"37.082332";"55.53992";"Культура / Искусство / Религия";"Антиквариат, Сувениры, Товары для бань / саун, Продажа кофе, Продажа чая"
"152";"Best & best, комиссионный магазин";"Люберцы";"Смирновская, 17";"140000";="+79251968658";"";"";"";"";"37.893504";"55.679843";"Торговые комплексы / Спецмагазины";"Комиссионные магазины, Антиквариат, Женская одежда, Часы / Аксессуары, Посуда"
"153";"Скупка pro, магазин";"Ногинск";"Трудовая, 8";"142400";="+79917282881";"";"";"https://vk.com/skypkaorehovozuevo";"";"38.440675";"55.852098";"Торговые комплексы / Спецмагазины";"Комиссионные магазины, Компьютеры / Комплектующие, Мобильные телефоны, Бытовая техника, Электроинструмент, Бензоинструмент, Мототехника, Велосипеды, Антиквариат"
"154";"Первая Московская скупка";"Москва";"Земляной Вал улица, 7";"105064";="+79653551553";"";"http://mosskupka1.ru";"https://vk.com/public197591368";"";"37.657743";"55.76228";"Торговые комплексы / Спецмагазины";"Комиссионные магазины, Филателия / Нумизматика, Антиквариат"
"155";"Магазин антиквариата";"д. Благовещенка";"Липовая аллея, 1 ст1";"141544";="+79164717362";"";"";"";"";"37.232041";"55.908628";"Культура / Искусство / Религия";"Антиквариат"
"156";"Комиссионный магазин";"Москва";"Бауманская, 33/2 ст8";"105005";="+79096788590";"";"";"";"";"37.679886";"55.772698";"Торговые комплексы / Спецмагазины";"Комиссионные магазины, Антиквариат"
"157";"Комиссионный магазин";"Истра";"Воскресенская площадь, 3г";"143500";="+79291314444";"";"";"";"";"36.857601";"55.903892";"Торговые комплексы / Спецмагазины";"Комиссионные магазины, Мобильные телефоны, Женская одежда, Антиквариат"
"158";"Антикварный магазин";"Ликино-Дулёво";"Советская, 4";"142671";="+79773037166";"";"";"";"";"38.958075";"55.728653";"Культура / Искусство / Религия";"Антиквариат"
"159";"Антиквариат, магазин";"Егорьевск";"Советская, 108";"140301";="+79670700948";"";"";"";"";"39.037226";"55.381772";"Культура / Искусство / Религия";"Антиквариат"
"160";"Эпоха, антикварный салон";"Одинцово";"Внуковская, 11 ст24";"143006";="+79637806430";"";"http://www.epoxa.ru";"";"";"37.279572";"55.655427";"Строительство / Недвижимость / Ремонт";"Дизайн интерьеров, Антиквариат"
"161";"Антикварная лавка";"Москва";"2-я Фрунзенская улица, 10 к2";"119146";="+79771504703";"";"";"";"";"37.581999";"55.72494";"Торговые комплексы / Спецмагазины";"Комиссионные магазины, Антиквариат"
"162";"Антикварный магазин";"Москва";"Вешняковская, 18Б";"111538";="+79035227727";"";"";"";"";"37.824532";"55.722887";"Культура / Искусство / Религия";"Антиквариат, Комиссионные магазины"
"163";"Маре, антикварный магазин";"Москва";"Павелецкая набережная, 6а";"115114";="+79269713282";"";"";"";"";"37.64624";"55.710231";"Культура / Искусство / Религия";"Антиквариат"
"164";"Карпет хаузер, магазин винтажных ковров";"Москва";"переулок Лучников, 4 ст1";"101000";="+79264632223";"";"http://carpethauser.ru";"";"";"37.631427";"55.758387";"Культура / Искусство / Религия";"Антиквариат, Ковры, Напольные покрытия / Комплектующие, Мягкая мебель, Чистка ковров"
"165";"Версаль, магазин светотехники";"Москва";"22 километр Киевское шоссе, вл4 ст2а";"108811";="";"";"";"";"";"37.437024";"55.6353";"Электроника / Электротехника";"Светотехника, Антиквариат"
"166";"Скупка-МСК";"Москва";"Ленинградский проспект, 75 к1а";"125057";="+79779515344, +74997149363";"";"http://скупка-мск.рф";"";"";"37.513193";"55.803925";"Торговые комплексы / Спецмагазины";"Покупка драгоценных металлов / ювелирных изделий, Антиквариат"
"167";"Эпоха антиквариата, комиссионный магазин";"Москва";"Садовая-Черногрязская улица, 16/18";"101000";="+79255646665, +79151157070";"";"http://allskupka.ru";"";"";"37.654256";"55.76514";"Торговые комплексы / Спецмагазины";"Комиссионные магазины, Антиквариат"
"168";"Скупка-Купец, комиссионный магазин";"Балашиха";"Шоссейная, 11";"143920";="";"";"";"";"";"38.117184";"55.752928";"Торговые комплексы / Спецмагазины";"Комиссионные магазины, Мобильные телефоны, Электроинструмент, Антиквариат"
"169";"Moscow Antik, антикварный магазин";"Москва";"Щёлковское шоссе, 3 ст1";"105122";="+79067035830, +79688665141";"";"";"";"";"37.753062";"55.803848";"Культура / Искусство / Религия";"Антиквариат"
"170";"Smirnovgallery, галерея";"Москва";"улица Старая Басманная, 33";"105066";="+79266465750, +79645579619";"";"http://smirnovgallery.ru";"";"";"37.667558";"55.768717";"Культура / Искусство / Религия";"Художественные выставки / Галереи, Антиквариат, Художественные мастерские"
"171";"Сервант, антикварный магазин";"Коломна";"Малинское шоссе, 65";"140412";="+79267760076";"";"";"";"";"38.735491";"55.10781";"Культура / Искусство / Религия";"Антиквариат, Комиссионные магазины"
"172";"Скупка pro";"Москва";"Михалковская, 63Б";"125438";="+79852270210";"";"http://skupka.pro";"";"";"37.511378";"55.836493";"Торговые комплексы / Спецмагазины";"Комиссионные магазины, Антиквариат, Бытовая техника, Мототехника, Садово-огородный инвентарь / техника"
"173";"Graceful line, магазин винтажного стекла";"Москва";"улица Электрозаводская, 21";"107023";="+79254605906";"";"";"https://vk.com/graceful_line";"";"37.70556";"55.787128";"Культура / Искусство / Религия";"Антиквариат, Стекло / Зеркала"
"174";"Аурум, центр скупки золота и ювелирных изделий";"Москва";"Ангарская улица, 22 к1";"125635";="+79998173750";"";"http://скупка-золота-москва.рф";"";"";"37.517536";"55.876";"Торговые комплексы / Спецмагазины";"Комиссионные магазины, Ювелирные изделия, Часы / Аксессуары, Филателия / Нумизматика, Покупка драгоценных металлов / ювелирных изделий, Антиквариат, Приём / переработка драгоценных металлов, Ювелирные камни"
"175";"Интерьерная лавка и необычные цветы";"Москва";"Академика Пилюгина, 6";"117393";="+79060990088";"";"";"";"";"37.541252";"55.671935";"Торговые комплексы / Спецмагазины";"Сувениры, Антиквариат"
"176";"Антикварный магазин";"Москва";"площадь Победы, 2 к1";"121170";="";"";"";"";"";"37.521019";"55.73771";"Культура / Искусство / Религия";"Антиквариат"
"177";"Мастер самовар, магазин самоваров";"Москва";"улица Старокачаловская, 5";"117216";="+79260698848, +74993907749";"";"http://mastersamovar.ru";"https://vk.com/public171841340";"";"37.580022";"55.570212";"Культура / Искусство / Религия";"Антиквариат"
"178";"Магазин советских реликвий";"Щёлково";"Талсинская, 1а";"141109";="+79261393086";"";"";"";"";"37.994043";"55.924895";"Культура / Искусство / Религия";"Филателия / Нумизматика, Антиквариат"
"179";"Ishtar, антикварный интернет-магазин";"Москва";"";"";="";"";"http://ishtar-antikwar.ru";"";"";"";"";"Культура / Искусство / Религия";"Антиквариат"
"180";"Комиссионный магазин";"Москва";"Маршала Неделина, 19";"121471";="+79652815127, +79057183566";"";"";"";"";"37.407577";"55.725974";"Торговые комплексы / Спецмагазины";"Комиссионные магазины, Покупка драгоценных металлов / ювелирных изделий, Антиквариат"
"181";"Время золото, скупка";"Москва";"Никитский бульвар, 11/12 ст4";"119019";="+79258193565, +79699992843, +74955323656";"";"http://vremyazoloto.ru";"";"";"37.599251";"55.755146";"Торговые комплексы / Спецмагазины";"Комиссионные магазины, Антиквариат, Часы / Аксессуары"
"182";"Магазин антиквариата";"Ивантеевка";"Задорожная, 1а";"141280";="";"";"";"";"";"37.908536";"55.972496";"Культура / Искусство / Религия";"Антиквариат"
"183";"Голландский интерьер";"рп. Заречье";"Торговая, ст2";"117623";="+79166043865";"";"";"";"";"37.413752";"55.684295";"Культура / Искусство / Религия";"Антиквариат"
"184";"Комиссионный магазин";"Электросталь";"Николаева, 1";"144000";="";"";"";"";"";"38.437206";"55.790469";"Торговые комплексы / Спецмагазины";"Комиссионные магазины, Бытовая техника, Посуда, Аудиотехника / Видеотехника, Часы / Аксессуары, Антиквариат"
"185";"Villahistoria.ru";"Москва";"улица Знаменка, 8/13 ст1";"119019";="+79295647101";"";"";"";"";"37.606754";"55.750173";"Культура / Искусство / Религия";"Антиквариат"
"186";"Мастерская реставрации самоваров";"Москва";"улица Декабристов, 15а";"127566";="+79776035630";"";"";"";"";"37.604783";"55.865442";"Культура / Искусство / Религия";"Антиквариат"
"187";"Бульвар де Лис";"Москва";"улица Ильинка, 4";"109012";="+79852111220";"";"http://bulvardelis.ru";"";"";"37.625239";"55.754572";"Культура / Искусство / Религия";"Антиквариат"
"188";"Комиссионный магазин";"Троицк";"Академическая площадь, 1";"108841";="";"";"";"";"";"37.303886";"55.485292";"Торговые комплексы / Спецмагазины";"Комиссионные магазины, Антиквариат"
"189";"12 талеров, магазин для кладоискателей";"Москва";"Сущёвский Вал улица, 5 ст1а";"127018";="88005505121, +79250525472";"";"http://www.12talerov.ru";"https://vk.com/12talerov";"";"37.592715";"55.793864";"Торговые комплексы / Спецмагазины";"Металлоискатели, Антиквариат, Филателия / Нумизматика"
"190";"Вишневый сад на Трубной, антикварно-букинистический салон";"Москва";"Трубная, 25 ст3";"127051";="+74959687963";"";"http://antikbook.ru";"";"";"37.624461";"55.771251";"Культура / Искусство / Религия";"Антиквариат"
"191";"Твоя скупка";"Пушкино";"Московский проспект, 26";"141207";="+79060001500";"";"";"";"";"37.852643";"56.008274";"Торговые комплексы / Спецмагазины";"Комиссионные магазины, Аудиотехника / Видеотехника, Бытовая техника, Мобильные телефоны, Антиквариат, Компьютеры / Комплектующие, Спортивный инвентарь, Часы / Аксессуары, Электроинструмент, Фототовары, Велосипеды, Бензоинструмент, Музыкальные инструменты / Аксессуары, Сетевое оборудование"
"192";"Скупка №1, комиссионный магазин";"Москва";"Енисейская, 15";"129327";="+79268053885, +74994442589, +79060468686, +79772550303";"";"http://skypka1.com";"https://vk.com/skupkan1";"";"37.662376";"55.866833";"Торговые комплексы / Спецмагазины";"Комиссионные магазины, Компьютеры / Комплектующие, Мобильные телефоны, Аудиотехника / Видеотехника, Фототовары, Автозвук, Антиквариат, Электроинструмент, Велосипеды, Аксессуары к мобильным телефонам, Музыкальные инструменты / Аксессуары"
"193";"Habartorg, торговый дом антиквариата";"Москва";"Дубининская, 71 ст11";"115054";="+79031433333, +79852118666";"";"http://habartorg.ru";"https://vk.com/habartorg";"";"37.633867";"55.711973";"Культура / Искусство / Религия";"Антиквариат, Филателия / Нумизматика"
"194";"Турандот антик, галерея";"Москва";"Тверской бульвар, 26";"125009";="+74952258338";"";"http://turandot-antique.ru";"https://vk.com/turandotgallery";"";"37.604532";"55.763214";"Культура / Искусство / Религия";"Антиквариат"
"195";"Монеты и старина, антикварный магазин";"Москва";"улица Краснобогатырская, 2 ст2";"107564";="+79163246603";"";"http://galereya313.ru";"";"";"37.692027";"55.815474";"Культура / Искусство / Религия";"Антиквариат, Филателия / Нумизматика"
"196";"Контора к, компания";"Москва";"улица Викторенко, 16 ст5";"125167";="+74950014550";"";"http://kontora-k.ru";"https://vk.com/kontora_k";"";"37.523108";"55.794477";"Культура / Искусство / Религия";"Антиквариат"
"197";"Купеческий, комиссионный магазин";"Москва";"Профсоюзная, 68 к3";"117393";="+79253120015, +79265342556";"";"http://komokmoscow.ru";"";"";"37.544784";"55.664839";"Торговые комплексы / Спецмагазины";"Комиссионные магазины, Посуда, Часы / Аксессуары, Верхняя одежда, Антиквариат"
"198";"Скупка №1, комиссионный магазин";"Москва";"Зелёный проспект, 79а";"111558";="+79268053885, +74994442589, +79688343334, +79688343332, +74995214558";"";"http://skypka1.com";"https://vk.com/skupkan1";"";"37.816545";"55.752026";"Торговые комплексы / Спецмагазины";"Комиссионные магазины, Компьютеры / Комплектующие, Мобильные телефоны, Аудиотехника / Видеотехника, Фототовары, Автозвук, Спортивное оборудование, Антиквариат, Электроинструмент, Велосипеды, Аксессуары к мобильным телефонам"
"199";"Мособлскупка, комиссионный магазин";"Подольск";"Свердлова, 13а";"142100";="+79096800001";"";"";"";"";"37.540515";"55.425458";"Торговые комплексы / Спецмагазины";"Комиссионные магазины, Бытовая техника, Антиквариат, Аудиотехника / Видеотехника, Продажа легковых автомобилей, Ремонт компьютеров, Велосипеды, Компьютеры / Комплектующие, Мобильные телефоны, Спортивный инвентарь"
"200";"Ретро, комиссионный магазин";"Москва";"Туристская улица, 27 к1";"125480";="+74954908090";"";"http://moskomcenter.ru";"https://vk.com/public180680132";"";"37.420297";"55.855849";"Торговые комплексы / Спецмагазины";"Комиссионные магазины, Антиквариат, Посуда, Сувениры"
"201";"Аурум, центр скупки золота и ювелирных изделий";"Москва";"улица Петровка, 26 ст2";"127051";="+79998173750";"";"http://скупка-золота-москва.рф";"";"";"37.618291";"55.76579";"Торговые комплексы / Спецмагазины";"Покупка драгоценных металлов / ювелирных изделий, Приём / переработка драгоценных металлов, Ювелирные камни, Часы / Аксессуары, Антиквариат"
"202";"Factory232";"Москва";"Малая Семёновская улица, 5 ст2";"107023";="+79260600406, +79259885141";"";"http://factory232.com";"";"";"37.7065";"55.784651";"Досуг / Развлечения / Общественное питание";"Кофейни, Корпусная мебель, Светотехника, Антиквариат"
"203";"Одинокие вещи, интернет-магазин винтажных и антикварных товаров";"Москва";"улица Электрозаводская, 21 ст21";"107023";="";"";"";"https://vk.com/odinokie_veshi";"";"37.706299";"55.789226";"Культура / Искусство / Религия";"Антиквариат"
"204";"Мир арт, галерея антиквариата и современного искусства";"Москва";"Ленинградский проспект, 31а";"125284";="+79269146999, +79175233017, +79266747422";"";"http://www.mirart-gallery.com";"";"";"37.560336";"55.783759";"Культура / Искусство / Религия";"Антиквариат, Сувениры, Художественные товары"
"205";"Буквица, магазин антикварных книг";"Москва";"Садовническая улица, 25";"115035";="+79168506497";"";"http://bookvica.ru";"https://vk.com/bookvicastore";"";"37.634306";"55.746359";"Хозтовары / Канцелярия / Упаковка";"Книги, Антиквариат"
"206";"Арбат-Ювелир, ювелирная мастерская";"Москва";"улица Арбат, 29";"119002";="+74959689889, +74992414070, +79039689889";"";"http://arbat-uvelir.ru";"";"";"37.59384";"55.749902";"Торговые комплексы / Спецмагазины";"Ремонт / изготовление ювелирных изделий, Приём / переработка драгоценных металлов, Ювелирные изделия, Покупка драгоценных металлов / ювелирных изделий, Ремонт часов, Комиссионные магазины, Антиквариат, Инвестиционные драгоценные металлы, Филателия / Нумизматика"
"207";"Добрая Монета, нумизматический магазин";"Москва";"Верхняя Радищевская, 5";"109240";="+74955325624, +79259240279";"";"http://pokupkamonet.ru";"";"";"37.649238";"55.744841";"Культура / Искусство / Религия";"Филателия / Нумизматика, Антиквариат"
"208";"Arbat Gold, ювелирная мастерская";"Москва";"улица Арбат, 51 ст1";"119002";="+79998214444, +79633444404";"";"http://arbatgold.ru";"";"";"37.586764";"55.747644";"Культура / Искусство / Религия";"Антиквариат, Покупка драгоценных металлов / ювелирных изделий, Ремонт / изготовление ювелирных изделий"
"209";"Комиссионный №1";"Москва";"улица Арбат, 43 ст1";"119002";="+79588327333, +79772683083, +74957820614, +79055432913";"";"http://arbat43-commission1.ru";"";"";"37.589054";"55.748651";"Культура / Искусство / Религия";"Антиквариат, Комиссионные магазины, Ремонт / изготовление ювелирных изделий, Ювелирные изделия, Бижутерия, Сувениры"
"210";"Дом для дома, комиссионный магазин мебели и света";"Москва";"Киевское шоссе 23 км, 8 ст1";"108811";="+79857765823";"";"";"";"";"37.425749";"55.629712";"Торговые комплексы / Спецмагазины";"Комиссионные магазины, Корпусная мебель, Мягкая мебель, Антиквариат, Светотехника"
"211";"Скупка-сундук, комиссионный магазин";"Москва";"9-я Парковая улица, 18";"105554";="+79165832968";"";"http://skypkasyndyk.turbo.site";"";"";"37.799994";"55.792856";"Торговые комплексы / Спецмагазины";"Комиссионные магазины, Электроинструмент, Компьютеры / Комплектующие, Аксессуары к мобильным телефонам, Антиквариат, Аудиотехника / Видеотехника, Бензоинструмент, Бытовая техника, Велосипеды, Мобильные телефоны, Ремонт компьютеров, Часы / Аксессуары, Музыкальные инструменты / Аксессуары, Оргтехника, Ремонт мобильных телефонов, Ювелирные изделия, Запчасти к мобильным телефонам, Покупка драгоценных металлов / ювелирных изделий, Ремонт оргтехники, Снаряжение для туризма и отдыха, Спортивный инвентарь"
"212";"Московский букинист";"Москва";"улица Новый Арбат, 11";"119019";="+79652829675";"";"http://bukinist-moskva.ru";"";"";"37.595859";"55.752331";"Культура / Искусство / Религия";"Антиквариат, Книги"
"213";"Букинист, магазин";"Москва";"Леонтьевский переулок, 21/1 ст1";"125009";="+74951079311, +79855154796";"";"http://bukinist.store";"";"";"37.606054";"55.761271";"Хозтовары / Канцелярия / Упаковка";"Книги, Антиквариат"
"214";"Deco jewel";"Москва";"Тверская улица, 20";"125009";="";"";"http://decojewel.com";"https://vk.com/deco_jewel";"";"37.602758";"55.766601";"Одежда / Обувь";"Бижутерия, Антиквариат, Ювелирные изделия"
"215";"Ювелирия, ломбард";"Москва";"Троилинский переулок, 5/9";"119002";="+79654242951";"";"";"https://vk.com/uveliria";"";"37.583726";"55.748266";"Торговые комплексы / Спецмагазины";"Комиссионные магазины, Антиквариат"
"216";"Золото Москвы";"Москва";"Лубянский проезд, 15 ст2";"101000";="+79854102044, +74954102044";"";"http://msk-gold.ru";"";"";"37.632537";"55.756506";"Торговые комплексы / Спецмагазины";"Покупка драгоценных металлов / ювелирных изделий, Приём / переработка драгоценных металлов, Антиквариат, Комиссионные магазины"
"217";"Скупка рублёвка, комиссионный магазин";"Москва";"Зелёный проспект, 62 к1";"111396";="+79661055511, +79663353311";"";"http://skupka-prodaja.ru";"https://vk.com/skupka_rublevka";"";"37.819482";"55.750497";"Торговые комплексы / Спецмагазины";"Комиссионные магазины, Аудиотехника / Видеотехника, Электроинструмент, Мобильные телефоны, Антиквариат, Покупка драгоценных металлов / ювелирных изделий, Аксессуары к мобильным телефонам, Бензоинструмент, Компьютеры / Комплектующие, Бытовая техника, Посуда, Спортивный инвентарь, Часы / Аксессуары, Снаряжение для туризма и отдыха, Велосипеды, Верхняя одежда, Музыкальные инструменты / Аксессуары, Садово-огородный инвентарь / техника, Товары для рыбалки, Товары для охоты, Спортивное оборудование"
"218";"Купцы, центр скупки";"Москва";"Валовая, 2-4/44 ст1";"115054";="+74958460798";"";"http://купцы.рус";"";"";"37.635141";"55.731211";"Торговые комплексы / Спецмагазины";"Покупка драгоценных металлов / ювелирных изделий, Антиквариат"
"219";"Raritetus, организация по скупке монет";"Москва";"Новослободская, 20";"127055";="+74951202716";"";"http://raritetus.ru/prodat-monety/";"https://vk.com/raritetusru";"";"37.599073";"55.782202";"Культура / Искусство / Религия";"Филателия / Нумизматика, Антиквариат"
"220";"Комиссионный магазин детских товаров";"Москва";"Митинская улица, 49";"125368";="";"";"";"";"";"37.352272";"55.851824";"Торговые комплексы / Спецмагазины";"Комиссионные магазины, Посуда, Меха / Дублёнки / Кожа, Антиквариат"
"221";"Скупка24";"Подольск";"Революционный проспект, 15";"142116";="+79581002508";"";"http://ломбард.com/?utm_source=2gis_rev34";"https://vk.com/kmskupka";"";"37.560019";"55.431513";"Торговые комплексы / Спецмагазины";"Комиссионные магазины, Бытовая техника, Покупка драгоценных металлов / ювелирных изделий, Антиквариат, Мобильные телефоны, Компьютеры / Комплектующие, Электроинструмент, Аудиотехника / Видеотехника, Ремонт компьютеров, Часы / Аксессуары, Бензоинструмент, Велосипеды"
"222";"Антиква, комиссионный магазин";"Москва";"Фрунзенская набережная, 30 ст5";"119146";="+79057321782";"";"";"";"";"37.582721";"55.724993";"Культура / Искусство / Религия";"Антиквариат, Художественные товары, Товары национальных / народных ремёсел, Новогодние товары"
"223";"Аврора, профессиональный нумизматический клуб";"Москва";"улица Куусинена, 7 к2";"123308";="+79859707277";"";"http://auroracoins.ru";"https://vk.com/coins.banknotes";"";"37.515574";"55.779954";"Культура / Искусство / Религия";"Антиквариат"
"224";"Аукционный дом №1";"Москва";"улица Хамовнический Вал, 10";"119270";="+74995509445, 88003026332";"";"http://antiqueauction.ru";"https://vk.com/club148595676";"";"37.573966";"55.717189";"Юридические / финансовые / бизнес-услуги";"Организация и проведение тендеров / аукционов, Антиквариат"
"225";"Капитал Голд, центр скупки золота и ювелирных изделий";"Москва";"Лубянский проезд, 15 ст2";"101000";="+74959215833";"";"http://capital-gold.ru";"";"";"37.632537";"55.756506";"Торговые комплексы / Спецмагазины";"Покупка драгоценных металлов / ювелирных изделий, Приём / переработка драгоценных металлов, Антиквариат, Комиссионные магазины"
"226";"Антикварный магазин";"Москва";"улица Арбат, 36/2 ст1";"119002";="+74992411018";"";"http://antikarbat.com";"";"";"37.589104";"55.748909";"Культура / Искусство / Религия";"Антиквариат"
"227";"Скупка №1, комиссионный магазин";"Москва";"Верхняя Сыромятническая, 7 ст1";"105120";="+79268053885, +74994442589, +79154893311";"";"http://skypka1.com";"https://vk.com/skupkan1";"";"37.661192";"55.754839";"Торговые комплексы / Спецмагазины";"Комиссионные магазины, Компьютеры / Комплектующие, Мобильные телефоны, Аудиотехника / Видеотехника, Фототовары, Автозвук, Спортивное оборудование, Антиквариат, Электроинструмент, Велосипеды, Аксессуары к мобильным телефонам"
"228";"Мосгорскупка, компания";"Москва";"улица Никольская, 17 ст1";"109012";="+79670189898, +79254036883";"";"http://mosgorskupka.ru";"";"";"37.623134";"55.757745";"Культура / Искусство / Религия";"Антиквариат, Комиссионные магазины"
"229";"Знакъ, аукционный дом";"Москва";"улица Кузнецкий Мост, 21/5";"107031";="+74957440831";"";"http://www.znak-auction.ru";"";"";"37.626429";"55.761912";"Культура / Искусство / Религия";"Антиквариат"
"230";"Аукционный дом монет и медалей";"Москва";"Страстной бульвар, 4 ст3";"125009";="+74956294124, +74956503602, +74959563629, +74956945469";"";"http://www.numismat.ru";"https://vk.com/monetyimedali";"";"37.608327";"55.765106";"Культура / Искусство / Религия";"Антиквариат, Филателия / Нумизматика"
"231";"Antikvarcentr, антикварный салон по покупке антиквариата у населения";"Москва";"Большой Златоустинский переулок, 3/5 ст1";"101000";="+79856327430";"";"http://antikvarcentr.business.site";"";"";"37.632301";"55.759374";"Культура / Искусство / Религия";"Антиквариат, Книги"
"232";"Комиссионный магазин";"Москва";"Малый Палашёвский переулок, 6";"123104";="+79165995512, +79636138800, +79636143030, +79637240010, +79264079778";"";"http://rflombard.ru";"";"";"37.602665";"55.765335";"Торговые комплексы / Спецмагазины";"Комиссионные магазины, Ювелирные изделия, Ремонт / изготовление ювелирных изделий, Антиквариат"
"233";"ГдеНашел, нумизматический клуб";"Москва";"Тверская улица, 20 ст1";"125009";="+79264229887, +74993903997";"";"http://gdenashel.ru";"";"";"37.602758";"55.766601";"Культура / Искусство / Религия";"Филателия / Нумизматика, Оценка собственности, Антиквариат"
"234";"Скупка Арбат, антикварный магазин";"Москва";"улица Арбат, 11";"119019";="+79857662245";"";"http://skypka-arbat.ru";"https://vk.com/skypkaarbat";"";"37.597871";"55.75132";"Культура / Искусство / Религия";"Антиквариат, Покупка драгоценных металлов / ювелирных изделий, Филателия / Нумизматика"
"235";"Артимекс, арт-центр";"Москва";"Пушечная, 7/5 ст2";"107031";="+74956484496, +74956499958, +79267705148";"";"http://www.artimex.ru";"";"";"37.62303";"55.760862";"Культура / Искусство / Религия";"Художественные выставки / Галереи, Антиквариат"
"236";"Царь самоваровъ, магазин";"Москва";"улица Бурденко, 11а ст2";"119121";="+74957604050";"";"http://czarsamovar.ru";"https://vk.com/club163153798";"";"37.580396";"55.738616";"Компьютеры / Бытовая техника / Офисная техника";"Бытовая техника, Антиквариат, Посуда, Сувениры"
"237";"Скупка, комиссионный магазин";"Москва";"Тверская улица, 6 ст1";"125009";="+79261966086";"";"http://skypka.com";"https://vk.com/shubamo";"";"37.61105";"55.760599";"Торговые комплексы / Спецмагазины";"Комиссионные магазины, Ювелирные изделия, Часы / Аксессуары, Антиквариат, Меха / Дублёнки / Кожа, Музыкальные инструменты / Аксессуары"
"238";"GraffAntik, салон антиквариата";"Москва";"Воронцовская, 30 ст1";"109044";="+79264035455";"";"http://graffantik.ru";"https://vk.com/graffantik";"";"37.660454";"55.735369";"Культура / Искусство / Религия";"Антиквариат, Покупка драгоценных металлов / ювелирных изделий, Комиссионные магазины"
"239";"Лучшее время, мастерская по ремонту ювелирных изделий";"Москва";"Пресненский Вал улица, 3";"123022";="+79150047676";"";"http://skypka-1.ru";"";"";"37.563652";"55.765541";"Торговые комплексы / Спецмагазины";"Комиссионные магазины, Покупка драгоценных металлов / ювелирных изделий, Ремонт / изготовление ювелирных изделий, Антиквариат, Приём / переработка драгоценных металлов"
"240";"Книжная полка, аукционный дом";"Москва";"Спартаковская, 11 ст1";"105066";="+74951772787";"";"http://bookshelf.su";"https://vk.com/auction_bookshelf";"";"37.672627";"55.772162";"Культура / Искусство / Религия";"Антиквариат, Книги, Организация и проведение тендеров / аукционов"
"241";"Винтартс, антикварный магазин";"Москва";"1-й Волоколамский проезд, 11 к1";"123060";="+79853043888";"";"http://vintarts.ru";"";"";"37.490628";"55.802159";"Культура / Искусство / Религия";"Антиквариат, Комиссионные магазины"
"242";"Компания по скупке антиквариата";"Москва";"Алтуфьевское шоссе, 80";"127349";="+79207581919";"";"http://skupka-antikvariat-altufevskoe-shosse.clients.site/";"";"";"37.5879";"55.894423";"Культура / Искусство / Религия";"Антиквариат"
"243";"Committent, комиссионный магазин";"Ивантеевка";"Советский проспект, 1";"141280";="+79651116667, +79331116667";"";"";"https://vk.com/skypkacommittent";"";"37.905892";"55.97545";"Торговые комплексы / Спецмагазины";"Комиссионные магазины, Бытовая техника, Компьютеры / Комплектующие, Мобильные телефоны, Электроинструмент, Фототовары, Часы / Аксессуары, Велосипеды, Бензоинструмент, Антиквариат, Аудиотехника / Видеотехника, Ремонт / установка бытовой техники, Ремонт компьютеров, Ремонт мобильных телефонов"
"244";"Скупка №1, комиссионный магазин";"Москва";"Новокосинская, 32а ст1";"111672";="+79268053885, +74994442589, +79265091455";"";"http://skypka1.com";"https://vk.com/skupkan1";"";"37.866849";"55.742392";"Торговые комплексы / Спецмагазины";"Комиссионные магазины, Компьютеры / Комплектующие, Мобильные телефоны, Аудиотехника / Видеотехника, Фототовары, Автозвук, Спортивное оборудование, Антиквариат, Электроинструмент, Велосипеды, Аксессуары к мобильным телефонам"
"245";"Дом для дома, комиссионный магазин мебели и света";"Москва";"22 километр Киевское шоссе, вл4 блок А";"108811";="+79857765823, +79104740584";"";"http://dom4dom.com";"";"";"37.44154";"55.634062";"Мебель / Материалы / Фурнитура";"Мягкая мебель, Мебель для ванных комнат, Корпусная мебель, Антиквариат, Светотехника"
"246";"Магазин достойных подарков";"Москва";"Багратионовский проезд, 7 к3";"121087";="+79152289488";"";"";"";"";"37.503416";"55.742685";"Торговые комплексы / Спецмагазины";"Сувениры, Художественные товары, Антиквариат, Керамические изделия"
"247";"Раритет, комиссионный магазин";"Москва";"Мещанская, 14 ст1";"129090";="+74953749444, +79251442115";"";"http://raritetshop.ru";"";"";"37.628561";"55.777276";"Торговые комплексы / Спецмагазины";"Комиссионные магазины, Посуда, Антиквариат"
"248";"ArtGift.ru";"Москва";"Бауманская, 20 ст7";"105005";="+74959904690";"";"http://artgift.ru";"";"";"37.676526";"55.775126";"Культура / Искусство / Религия";"Художественные товары, Антиквариат, Сувениры"
"249";"Коллекционер, нумизматический магазин";"Москва";"Щёлковское шоссе, 3 ст1";"105122";="+79296083225, +79067842327, +79067451199";"";"http://www.moskollekcioner.ru";"";"";"37.752577";"55.803689";"Культура / Искусство / Религия";"Филателия / Нумизматика, Антиквариат"
"250";"Committent, комиссионный магазин";"Королёв";"Горького, 27";"141080";="+79651116667, +79671116667";"";"";"https://vk.com/skypkacommittent";"";"37.861078";"55.913608";"Торговые комплексы / Спецмагазины";"Комиссионные магазины, Бытовая техника, Операторы сотовой связи, Аксессуары к мобильным телефонам, Антиквариат, Аудиотехника / Видеотехника, Бензоинструмент, Велосипеды, Компьютеры / Комплектующие, Мобильные телефоны, Фототовары, Часы / Аксессуары, Электроинструмент, Услуги телефонной связи, Запчасти к мобильным телефонам, Ремонт компьютеров, Ремонт мобильных телефонов"
"251";"Золотой совет, магазин антиквариата";"Москва";"улица Маросейка, 9/2 ст8";"101000";="+74957900506, +79037900506";"";"http://www.goldsovet.ru";"https://vk.com/club134906326";"";"37.63493";"55.758001";"Культура / Искусство / Религия";"Антиквариат, Покупка драгоценных металлов / ювелирных изделий"
"252";"Лавка на Сретенке, антикварный салон";"Москва";"улица Сретенка, 27 ст1";"127051";="+79778238770, +79859910720";"";"http://lavka-antik.ru";"";"";"37.632283";"55.771221";"Культура / Искусство / Религия";"Антиквариат"
"253";"Вне времени, антикварный ювелирный комиссионный магазин";"Москва";"Земляной Вал улица, 34 ст4";"105064";="+74957980012, +79858880527, +79037980012";"";"http://vne-vremeni.com";"";"";"37.657074";"55.756461";"Культура / Искусство / Религия";"Антиквариат, Комиссионные магазины, Ювелирные изделия, Покупка драгоценных металлов / ювелирных изделий, Часы / Аксессуары"
"254";"Кладоискательская контора, магазин";"Москва";"Смольная, 63Б";"125445";="+79197607207";"";"http://www.poryvaev.ru";"https://vk.com/vladimir_poryvaev";"";"37.469633";"55.869549";"Торговые комплексы / Спецмагазины";"Металлоискатели, Антиквариат, Филателия / Нумизматика"
"255";"Лермонтов, галерея антикварных подарков";"Москва";"Яузский бульвар, 18";"109028";="+79035561776";"";"http://lermontovgallery.ru";"https://vk.com/lermontovgallery";"";"37.64218";"55.750892";"Культура / Искусство / Религия";"Антиквариат"
"256";"Глобал Коинс, магазин монет";"Москва";"Таможенный проезд, 6 ст9";"111033";="+74959259698, +79257006030, +79859259698, 88006005613";"";"http://gcoins.net";"";"";"37.679584";"55.751607";"Культура / Искусство / Религия";"Антиквариат, Филателия / Нумизматика"
"257";"Дом быта";"с. Немчиновка";"Советский проспект, 102";"143025";="+79153464746, +79168370003";"";"http://master-gin.ru";"";"";"37.352973";"55.725852";"Коммунальные / бытовые / ритуальные услуги";"Мастерские по ремонту одежды, Ремонт мобильных телефонов, Изготовление ключей, Трикотажные изделия, Копировальные услуги, Товары для праздничного оформления / организации праздников, Комиссионные магазины, Антиквариат, Аксессуары к мобильным телефонам, Ателье швейные, Нижнее бельё, Ателье меховые / кожаные, Вязание трикотажных изделий, Чулочно-носочные изделия, Ремонт компьютеров, Мобильные телефоны, Запчасти к мобильным телефонам, Элементы питания, Ремонт чемоданов, Меха / Дублёнки / Кожа, Сумки / Кожгалантерея, Часы / Аксессуары"
"258";"От Палыча, антикварный магазин";"Москва";"Щёлковское шоссе, 3 ст1";"105122";="";"";"";"";"";"37.753278";"55.803873";"Культура / Искусство / Религия";"Антиквариат, Филателия / Нумизматика"
"259";"Оранта, антикварный магазин";"Москва";"Новозаводская, 25 к4";"121309";="88002225291, +79261484994";"";"http://oranta.moscow";"";"";"37.497741";"55.751327";"Культура / Искусство / Религия";"Антиквариат"
"260";"Скупка Экспресс, магазин";"Балашиха";"Центральная, 40";"143981";="+79060199099";"";"http://skypkaexpress.ru";"https://vk.com/skypkaexpress";"";"37.955507";"55.75166";"Торговые комплексы / Спецмагазины";"Комиссионные магазины, Антиквариат, Мобильные телефоны, Аксессуары к мобильным телефонам, Аудиотехника / Видеотехника"
"261";"Русский Нумизматический Дом, аукционная компания";"Москва";"Петровский переулок, 5 ст8";"107031";="+74956213826, +74956235427, +74956287227, +74956237512, +79254874237";"";"http://www.rusnumismat.ru";"https://vk.com/club86770020";"";"37.613823";"55.766487";"Культура / Искусство / Религия";"Антиквариат, Филателия / Нумизматика"
"262";"Филсалон, филателистический магазин";"Москва";"улица Рождественка, 5/7 ст1";"107031";="+74956234783";"";"http://filsalon.ru";"https://vk.com/filsalon";"";"37.623433";"55.761452";"Культура / Искусство / Религия";"Филателия / Нумизматика, Антиквариат"
"263";"Империя, аукционный дом";"Москва";"Трубная, 29 ст1";"127051";="+74956083056";"";"http://www.auction-imperia.ru";"";"";"37.624894";"55.772141";"Культура / Искусство / Религия";"Антиквариат, Филателия / Нумизматика"
"264";"Валантис, центр скупки ювелирных изделий";"Москва";"Новокузнецкая улица, 1";"115184";="+79852536119";"zolotaya-tochka@yandex.ru";"http://juvelirnyj-lombard.ru/skupka/?utm_source=2gis&source_type=map_platform";"https://vk.com/juvelirnyjlombard";"";"37.630358";"55.740317";"Торговые комплексы / Спецмагазины";"Покупка драгоценных металлов / ювелирных изделий, Ювелирные изделия, Приём / переработка драгоценных металлов, Антиквариат"
"265";"Антикваръ, магазин";"Москва";"улица Арбат, 9 ст1";"119019";="+79647888823";"";"http://skupka-antikvar.ru";"";"";"37.598223";"55.751691";"Культура / Искусство / Религия";"Антиквариат, Филателия / Нумизматика, Ювелирные изделия, Сувениры"
"266";"РетроНорд, шоурум";"Москва";"Садовая-Каретная улица, 22 ст1";"127051";="+79687660132";"";"http://retronord.ru";"";"";"37.611114";"55.773008";"Культура / Искусство / Религия";"Антиквариат"
"267";"Архаизм";"Москва";"Малый Златоустинский переулок, 6 ст1Б";"101000";="+74957402226";"";"http://arhaism.ru";"";"";"37.634638";"55.759032";"Культура / Искусство / Религия";"Антиквариат, Сувениры"
"268";"Серебряный ряд, антикварный салон";"Москва";"улица Арбат, 31";"119002";="+74956917308";"";"http://www.arbatantik.ru";"https://vk.com/antikwar_rus";"";"37.592913";"55.749801";"Культура / Искусство / Религия";"Антиквариат"
"269";"Сервисный центр по ремонту часов";"Москва";"Ветошный переулок, 9";"109012";="+79099352724, +74957770536";"";"http://neidut.ru";"https://vk.com/jewelry_mechanics";"";"37.621569";"55.755385";"Коммунальные / бытовые / ритуальные услуги";"Ремонт часов, Часы / Аксессуары, Антиквариат"
"270";"Диалог, галерея искусств";"Москва";"улица Пречистенка, 26";"119034";="+74956374509, +74956372862";"";"http://www.dialog-g.ru";"";"";"37.593514";"55.741644";"Культура / Искусство / Религия";"Антиквариат"
"271";"Гермес аукцион, антикварный салон";"Москва";"улица Арбат, 36/2 ст6";"119002";="+79160674851, +79852226713";"";"http://www.hermesauction.ru/";"https://vk.com/hermesauction";"";"37.588389";"55.749237";"Культура / Искусство / Религия";"Антиквариат, Организация и проведение тендеров / аукционов, Филателия / Нумизматика"
"272";"Монеты и старина, антикварный магазин";"Москва";"Новокузнецкая улица, 39";"115054";="+79163246603";"";"http://galereya313.ru";"";"";"37.635569";"55.732191";"Культура / Искусство / Религия";"Антиквариат"
"273";"Farfor-art, антикварный салон";"Москва";"Садовая-Кудринская улица, 25";"123001";="+79165536929, +79166746230";"";"http://farfor-art.ru";"";"";"37.590013";"55.765805";"Культура / Искусство / Религия";"Антиквариат"
"274";"Галерея Император, антикварный магазин";"Москва";"Тишинская площадь, 1 ст1";"123056";="+74959731345, +79015531345, +79859060000";"";"http://imperator-art.ru";"";"";"37.583893";"55.769255";"Культура / Искусство / Религия";"Антиквариат, Художественные товары, Посуда, Сувениры"
"275";"Антик Бутикъ, салон антиквариата";"Москва";"Тишинская площадь, 1 ст1";"123056";="+79057979294, +79857585817";"";"http://grand-antik.ru";"";"";"37.583611";"55.769032";"Культура / Искусство / Религия";"Антиквариат, Сувениры"
"276";"Аукционный дом Егоровых";"Москва";"улица Пречистенка, 40/2 ст2";"119034";="+74951775378";"";"http://egorovs.art";"";"";"37.587484";"55.739274";"Юридические / финансовые / бизнес-услуги";"Организация и проведение тендеров / аукционов, Антиквариат"
"277";"Вне времени, антикварный ювелирный комиссионный магазин";"Москва";"Садовая-Черногрязская улица, 5/9";"107078";="+74957980012";"";"http://vne-vremeni.com";"";"";"37.653407";"55.766491";"Культура / Искусство / Религия";"Антиквариат, Организация и проведение тендеров / аукционов, Ювелирные изделия, Часы / Аксессуары, Художественные товары"
"278";"Оригами Токэн, антикварный магазин";"Москва";"3-й Сыромятнический переулок, 3/9 ст2";"105120";="+74951500536";"";"http://origami-token.ru";"";"";"37.664836";"55.753266";"Культура / Искусство / Религия";"Антиквариат"
"279";"Живые вещи, интерьерный бутик";"Москва";"Рыбинская 2-я, 13";"107113";="+79685775881";"";"http://gi-vie.com";"";"";"37.656266";"55.789854";"Текстиль / Предметы интерьера";"Керамические изделия, Светотехника, Антиквариат, Художественные товары, Сувениры"
"280";"Фолиант Декор, магазин подарков и товаров для декора интерьера";"Москва";"улица Кожевническая, 7 ст1";"115114";="+74957630855, +74996425331";"";"http://www.fdmarket.ru";"";"";"37.645193";"55.730561";"Торговые комплексы / Спецмагазины";"Сувениры, Посуда, Антиквариат"
"281";"Сарай, комиссионный магазин";"Москва";"улица Хамовнический Вал, 24";"119048";="+79035415025, +79688861791";"";"http://komissionka-msc.ru";"https://vk.com/komissionka_lujniki";"";"37.570532";"55.719504";"Торговые комплексы / Спецмагазины";"Комиссионные магазины, Женская одежда, Мужская одежда, Детская одежда, Обувные магазины, Антиквариат, Музыкальные пластинки, Аудиотехника / Видеотехника, Посуда, Мастерские по ремонту одежды"
"282";"Factory232";"Москва";"Малая Семёновская улица, 3 ст5";"107023";="+79260600406, +79259885141";"";"http://factory232.com";"";"";"37.704917";"55.785188";"Мебель / Материалы / Фурнитура";"Корпусная мебель, Светотехника, Антиквариат"
"283";"Салон хобби, магазин для коллекционеров";"Москва";"Щёлковское шоссе, 3 ст1";"105122";="+74955079615, +79255079615";"";"http://thehobby.ru";"";"";"37.752735";"55.803853";"Культура / Искусство / Религия";"Антиквариат, Филателия / Нумизматика"
"284";"Депутти, антикварный магазин";"Москва";"Щёлковское шоссе, 3 ст1";"105122";="+79255065204, +79959200267";"";"http://www.deputti-antik.ru";"";"";"37.75265";"55.803844";"Культура / Искусство / Религия";"Антиквариат"
"285";"Samovary.com, интернет-магазин";"Москва";"Партийный переулок, 1";"115093";="+74957400258, +79629662559, 88001001258";"";"http://samovary.com";"";"";"37.630102";"55.720996";"Торговые комплексы / Спецмагазины";"Сувениры, Антиквариат"
"286";"Фортъ верный, антикварный магазин";"Москва";"Щёлковское шоссе, 3 ст1";"105122";="+79268807481";"";"http://fortvernyi.ru";"https://vk.com/fortverny";"";"37.752523";"55.803933";"Культура / Искусство / Религия";"Антиквариат"
"287";"Золотой век, комиссионный магазин";"Москва";"проспект Вернадского, 111";"119571";="+79999139159";"";"http://gold-a.ru";"";"";"37.482801";"55.660586";"Торговые комплексы / Спецмагазины";"Комиссионные магазины, Антиквариат, Часы / Аксессуары, Ювелирные изделия"
"288";"Из Чулана, комиссионный магазин";"Москва";"3-я Парковая улица, 30";"105264";="+79850080850";"";"http://изчулана.рф";"https://vk.com/izchulanavao";"";"37.782792";"55.797384";"Торговые комплексы / Спецмагазины";"Комиссионные магазины, Антиквариат, Сувениры, Посуда"
"289";"Restart, студия реставрации мебели";"рп. Новоивановское";"Калинина, 10";"143026";="+79250135551";"";"http://www.restart.moscow";"";"";"37.365525";"55.706313";"Мебель / Материалы / Фурнитура";"Ремонт / реставрация мебели, Антиквариат, Художественные мастерские"
"290";"Скупка, комиссионный магазин";"Подольск";"Матросская, 13";"142100";="+79254703008, +74956434205, +79856434205";"";"http://skypka.com";"https://vk.com/shubamo";"";"37.549142";"55.428294";"Торговые комплексы / Спецмагазины";"Комиссионные магазины, Мобильные телефоны, Компьютеры / Комплектующие, Бытовая техника, Антиквариат"
"291";"Святой Георгий, арт-салон";"Одинцово";"Чикина, 12";"143005";="+74986023401, +79269264272";"";"http://avtorskaya-kartina.ru";"";"";"37.290541";"55.686766";"Культура / Искусство / Религия";"Художественные мастерские, Багетные мастерские, Антиквариат"
"292";"Скупка №1, комиссионный магазин";"Балашиха";"улица Советская, 8";"143904";="+79268053885, +74994442589";"";"http://skypka1.com";"https://vk.com/skupkan1";"";"37.934891";"55.798608";"Торговые комплексы / Спецмагазины";"Комиссионные магазины, Компьютеры / Комплектующие, Мобильные телефоны, Аудиотехника / Видеотехника, Фототовары, Автозвук, Спортивное оборудование, Антиквариат, Электроинструмент, Велосипеды, Аксессуары к мобильным телефонам"
"293";"Альтер эго хоум, торговая компания";"д. Путилково";"Путилковское шоссе, 25Б";"143441";="+74951332695, +79219143168";"";"http://www.alteregohome.ru";"https://vk.com/alteregohome";"";"37.389248";"55.862918";"Культура / Искусство / Религия";"Антиквариат, Мягкая мебель, Ремонт / реставрация мебели, Мебель для кухни, Офисная мебель"
"294";"Скупка, комиссионный магазин";"Пушкино";"Московский проспект, 3";"141207";="+79252629393";"";"http://skypka.com";"https://vk.com/shubamo";"";"37.843406";"56.011375";"Торговые комплексы / Спецмагазины";"Комиссионные магазины, Компьютеры / Комплектующие, Мобильные телефоны, Антиквариат"
"295";"Твой рай, магазин декора для дома";"Зеленоград";"Георгиевский проспект, 37 к3";"124365";="+79362588007";"";"";"https://vk.com/tvoyray373";"";"37.151341";"55.965267";"Торговые комплексы / Спецмагазины";"Сувениры, Антиквариат, Керамические изделия"
"296";"Хороший магазин книг";"Жуковский";"Маяковского, 20";"140181";="+79104282003, +79250669231";"";"http://bukinisto.ru";"https://vk.com/homkabook";"";"38.123434";"55.59553";"Хозтовары / Канцелярия / Упаковка";"Книги, Антиквариат, Канцелярские товары / Учебные принадлежности, Изготовление печатей / штампов, Учебная литература"
"297";"Брюсов арт, художественная мастерская-галерея";"Москва";"Брюсов переулок, 2/14 ст1";"125009";="+79039601429, +74956295092, +79037901584";"";"";"";"";"37.606123";"55.758001";"Культура / Искусство / Религия";"Художественные выставки / Галереи, Антиквариат"
"298";"Магазин антиквариата";"Москва";"улица Арбат, 20";"119002";="+74956919475";"";"";"";"";"37.593901";"55.75036";"Культура / Искусство / Религия";"Антиквариат, Часы / Аксессуары, Ювелирные изделия, Книги"
"299";"Скупка, комиссионный магазин";"Лобня";"Ленина, 19";"141730";="";"";"http://skypka.com";"https://vk.com/shubamo";"";"37.476904";"56.011559";"Торговые комплексы / Спецмагазины";"Комиссионные магазины, Компьютеры / Комплектующие, Мобильные телефоны, Ремонт аудио / видео / цифровой техники, Ремонт / установка бытовой техники, Антиквариат, Меха / Дублёнки / Кожа"
"300";"Скупка, комиссионный магазин";"с. Быково";"Театральная, 1 ст1";"140153";="+79255185606";"";"http://skypka.com";"https://vk.com/shubamo";"";"38.087711";"55.610832";"Торговые комплексы / Спецмагазины";"Комиссионные магазины, Мобильные телефоны, Компьютеры / Комплектующие, Бытовая техника, Антиквариат, Ювелирные изделия, Слесарно-монтажный инструмент, Меха / Дублёнки / Кожа, Велосипеды, Аудиотехника / Видеотехника, Фототовары, Автозвук, Музыкальные инструменты / Аксессуары"
"301";"Антиквариат на Таганке, антикварный салон";"Москва";"Таганская площадь, 86/1";"109240";="+74959157021, +74959153141";"";"";"";"";"37.652567";"55.741044";"Культура / Искусство / Религия";"Антиквариат"
"302";"Антик на Яузе, антикварный салон";"Москва";"Самокатная, 2а ст1";"111033";="+74957298974, +79037298974";"";"";"";"";"37.677027";"55.758758";"Культура / Искусство / Религия";"Антиквариат"
"303";"Коллекционер, антикварный магазин";"Москва";"улица Народного Ополчения, 43 к1";"123060";="+79161909293, +74999431420";"";"";"";"";"37.490409";"55.792077";"Культура / Искусство / Религия";"Антиквариат, Филателия / Нумизматика"
"304";"Коллекционер, магазин";"Москва";"Люблинская улица, 10 ст5";"109390";="+79267054977";"";"";"";"";"37.732199";"55.700659";"Культура / Искусство / Религия";"Антиквариат"
"305";"Комиссионный №1, магазин";"рп. Монино";"Железнодорожная, 1";"141171";="+79253192121";"";"";"";"";"38.198834";"55.8444";"Торговые комплексы / Спецмагазины";"Комиссионные магазины, Мобильные телефоны, Бытовая техника, Аудиотехника / Видеотехника, Антиквариат"
"306";"Доверие, комиссионный магазин";"Котельники";"микрорайон Опытное поле, 11";"140055";="+79990012063, +79998430926";"";"";"";"";"37.86126";"55.673067";"Торговые комплексы / Спецмагазины";"Комиссионные магазины, Антиквариат, Мобильные телефоны, Аудиотехника / Видеотехника, Покупка драгоценных металлов / ювелирных изделий, Бытовая техника, Аксессуары к мобильным телефонам, Часы / Аксессуары, Компьютеры / Комплектующие, Велосипеды, Электроинструмент, Фототовары"
"307";"Комиссионный магазин";"Москва";"Скобелевская, 23 к4";"117624";="+79680787474";"";"";"https://vk.com/komissionka";"";"37.559412";"55.548279";"Торговые комплексы / Спецмагазины";"Комиссионные магазины, Бытовая техника, Антиквариат, Мобильные телефоны, Аудиотехника / Видеотехника, Компьютеры / Комплектующие, Электроинструмент, Ремонт мобильных телефонов, Ремонт компьютеров"
"308";"Смарт Скупка, комиссионный магазин";"Балашиха";"улица Советская, 11";"143904";="+79030015959, +79254232525";"";"";"";"";"37.934294";"55.79933";"Торговые комплексы / Спецмагазины";"Комиссионные магазины, Компьютеры / Комплектующие, Мобильные телефоны, Антиквариат, Аудиотехника / Видеотехника"
"309";"Вторые руки, комиссионный магазин";"Подольск";"Юбилейная, 11";"142121";="+79267771087, +79165668646";"";"";"https://vk.com/secondhandpodolck";"";"37.498857";"55.423337";"Торговые комплексы / Спецмагазины";"Комиссионные магазины, Аудиотехника / Видеотехника, Слесарно-монтажный инструмент, Хозяйственные товары, Посуда, Антиквариат"
"310";"Комиссионка 50, магазин";"Подольск";"Железнодорожная, 2 ст1";"142180";="+79067244444, +79067133333";"";"";"";"";"37.524283";"55.358263";"Торговые комплексы / Спецмагазины";"Комиссионные магазины, Бытовая техника, Аудиотехника / Видеотехника, Электроинструмент, Антиквариат"
"311";"Плюшкин, антикварный магазин";"Москва";"3-й Донской проезд, 1";"115419";="+79154972858";"";"http://plushkin.su";"";"";"37.599519";"55.710655";"Культура / Искусство / Религия";"Антиквариат"
"312";"Аурум, центр скупки золота и ювелирных изделий";"Москва";"проспект Мира, 38";"129090";="+79998173750";"";"http://скупка-золота-москва.рф";"";"";"37.63362";"55.779659";"Торговые комплексы / Спецмагазины";"Комиссионные магазины, Покупка драгоценных металлов / ювелирных изделий, Антиквариат, Приём / переработка драгоценных металлов, Филателия / Нумизматика, Часы / Аксессуары, Ювелирные изделия, Ювелирные камни"
"313";"Скупка pro";"Москва";"Беговая, 7";"125284";="+79852270210";"";"http://skupka.pro";"";"";"37.555589";"55.777961";"Торговые комплексы / Спецмагазины";"Комиссионные магазины, Антиквариат, Бытовая техника, Мототехника, Садово-огородный инвентарь / техника"
"314";"Antiquewarior, интернет-магазин военного антиквариата";"Москва";"";"";="+74994042323";"";"http://oldthing.ru";"";"";"";"";"Культура / Искусство / Религия";"Антиквариат"
"315";"Наша Родина-СССР!, сувенирный магазин";"Москва";"1-я Останкинская улица, 53";"129515";="";"";"";"";"";"37.631641";"55.824391";"Торговые комплексы / Спецмагазины";"Сувениры, Антиквариат"
"316";"Скупка pro";"Москва";"Дмитровское шоссе, 43 к1";"127434";="+79852270210";"";"http://skupka.pro";"";"";"37.571874";"55.833415";"Торговые комплексы / Спецмагазины";"Комиссионные магазины, Антиквариат, Бытовая техника, Мототехника, Садово-огородный инвентарь / техника"
"317";"Антикпласт, торговая компания";"Москва";"Автомоторная, 1/3 ст2";"125438";="+79854111174";"";"http://bayohunter.ru";"";"";"37.539144";"55.845994";"Культура / Искусство / Религия";"Антиквариат"
"318";"Комиссионный магазин";"Москва";"Широкая, 12Б";"127282";="";"";"";"";"";"37.660703";"55.886818";"Торговые комплексы / Спецмагазины";"Комиссионные магазины, Антиквариат, Филателия / Нумизматика"
"319";"Скупка СССР, антикварный магазин";"Москва";"улица Маршала Новикова, 14 к2";"123098";="";"";"";"";"";"37.462692";"55.8055";"Культура / Искусство / Религия";"Антиквариат"
"320";"Oldlavka.ru, интернет-магазин";"Москва";"улица Героев Панфиловцев, 1а";"125480";="+79251572271";"";"http://oldlavka.ru";"";"";"37.438494";"55.851495";"Торговые комплексы / Спецмагазины";"Сувениры, Книги, Бижутерия, Антиквариат, Игрушки"
"321";"Меркурий, антикварный салон";"Москва";"площадь Европы, 2";"121059";="+79166843672";"";"";"";"";"37.568172";"55.741958";"Культура / Искусство / Религия";"Антиквариат"
"322";"Предметы советского быта, антикварный магазин";"Москва";"Колодезный переулок, 3";"107076";="";"";"";"";"";"37.697269";"55.798162";"Культура / Искусство / Религия";"Филателия / Нумизматика, Календари / Открытки, Антиквариат"
"323";"Старинные подарки, антикварная галерея";"Москва";"улица Ильинка, 4";"109012";="+79259636221";"";"http://www.artantiq.ru";"";"";"37.624984";"55.754488";"Культура / Искусство / Религия";"Антиквариат"
"324";"Альтав, магазин удивительных вещей";"Москва";"Щёлковское шоссе, 3 ст1";"105122";="+79057069763, +79257104040";"";"http://www.altav.ru";"";"";"37.753051";"55.80346";"Культура / Искусство / Религия";"Антиквариат, Филателия / Нумизматика"
"325";"Committent, комиссионный магазин";"Химки";"Кирова, 2";"141402";="+79651116667";"";"";"https://vk.com/skypkacommittent";"";"37.451185";"55.893605";"Торговые комплексы / Спецмагазины";"Комиссионные магазины, Бытовая техника, Аксессуары к мобильным телефонам, Антиквариат, Аудиотехника / Видеотехника, Бензоинструмент, Велосипеды, Компьютеры / Комплектующие, Мобильные телефоны, Фототовары, Часы / Аксессуары, Электроинструмент, Ремонт компьютеров, Музыкальные инструменты / Аксессуары"
"326";"Barrin VIP выкуп";"Москва";"Старомонетный переулок, 18";"119180";="+79250373333";"";"http://www.barringold.ru";"";"";"37.61858";"55.739816";"Торговые комплексы / Спецмагазины";"Покупка драгоценных металлов / ювелирных изделий, Приём / переработка драгоценных металлов, Антиквариат, Инвестиционные драгоценные металлы, Ювелирные изделия"
"327";"Валантис, центр скупки ювелирных изделий";"Москва";"Долгоруковская улица, 40";"127006";="+79852536119";"zolotaya-tochka@yandex.ru";"http://juvelirnyj-lombard.ru/skupka/?utm_source=2gis&source_type=map_platform";"https://vk.com/juvelirnyjlombard";"";"37.60183";"55.778669";"Торговые комплексы / Спецмагазины";"Покупка драгоценных металлов / ювелирных изделий, Ювелирные изделия, Приём / переработка драгоценных металлов, Антиквариат, Инвестиционные драгоценные металлы"
"328";"Antiqueland, антикварный магазин";"Москва";"улица Большая Никитская, 37 ст1";"121069";="+79167802222";"";"http://antiqueland.ru";"https://vk.com/antiqueland";"";"37.593827";"55.757301";"Культура / Искусство / Религия";"Антиквариат"
"329";"Rarita, галерея деловых подарков";"Москва";"улица Кузнецкий Мост, 19 ст1";"107031";="+74956486540";"";"http://rarita.ru";"https://vk.com/public147001839";"";"37.625566";"55.762743";"Культура / Искусство / Религия";"Антиквариат, Сувениры"
"330";"Mydecorroom";"Москва";"2-й Хорошёвский проезд, 7 ст1а";"123007";="+79262675523";"";"http://mydecorroom.com";"";"";"37.529691";"55.772343";"Культура / Искусство / Религия";"Антиквариат"
"331";"Аурум, центр скупки золота и ювелирных изделий";"Москва";"Тверская улица, 4";"125009";="+79998173750";"";"http://скупка-золота-москва.рф";"";"";"37.612735";"55.758883";"Торговые комплексы / Спецмагазины";"Покупка драгоценных металлов / ювелирных изделий, Приём / переработка драгоценных металлов, Ювелирные камни, Часы / Аксессуары, Антиквариат"
"332";"Лавка Старины, антикварный магазин";"Москва";"3-й Донской проезд, 1";"115419";="88002017291, +79261283856, +79255054969";"";"http://jivo.chat/Ay2R7FHAT0";"https://vk.com/dvaveka";"";"37.599406";"55.710655";"Культура / Искусство / Религия";"Антиквариат, Сувениры, Комиссионные магазины"
"333";"Антиквариат-Gold, магазин";"Москва";"Тишинская площадь, 1 ст1";"123056";="+79260501240, +74957970524";"";"http://www.antikvariat-gold.ru";"";"";"37.583834";"55.769148";"Культура / Искусство / Религия";"Антиквариат, Сувениры"
"334";"Владимир Михайлов, ювелирный салон";"Москва";"1-й Смоленский переулок, 2";"121099";="88005555605, +79859705911";"";"http://vmikhailov.com/ru";"";"";"37.581549";"55.74733";"Торговые комплексы / Спецмагазины";"Ювелирные изделия, Антиквариат"
"335";"Ваш самовар, интернет-магазин";"Москва";"Шухова, 14 ст5";"115162";="+74955326261, +79296502944, 88005501255";"";"http://vash-samovar.ru";"";"";"37.612658";"55.717181";"Культура / Искусство / Религия";"Антиквариат, Товары национальных / народных ремёсел, Посуда, Сувениры"
"336";"Бокадо, магазин дорогих подарков и предметов коллекционирования";"Москва";"улица Студенческая, 35";"121165";="88002016863, +79037494000";"";"http://www.bon-cadeau.ru";"https://vk.com/exclusive_gift";"";"37.540989";"55.738899";"Культура / Искусство / Религия";"Антиквариат, Художественные товары, Религиозные товары, Художественные мастерские"
"337";"iconavdom, иконная лавка";"Москва";"3-й Донской проезд, 1";"115419";="+79257721022";"";"http://ikonavdom.ru";"";"";"37.598865";"55.711214";"Культура / Искусство / Религия";"Антиквариат, Религиозные товары"
"338";"Atributica, интернет-магазин военной символики";"Москва";"Писцовая, 16 к1";"127287";="+79037477666";"";"http://atributicastore.ru";"https://vk.com/atributicastore";"";"37.572717";"55.797737";"Культура / Искусство / Религия";"Антиквариат, Спортивно-наградная продукция, Услуги вышивки, Сувениры"
"339";"25 копеек, комиссионный магазин";"Коломна";"улица Астахова, 3в";"140405";="88001002547,,,1, +79636723272";"";"http://25-kopeek.ru";"https://vk.com/skupka25kopeek";"";"38.75059";"55.065882";"Торговые комплексы / Спецмагазины";"Комиссионные магазины, Бытовая техника, Компьютеры / Комплектующие, Мобильные телефоны, Ювелирные изделия, Антиквариат, Покупка драгоценных металлов / ювелирных изделий"
"340";"25 копеек, комиссионный магазин";"Коломна";"улица Октябрьской революции, 370";"140406";="88001002547,,,1, +79636723272";"";"http://25-kopeek.ru";"https://vk.com/skupka25kopeek";"";"38.80516";"55.083092";"Торговые комплексы / Спецмагазины";"Комиссионные магазины, Бытовая техника, Компьютеры / Комплектующие, Мобильные телефоны, Антиквариат, Покупка драгоценных металлов / ювелирных изделий, Ювелирные изделия, Электроинструмент, Бензоинструмент"
"341";"Русская усадьба, антикварный салон";"Москва";"улица Ильинка, 4";"109012";="+79166884095, +79166884628";"";"http://sundook.ru";"";"";"37.625287";"55.753072";"Культура / Искусство / Религия";"Антиквариат"
"342";"Веллум, галерея";"Москва";"улица Ильинка, 4";"109012";="+79857763331";"";"http://www.vellum.ru";"";"";"37.625287";"55.753072";"Культура / Искусство / Религия";"Художественные выставки / Галереи, Антиквариат"
"343";"Общество любителей нумизматических знаний, интернет-магазин";"Москва";"Ветошный переулок, 9";"109012";="+74957730433";"";"http://olnz.ru";"";"";"37.621569";"55.755385";"Культура / Искусство / Религия";"Филателия / Нумизматика, Антиквариат"
"344";"Златой ларец, антикварный магазин";"Москва";"Газетный переулок, 9 ст2";"125009";="+79091562595";"";"http://zlatoylarets.ru";"";"";"37.609136";"55.757968";"Культура / Искусство / Религия";"Антиквариат"
"345";"Альбион, галерея старинной живописи";"Москва";"Малый Толмачёвский переулок, 8 ст2";"119017";="+74957925440, +74959519029";"";"http://www.antik.msk.ru";"";"";"37.618435";"55.741707";"Культура / Искусство / Религия";"Антиквариат"
"346";"Три века, антикварная галерея";"Москва";"3-й Кадашёвский переулок, 6";"115035";="+74959537064, +74959537045";"";"http://www.tri-veka.ru";"";"";"37.623921";"55.742474";"Культура / Искусство / Религия";"Антиквариат"
"347";"Biblionne, интернет-магазин";"Москва";"улица Петровка, 30/7";"127006";="+74957221660";"";"http://www.biblionne.ru";"";"";"37.614803";"55.768034";"Хозтовары / Канцелярия / Упаковка";"Книги, Антиквариат"
"348";"Военные Реликвии и К, магазин военного антиквариата";"Москва";"Лубянский проезд, 25 ст2";"101000";="+79057607613, +79150747885, +79616745555, +79880283730";"";"http://www.anna-antique.ru";"";"";"37.634811";"55.75447";"Культура / Искусство / Религия";"Антиквариат, Иконописные мастерские"
"349";"Серебряный Ренессанс, антикварная лавка";"Москва";"улица Сретенка, 16/2";"107045";="+79153886442";"";"http://www.silver-renaissance.com";"";"";"37.632676";"55.768371";"Культура / Искусство / Религия";"Антиквариат"
"350";"Русские Иконы, антикварный салон";"Москва";"улица Большая Якиманка, 39";"119049";="+74959217855, +79859217855";"";"http://russian-icons.ru";"";"";"37.613199";"55.734004";"Культура / Искусство / Религия";"Антиквариат"
"351";"Раритет, антикварный салон";"Москва";"улица Арбат, 15/43";"119019";="+79266784939";"";"http://18-20.ru";"https://vk.com/public199727463";"";"37.597066";"55.751265";"Культура / Искусство / Религия";"Антиквариат, Комиссионные магазины"
"352";"ВЪ-ДИВЪ, шоурум";"Москва";"Малый Златоустинский переулок, 6 ст2";"101000";="+79164183015";"";"http://soniaindivoland.com";"";"";"37.634919";"55.759004";"Одежда / Обувь";"Мужская одежда, Женская одежда, Антиквариат, Сувениры"
"353";"Артантик, антикварный салон";"Москва";"Скатертный переулок, 15";"121069";="+74956578459, +74957375909";"";"http://www.artantique.ru";"https://vk.com/artantik_ru";"";"37.594365";"55.755992";"Культура / Искусство / Религия";"Антиквариат"
"354";"Дом антикварной книги в Никитском";"Москва";"Никитский переулок, 4а ст1";"125009";="+74959264114";"";"http://vnikitskom.ru";"https://vk.com/dom.antik.knigi";"";"37.610585";"55.757108";"Культура / Искусство / Религия";"Антиквариат"
"355";"Восточная коллекция, галерея антиквариата";"Москва";"улица Остоженка, 40/1";"119034";="+74957843298, +74992464555";"";"http://orientalcollection.ru";"";"";"37.595137";"55.738141";"Культура / Искусство / Религия";"Антиквариат"
"356";"Антиквариум, аукционный дом";"Москва";"Садовая-Кудринская улица, 25";"123001";="+74953745090";"";"http://anticvarium.ru";"https://vk.com/anticvarium";"";"37.590013";"55.765805";"Культура / Искусство / Религия";"Антиквариат, Художественные выставки / Галереи, Организация и проведение тендеров / аукционов"
"357";"Samurai, галерея японского антикварного искусства";"Москва";"Садовая-Кудринская улица, 25";"123001";="+74959221888, +74951500731";"";"http://samurai-artgallery.ru";"https://vk.com/samuraigallery";"";"37.590013";"55.765805";"Культура / Искусство / Религия";"Антиквариат"
"358";"Сказка, антикварный салон";"Москва";"Карманицкий переулок, 5";"119002";="+79037899051, +74992414985";"";"http://ant-skazka.ru";"";"";"37.585456";"55.748917";"Культура / Искусство / Религия";"Антиквариат, Ювелирные изделия, Ремонт / изготовление ювелирных изделий"
"359";"Terristyle, комиссионный магазин подарков";"Москва";"Олимпийский проспект, 26 ст1";"129272";="+79850240654";"";"";"";"";"37.622864";"55.789677";"Торговые комплексы / Спецмагазины";"Комиссионные магазины, Сувениры, Антиквариат, Товары национальных / народных ремёсел, Посуда, Керамические изделия, Стекло / Зеркала, Часы / Аксессуары, Меха / Дублёнки / Кожа, Художественные выставки / Галереи, Бижутерия, Покупка драгоценных металлов / ювелирных изделий, Ювелирные изделия"
"360";"Богема, антикварный салон";"Москва";"улица Новый Арбат, 31/12";"121099";="+74956056496, +74956056497, +74956056710";"";"http://www.bogema-art.ru";"";"";"37.575814";"55.751412";"Культура / Искусство / Религия";"Антиквариат"
"361";"Пи, архитектурное бюро";"Москва";"Мытная, 52";"115162";="+74959541580";"";"http://igorpi.com";"";"";"37.618672";"55.717647";"Строительство / Недвижимость / Ремонт";"Архитектурно-строительное проектирование, Антиквариат, Дизайн интерьеров, Интерьерные лестницы / Ограждения, Фасадные материалы / конструкции"
