"id";"name";"city_name";"geometry_name";"post_code";"phone";"email";"website";"vkontakte";"instagram";"lon";"lat";"category";"subcategory"
"1";"ТРИТ, многопрофильный медицинский центр";"Москва";"Каширское шоссе, 51 к3";"115211";="+74951350455, +74951347666";"info@treatclinic.ru";"http://treatclinic.ru/?utm_source=2gis_kash";"https://vk.com/treat_clinic";"";"37.69093";"55.6402";"Медицина / Здоровье / Красота";"Многопрофильные медицинские центры, Услуги гинеколога, Услуги уролога / андролога, Диагностические центры, Услуги эндокринолога, Услуги терапевта, Услуги маммолога, Лечение ЛОР-заболеваний, Услуги ведения беременности, Услуги проктолога, Услуги хирурга, Эпиляция, Медицинские анализы, Услуги гирудотерапевта, Услуги дерматовенеролога, Услуги косметолога, Услуги детских врачей, Услуги гастроэнтеролога, Услуги кардиолога, Услуги офтальмолога, Услуги невролога, Медицинские комиссии, Вакцинация от COVID-19, Услуги профпатолога, Услуги процедурного кабинета, Больницы"
"2";"Мать и дитя, сеть клиник и госпиталей";"Москва";"Бутырская, 46 к2";"127015";="+74952416443";"savelovskaya.customer@mcclinics.ru";"http://mamadeti.ru/?utm_source=2gis&utm_medium=2gis_maps&utm_campaign=Moscow";"https://vk.com/mamadeti.savelovskaya";"";"37.583989";"55.801599";"Медицина / Здоровье / Красота";"Услуги гинеколога, Услуги уролога / андролога, Многопрофильные медицинские центры, Услуги генетика / Генетические исследования, Лечение ЛОР-заболеваний, Центры планирования семьи, Медицинские анализы, Услуги эндокринолога, Услуги ведения беременности, Больницы, Детские поликлиники, Неотложная медицинская помощь детям, Услуги онколога, Услуги гирудотерапевта, Услуги детских врачей, Услуги кардиолога, Услуги логопеда, Услуги маммолога, Услуги невролога, Услуги нефролога, Услуги офтальмолога, Услуги психолога, Услуги терапевта, Услуги физиотерапевта, Услуги хирурга"
"3";"ГУТА КЛИНИК, медицинский центр";"Москва";"улица Фадеева, 4а ст1";"125047";="+74954313361";"info@gutaclinic.ru";"http://gutaclinic.ru/?utm_source=2gis";"https://vk.com/gutaclinic";"";"37.601711";"55.775508";"Медицина / Здоровье / Красота";"Диагностические центры, Многопрофильные медицинские центры, Услуги онколога, Услуги уролога / андролога, Услуги гинеколога, Лечение ЛОР-заболеваний, Услуги кардиолога, Услуги флеболога, Ортопедия и травматология, Услуги терапевта, Услуги психотерапевта, Услуги невролога, Услуги хирурга, Услуги проктолога, Услуги маммолога, Услуги гастроэнтеролога, Услуги аллерголога / иммунолога, Услуги физиотерапевта, Услуги массажиста, Услуги косметолога, Услуги дерматовенеролога, Услуги ревматолога, Услуги нефролога, Услуги детских врачей, Услуги сурдолога, Услуги офтальмолога, Услуги эндокринолога, Медицинские анализы, Услуги фониатра, Стоматологические центры, Услуги гепатолога, Услуги трихолога, Центры мануальной терапии, Услуги пульмонолога, Больницы, Услуги логопеда, Травмпункты, Медицинские комиссии, Услуги сомнолога"
"4";"GMS, GMS Clinic Смоленская";"Москва";"1-й Николощеповский переулок, 6 ст1";"121099";="+74950859947";"info@gmsclinic.ru";"http://gmsclinic.ru/contacts/smolenskaya?utm_source=2gis&utm_medium=referral";"https://vk.com/gmsclinic";"";"37.581296";"55.748709";"Медицина / Здоровье / Красота";"Многопрофильные медицинские центры, Больницы, Диагностические центры, Лечение ЛОР-заболеваний, Ортопедия и травматология, Услуги аллерголога / иммунолога, Услуги ведения беременности, Услуги гастроэнтеролога, Услуги гематолога, Услуги гинеколога, Услуги дерматовенеролога, Услуги детских врачей, Услуги кардиолога, Услуги маммолога, Услуги невролога, Услуги онколога, Услуги офтальмолога, Услуги профпатолога, Услуги психолога, Услуги терапевта, Услуги уролога / андролога, Услуги физиотерапевта, Услуги хирурга, Услуги эндокринолога, Центры мануальной терапии"
"5";"SCH.CLINIC, центр психического здоровья";"Москва";"1-й Угрешский проезд, 6 к1";"115088";="+74957419464";"sch.clinic@yandex.ru";"http://schclinic.ru";"";"";"37.688019";"55.716317";"Медицина / Здоровье / Красота";"Услуги психиатра, Услуги психолога, Больницы, Медицинское лечение зависимостей, Психиатрические учреждения, Психологическая помощь в избавлении от зависимостей, Услуги психотерапевта"
"6";"Городская клиническая больница им. В.В. Виноградова, Консультационно-диагностическое отделение";"Москва";"улица Вавилова, 61 к2";"117292";="+74951034666";"info@gkb64.ru";"http://gkb64.ru";"https://vk.com/gkb64";"";"37.556327";"55.686856";"Медицина / Здоровье / Красота";"Больницы, Диагностические центры, Медицинские анализы, Услуги гастроэнтеролога, Услуги гинеколога, Услуги кардиолога, Услуги маммолога, Услуги невролога, Услуги офтальмолога, Услуги нейрохирурга, Услуги терапевта, Услуги физиотерапевта, Услуги хирурга, Услуги эндокринолога, Центры диетологии / нутрициологии, Ортопедия и травматология, Пластическая хирургия, Услуги проктолога, Многопрофильные медицинские центры, Услуги флеболога"
"7";"Морозовская детская городская клиническая больница, Отделение офтальмологии";"Москва";"4-й Добрынинский переулок, 1/9 ст1";"119049";="+74959598800, +74959598803";"";"http://мороздгкб.рф";"https://vk.com/morozdgkbdzm";"";"37.617033";"55.724324";"Медицина / Здоровье / Красота";"Больницы"
"8";"ФНКЦ ФМБА РОССИИ, Консультативно-диагностический центр";"Москва";"Ореховый бульвар, 28";"115682";="+74997254440";"";"http://fnkc-fmba.ru";"https://vk.com/fnkcfmba";"";"37.763893";"55.616657";"Медицина / Здоровье / Красота";"Больницы, Диагностические центры, Медицинские анализы"
"9";"НИИ СП им. Н.В. Склифосовского ДЗМ, Отделение реанимации и интенсивной терапии для больных после трансплантации";"Москва";"Большая Сухаревская площадь, 3 ст1";"107045";="+74956806722";"";"http://sklif.mos.ru";"https://vk.com/sklif.official";"";"37.635328";"55.773511";"Медицина / Здоровье / Красота";"Больницы, Интересные здания"
"10";"Московский научно-исследовательский онкологический институт им. П.А. Герцена";"Москва";"2-й Боткинский проезд, 3";"125284";="+74951501122";"";"http://www.mnioi.nmicr.ru";"https://vk.com/mnioi";"";"37.556401";"55.780392";"Медицина / Здоровье / Красота";"Больницы"
"11";"Российская детская клиническая больница";"Москва";"Ленинский проспект, 117 к1";"119571";="+74959369009, +74959369130, +74959369230";"";"http://www.rdkb.ru";"";"";"37.490405";"55.651705";"Медицина / Здоровье / Красота";"Больницы"
"12";"Национальный медицинский исследовательский центр детской гематологии, онкологии и иммунологии им. Д. Рогачёва";"Москва";"Саморы Машела, 1";"117198";="+74952876570, +74952876581";"";"http://www.fnkc.ru";"https://vk.com/fnkc_general";"";"37.493169";"55.652522";"Медицина / Здоровье / Красота";"Больницы"
"13";"Детская городская клиническая больница им. Н.Ф. Филатова";"Москва";"Садовая-Кудринская улица, 15 ст1";"123001";="+74992541010, +79688941947";"";"http://filatovmos.ru";"";"";"37.587932";"55.764193";"Медицина / Здоровье / Красота";"Больницы"
"14";"Городская клиническая больница №52, Отделение переливания крови";"Москва";"Пехотная, 3 к1";"123182";="+74958703607, +74991963533";"";"http://www.52gkb.ru";"https://vk.com/public152474290";"";"37.482492";"55.800725";"Медицина / Здоровье / Красота";"Больницы"
"15";"Национальный медицинский исследовательский центр нейрохирургии им. академика Н.Н. Бурденко, Хирургический корпус";"Москва";"Тверская-Ямская 4-я, 16";"125047";="+74999728668";"";"http://www.nsi.ru";"";"";"37.595519";"55.773862";"Медицина / Здоровье / Красота";"Услуги нейрохирурга, Больницы"
"16";"Научно-исследовательский клинический институт оториноларингологии им. Л.И. Свержевского, Клинический корпус";"Москва";"Загородное шоссе, 18а ст2";"117152";="+74951094499";"";"http://nikio.ru";"https://vk.com/nikio_sverjevsky";"";"37.60024";"55.695912";"Медицина / Здоровье / Красота";"Лечение ЛОР-заболеваний, Услуги фониатра, Челюстно-лицевая хирургия, Больницы, Диагностические центры"
"17";"Городская клиническая больница им. С.С. Юдина, Приемное отделение";"Москва";"Коломенский проезд, 4";"115446";="+74996124566, +79854417102";"";"http://gkbyudina.ru";"https://vk.com/gkbyudina";"";"37.640241";"55.663179";"Медицина / Здоровье / Красота";"Больницы"
"18";"Городская клиническая больница №67 им. Л.А. Ворохобова, Администрация";"Москва";"Саляма Адиля, 2/44 ст4";"123423";="+74955303388";"";"";"";"";"37.468746";"55.77";"Медицина / Здоровье / Красота";"Больницы"
"19";"Городская клиническая больница им. С.П. Боткина, Терапевтическое отделение №2";"Москва";"2-й Боткинский проезд, 5 к22";"125284";="+74994900303, 88006003141, +74959457781";"";"http://botkinmoscow.ru";"https://vk.com/botkinmoscow";"";"37.550131";"55.78125";"Медицина / Здоровье / Красота";"Больницы"
"20";"Городская клиническая больница №13, Административный корпус";"Москва";"Велозаводская, 1/1 ст3";"115280";="+74994263687";"";"";"";"";"37.665243";"55.720086";"Медицина / Здоровье / Красота";"Больницы"
"21";"Городская клиническая больница №29 им. Н.Э. Баумана, Консультативно-диагностический центр; Корпус №10";"Москва";"Госпитальная площадь, 2 к10";"111250";="+74950110239";"";"http://www.klinika29.ru";"";"";"37.701919";"55.766155";"Медицина / Здоровье / Красота";"Больницы"
"22";"Городская клиническая больница им. С.И. Спасокукоцкого, Консультативно-диагностическое отделение";"Москва";"Вучетича, 21 ст1";"127206";="+74951977777, +74958703612";"";"http://www.50gkb.ru";"https://vk.com/gkb_50";"";"37.555479";"55.812669";"Медицина / Здоровье / Красота";"Больницы, Диагностические центры"
"23";"Городская клиническая больница им. С.П. Боткина, Онкологическое отделение №71";"Москва";"2-й Боткинский проезд, 5 к22";"125284";="+74994900303, 88006003141, +74997405810";"";"http://botkinmoscow.ru";"https://vk.com/botkinmoscow";"";"37.550131";"55.78125";"Медицина / Здоровье / Красота";"Больницы"
"24";"Городская клиническая больница им. Ф.И. Иноземцева";"Москва";"Фортунатовская, 1 к1";"105187";="+74953650505";"";"http://inozemtcev.ru";"";"";"37.739433";"55.790832";"Медицина / Здоровье / Красота";"Больницы"
"25";"Московский областной научно-исследовательский клинический институт им. М.Ф. Владимирского, Патологоанатомическое отделение";"Москва";"Щепкина, 61/2 ст10";"129110";="+74996740709, +74956844325, +74956814686";"";"http://monikiweb.ru";"https://vk.com/institutmoniki";"";"37.628472";"55.787778";"Медицина / Здоровье / Красота";"Больницы, Морги"
"26";"Городская клиническая больница №67 им. Л.А. Ворохобова";"Москва";"Саляма Адиля, 2/44 ст1";"123423";="";"";"";"";"";"37.467103";"55.772138";"Медицина / Здоровье / Красота";"Больницы"
"27";"Городская клиническая больница им. В.В. Вересаева, Отделение гнойной хирургии";"Москва";"Лобненская улица, 10 ст2";"127644";="+74994505581";"";"http://gkb81.ru";"https://vk.com/gkb81";"";"37.532731";"55.890561";"Медицина / Здоровье / Красота";"Больницы"
"28";"Городская клиническая больница №24, Отделение физиотерапии";"Москва";"Писцовая, 10";"127015";="";"";"";"";"";"37.579015";"55.798215";"Медицина / Здоровье / Красота";"Больницы"
"29";"Инфекционная клиническая больница №2, Отделение функциональной диагностики";"Москва";"8-я улица Соколиной Горы, 15";"105275";="+74958703609";"";"http://ikb2.ru";"https://vk.com/ikb2dzm";"";"37.740463";"55.770771";"Медицина / Здоровье / Красота";"Больницы"
"30";"Национальный медико-хирургический центр им. Н.И. Пирогова, Офтальмологическое отделение";"Москва";"Нижняя Первомайская, 65";"105203";="+74994640303, +74994644454, +74994641623";"";"http://www.pirogov-center.ru";"https://vk.com/pirogovcenter";"";"37.81826";"55.791574";"Медицина / Здоровье / Красота";"Больницы"
"31";"Научно-исследовательский клинический институт педиатрии им. академика Ю.Е. Вельтищева";"Москва";"Талдомская улица, 2 к4";"125412";="+74954837250";"";"http://pedklin.ru";"https://vk.com/pedklin";"";"37.520302";"55.871931";"Образование / Работа / Карьера";"Научно-исследовательские институты, Больницы"
"32";"Городская клиническая больница им. В.М. Буянова, Неврологическое отделение №1";"Москва";"улица Бакинская, 26";"115516";="+74953215492, +74953229121";"";"http://gkb-buyanova.ru";"https://vk.com/gkb_buyanova";"";"37.654111";"55.618974";"Медицина / Здоровье / Красота";"Больницы"
"33";"Детская городская клиническая больница им. З.А. Башляевой";"Москва";"улица Героев Панфиловцев, 28";"125373";="+74955392473, +74954969100, +79037204751";"";"http://www.tdgb-mos.ru";"";"";"37.404591";"55.851538";"Медицина / Здоровье / Красота";"Больницы"
"34";"Городская клиническая больница №1 им. Н.И. Пирогова, Приемное отделение";"Москва";"Ленинский проспект, 10 к8";"119049";="+74997645002, +74959523506";"";"http://gkb1.ru";"";"";"37.596093";"55.721816";"Медицина / Здоровье / Красота";"Больницы"
"35";"Детская городская клиническая больница №9 им. Г.Н. Сперанского, Приемное инфекционное и педиатрическое отделение";"Москва";"Шмитовский проезд, 29 к1";"123317";="+74992564171";"";"http://dgkb-9.ru";"https://vk.com/speranskogo9";"";"37.539797";"55.754767";"Медицина / Здоровье / Красота";"Больницы"
"36";"НИИ СП им. Н.В. Склифосовского ДЗМ, Отделение неотложной хирургической гастроэнтерологии";"Москва";"Большая Сухаревская площадь, 3 ст21";"129090";="+74956806722";"";"http://sklif.mos.ru";"https://vk.com/sklif.official";"";"37.63568";"55.775897";"Медицина / Здоровье / Красота";"Больницы"
"37";"Городская клиническая больница им. В.П. Демихова";"Москва";"Шкулёва, 4 ст1";"109263";="+74991796785, +74958703606, +74991796622";"";"http://demikhova.ru";"";"";"37.749746";"55.693318";"Медицина / Здоровье / Красота";"Больницы"
"38";"Национальный медицинский исследовательский центр травматологии и ортопедии им. Н.Н. Приорова, Отделение вертебрологии";"Москва";"улица Приорова, 10";"127299";="+74957444010";"";"http://www.cito-priorov.ru";"https://vk.com/citopriorov";"";"37.530735";"55.820103";"Образование / Работа / Карьера";"Научно-исследовательские институты, Больницы"
"39";"Больница им. Е.О. Мухина";"Москва";"Федеративный проспект, 17";"111399";="+74953039754, +74953044216";"";"http://gkb-muhina.ru";"https://vk.com/gkb.mukhina";"";"37.813874";"55.755564";"Медицина / Здоровье / Красота";"Больницы, Диагностические центры, Медицинские анализы, Услуги флеболога, Услуги уролога / андролога, Услуги эндокринолога, Услуги физиотерапевта, Услуги рефлексотерапевта, Услуги гинеколога, Родильные дома"
"40";"Городская клиническая больница №17";"Москва";"улица Волынская, 7";"119620";="+74996383017, +74954358816, +74954392577, +74954392511";"";"http://gkb17.ru";"";"";"37.412821";"55.642721";"Медицина / Здоровье / Красота";"Больницы"
"41";"Инфекционная клиническая больница №1, Приемное отделение";"Москва";"шоссе Волоколамское, 63 к5";"125310";="+74991900101, +74954901440";"";"http://ikb1.ru";"https://vk.com/club182643197";"";"37.458536";"55.817013";"Медицина / Здоровье / Красота";"Больницы, Услуги инфекциониста"
"42";"Городская клиническая больница им. С.П. Боткина, Консультативно-диагностический центр";"Москва";"2-й Боткинский проезд, 5 к22";"125284";="+74994900303, 88006003141, +74997626286";"";"http://botkinmoscow.ru";"https://vk.com/botkinmoscow";"";"37.550131";"55.78125";"Медицина / Здоровье / Красота";"Медицинские анализы, Больницы"
"43";"РЖД-медицина, клиника и госпиталь";"Москва";"Ставропольская улица, 23 к1 ст1";"109386";="88007000701";"";"http://semashko.com";"https://vk.com/rzd_medicine";"";"37.760703";"55.683262";"Медицина / Здоровье / Красота";"Больницы"
"44";"Городская клиническая больница им. С.С. Юдина, Кардиологическое отделение для больных с острым инфарктом миокарда №1";"Москва";"Коломенский проезд, 4";"115446";="+74996124566";"";"http://gkbyudina.ru";"https://vk.com/gkbyudina";"";"37.640241";"55.663179";"Медицина / Здоровье / Красота";"Больницы"
"45";"Городская клиническая больница им. Ф.И. Иноземцева, Нейрохирургическое отделение";"Москва";"Фортунатовская, 1 к10";"105187";="+74953650505";"";"http://inozemtcev.ru";"";"";"37.738044";"55.790479";"Медицина / Здоровье / Красота";"Больницы, Услуги нейрохирурга"
"46";"Видновская районная клиническая больница, Приёмное отделение";"Видное";"Заводская, 15";"142703";="+74955414001, +74955417940, +79166791664";"";"http://vidnoe-bolnica.ru";"";"";"37.728939";"55.55391";"Медицина / Здоровье / Красота";"Больницы"
"47";"Клиника взрослой челюстно-лицевой хирургии";"Москва";"улица Тимура Фрунзе, 16 ст1";"119021";="+74992552722";"";"http://cniis.ru";"";"";"37.590457";"55.734329";"Медицина / Здоровье / Красота";"Больницы, Челюстно-лицевая хирургия"
"48";"Российский научный центр хирургии им. академика Б.В. Петровского, Отделение эндоскопической хирургии";"Москва";"Абрикосовский переулок, 2";"119435";="+74992481555, +74992481142, +74992481375";"";"http://med.ru";"https://vk.com/spineclinic";"";"37.563886";"55.73005";"Медицина / Здоровье / Красота";"Больницы"
"49";"Городская клиническая больница №31";"Москва";"улица Лобачевского, 42 ст1";"119415";="+74994329653, +74999369989";"";"http://www.gkb-31.ru";"https://vk.com/gkb31msk";"";"37.500426";"55.669459";"Медицина / Здоровье / Красота";"Больницы"
"50";"Городская клиническая больница №67 им. Л.А. Ворохобова, Перинатальный центр";"Москва";"Саляма Адиля, 2/44 ст4";"123423";="";"";"";"";"";"37.468465";"55.769886";"Медицина / Здоровье / Красота";"Больницы"
"51";"Городская клиническая больница №15 им. О.М. Филатова, Патологоанатомическое отделение";"Москва";"Вешняковская, 23 ст3";"111539";="+74953751555, +79037445856, +74953750438, +79151709306";"";"http://gkb15.moscow";"";"";"37.836874";"55.73115";"Медицина / Здоровье / Красота";"Больницы"
"52";"Раменская центральная областная больница, Хирургическое отделение";"Раменское";"улица Махова, 14 ст2";"140105";="+74964633574, +74964634915";"";"http://ramcrb.ru";"https://vk.com/ramenob";"";"38.216498";"55.573827";"Медицина / Здоровье / Красота";"Больницы"
"53";"Университетская клиническая больница №2, Клиника пропедевтики внутренних болезней, гастроэнтерологии и гепатологии им. В.Х. Василенко";"Москва";"Погодинская, 1 ст1";"119435";="+74992486991, +74992483555";"";"http://sechenovclinic.ru";"";"";"37.571986";"55.73433";"Медицина / Здоровье / Красота";"Больницы"
"54";"Клиника №1";"пос. Здравница";"Дубки, 7";"141034";="+74955840600, +74955884137, +74955884540, +74955884129";"";"http://mokptd.ru";"https://vk.com/moptd";"";"37.738941";"55.961676";"Медицина / Здоровье / Красота";"Больницы"
"55";"Федеральный научный центр гигиены им. Ф.Ф. Эрисмана";"Мытищи";"Семашко, 2а";"141014";="+74955861234, +74955829700, +79636208260";"";"http://www.fferisman.ru";"";"";"37.731899";"55.899345";"Медицина / Здоровье / Красота";"Больницы"
"56";"Раменская инфекционная больница";"Раменское";"улица Мира, 12";"140105";="+74964634647, +74964634653, +74964634889, +74964634884, +74964634897";"";"http://ramcrb.ru";"";"";"38.214956";"55.577471";"Медицина / Здоровье / Красота";"Больницы"
"57";"Растуновская городская больница";"с. Растуново";"Мирная, 7";"142062";="+74967961119, +74967961355, +74967961365, +74967961252, +74967961504";"";"http://zdr2501.polikln.ru";"";"";"37.838715";"55.271036";"Медицина / Здоровье / Красота";"Больницы"
"58";"Городская клиническая больница №67 им. Л.А. Ворохобова, Гинекологическое отделение";"Москва";"Саляма Адиля, 2/44 к Б";"123423";="+74955303156, +74955303133";"";"";"";"";"37.46833";"55.770682";"Медицина / Здоровье / Красота";"Больницы"
"59";"Мать и дитя, сеть клиник и госпиталей";"Москва";"Союзный проспект, 22";"111396";="+74952416443";"novogireevo.customer@mcclinics.ru";"http://mamadeti.ru/?utm_source=2gis&utm_medium=2gis_maps&utm_campaign=Moscow";"https://vk.com/klinikamid";"";"37.820024";"55.748633";"Медицина / Здоровье / Красота";"Многопрофильные медицинские центры, Услуги гинеколога, Медицинские анализы, Услуги ведения беременности, Центры планирования семьи, Больницы, Детские поликлиники, Неотложная медицинская помощь детям"
"60";"Городская клиническая больница им. Д.Д. Плетнёва";"Москва";"11-я Парковая улица, 32 ст2";"105077";="+74957005757";"";"http://gkb57.ru";"https://vk.com/gkb57";"";"37.808156";"55.798238";"Медицина / Здоровье / Красота";"Больницы"
"61";"Центральная клиническая больница с поликлиникой, Гинекологическое отделение №1";"Москва";"Маршала Тимошенко, 15";"121359";="+74955300300, +74955300111, +74955300957";"";"http://www.cchp.ru";"https://vk.com/kremlinmedicine";"";"37.389528";"55.749849";"Медицина / Здоровье / Красота";"Больницы, Услуги гинеколога"
"62";"Львовская районная больница";"Подольск";"Больничный проезд, 4а";"142155";="+74967605805";"";"http://www.muz-lrb.ru";"";"";"37.527259";"55.315402";"Медицина / Здоровье / Красота";"Больницы"
"63";"НИИ СП им. Н.В. Склифосовского ДЗМ, Нейрохирургическое отделение для лечения больных с сосудистыми заболеваниями головного мозга";"Москва";"Большая Сухаревская площадь, 3 ст21";"129090";="+74956806722";"";"http://sklif.mos.ru";"https://vk.com/sklif.official";"";"37.63568";"55.775897";"Медицина / Здоровье / Красота";"Больницы"
"64";"Городская клиническая больница №17, Отделение платных услуг";"Москва";"улица Волынская, 7 к2";"119620";="+74996383017, +79645031717";"";"http://gkb17.ru";"";"";"37.413662";"55.643264";"Медицина / Здоровье / Красота";"Больницы"
"65";"Федеральный медицинский биофизический центр им. А.И. Бурназяна ФМБА России, Центр эстетической реабилитации и кожной патологии";"Москва";"улица Маршала Новикова, 23 к2";"123098";="+74991908555, +74991908613";"";"http://fmbafmbc.ru";"https://vk.com/club211016082";"";"37.455262";"55.80453";"Медицина / Здоровье / Красота";"Больницы"
"66";"Научно-исследовательский клинический институт педиатрии им. академика Ю.Е. Вельтищева";"Москва";"Талдомская улица, 2 ст2";"125412";="+74954837250, +74951096003";"";"http://pedklin.ru";"https://vk.com/pedklin";"";"37.519521";"55.871351";"Образование / Работа / Карьера";"Научно-исследовательские институты, Больницы"
"67";"Медгород, лечебно-диагностический центр";"Москва";"Кривоколенный переулок, 9 ст1";"101000";="+74955404803";"";"http://medgorod-clinic.ru";"https://vk.com/med_gorod";"";"37.63693";"55.762656";"Медицина / Здоровье / Красота";"Многопрофильные медицинские центры, Диагностические центры, Услуги терапевта, Услуги невролога, Услуги кардиолога, Услуги уролога / андролога, Услуги детских врачей, Лечение ЛОР-заболеваний, Услуги гастроэнтеролога, Услуги аллерголога / иммунолога, Услуги дерматовенеролога, Ортопедия и травматология, Услуги маммолога, Услуги пульмонолога, Услуги эндокринолога, Услуги гинеколога, Услуги ревматолога, Услуги массажиста, Услуги косметолога, Услуги нефролога, Занятия лечебной физкультурой, Центры иммунизации, Услуги ведения беременности, Услуги инфекциониста, Услуги процедурного кабинета, SPA-процедуры, Больницы, Медицинские анализы, Услуги онколога, Центры диетологии / нутрициологии, Центры мануальной терапии, Услуги физиотерапевта"
"68";"Городская клиническая больница им. С.С. Юдина, Травматолого-ортопедическое отделение №2";"Москва";"Коломенский проезд, 4";"115446";="+74996124566";"";"http://gkbyudina.ru";"https://vk.com/gkbyudina";"";"37.640241";"55.663179";"Медицина / Здоровье / Красота";"Больницы"
"69";"Ногинская центральная районная больница, Консультативно-диагностический центр";"Ногинск";"Комсомольская, 59";"142400";="+74965112030";"";"http://zdravnoginsk.ru";"https://vk.com/crbnoginsk";"";"38.433003";"55.848015";"Медицина / Здоровье / Красота";"Больницы"
"70";"Чеховская областная больница";"Чехов";"Московская улица, 85";"142300";="+74967267982, +74993481066,,,105, +74993481066,,,106, 88005505030, +74967268206, +74967268278";"";"http://chehovmed.ru";"";"";"37.461888";"55.149951";"Медицина / Здоровье / Красота";"Больницы"
"71";"Городская клиническая больница им. А.К. Ерамишанцева, Нейрохирургическое отделение";"Москва";"улица Ленская, 15 ст2";"129327";="+74954711044, +74999400430";"";"http://dr-zavalishin.ru";"https://vk.com/public139502698";"";"37.664524";"55.866385";"Медицина / Здоровье / Красота";"Больницы, Услуги нейрохирурга"
"72";"Ржд-медицина им. Н.А. Семашко, Клиническая больница";"рп. Киевский";"Киевский посёлок, 12а";"108800";="+74958463489, 88007000701";"";"http://semashko.com";"https://vk.com/rzd_medicine";"";"36.871422";"55.431601";"Медицина / Здоровье / Красота";"Больницы"
"73";"Егорьевская центральная районная больница, Администрация";"Егорьевск";"Жукова Гора, 19";"140301";="+74964030718";"";"http://egcrb.ru";"https://vk.com/egcrb";"";"39.027941";"55.3635";"Медицина / Здоровье / Красота";"Больницы"
"74";"Московский областной клинический противотуберкулезный диспансер, филиал г. Подольск";"Подольск";"Матросская, 5";"142100";="+74967693808, +74967630512, +74967534279, +74967534179";"";"http://mokptd.ru/filial-podolskij-2/";"https://vk.com/moptd";"";"37.551367";"55.428217";"Медицина / Здоровье / Красота";"Больницы"
"75";"Одинцовская областная больница, Педиатрическое отделение";"Одинцово";"бульвар Любы Новоселовой, 6";"143003";="+74955994487, +74955978370";"";"";"";"";"37.254039";"55.6809";"Медицина / Здоровье / Красота";"Больницы"
"76";"Городская клиническая больница им. И.В. Давыдовского, Гинекологическое отделение";"Москва";"Яузская улица, 11/6 ст1";"109240";="+74959153590, +74993900323";"";"http://www.gkb-23.ru";"";"";"37.648515";"55.746541";"Медицина / Здоровье / Красота";"Больницы"
"77";"Городская клиническая больница им. М.П. Кончаловского, Гинекологическое отделение";"Зеленоград";"Каштановая аллея, 2 ст1";"124489";="+74997352597, +79254832321";"";"http://gb3zelao.ru";"https://vk.com/gkb_3zelao";"";"37.233994";"55.983771";"Медицина / Здоровье / Красота";"Больницы"
"78";"НИИ СП им. Н.В. Склифосовского ДЗМ, Отделение неотложной кардиологии и сердечно-сосудистой хирургии";"Москва";"Большая Сухаревская площадь, 3 ст6";"129090";="+74956806722, +74956201119, +79099922722";"";"http://sklif.mos.ru";"https://vk.com/sklif.official";"";"37.636434";"55.77453";"Медицина / Здоровье / Красота";"Больницы"
"79";"Московский областной научно-исследовательский клинический институт им. М.Ф. Владимирского, Неврологическое отделение";"Москва";"Щепкина, 61/2 ст5";"129110";="+74996740709, +74956006148";"";"http://monikiweb.ru";"https://vk.com/institutmoniki";"";"37.628";"55.786044";"Медицина / Здоровье / Красота";"Больницы"
"80";"Кузнечики, больница";"пос. Шишкин Лес";"посёлок Шишкин Лес, ст32";"108833";="+74952121480";"";"http://gbkuznechiki.ru";"";"";"37.18271";"55.412918";"Медицина / Здоровье / Красота";"Больницы"
"81";"Городская клиническая больница №1 им. Н.И. Пирогова, Отделение радиоизотопной диагностики";"Москва";"Ленинский проспект, 10 к5";"119049";="+74997645002, +74959544902";"";"http://gkb1.ru";"https://vk.com/dzdmos";"";"37.596433";"55.72091";"Медицина / Здоровье / Красота";"Больницы"
"82";"Городская клиническая больница им. В.П. Демихова, Инфекционный центр";"Москва";"10-й квартал, 1 к13в";"";="+74991796785, +74958703606, +74958707256,,,9911";"";"http://demikhova.ru";"";"";"37.189832";"55.366898";"Медицина / Здоровье / Красота";"Больницы"
"83";"Домодедовская центральная городская больница, отдел снабжения и закупок";"Домодедово";"улица Пирогова, 9 ст2";"142005";="88005505030, +74967948800, +74967935194";"";"http://www.dcgb1.ru";"https://vk.com/dcgb1";"";"37.744998";"55.438569";"Медицина / Здоровье / Красота";"Больницы"
"84";"Центральная клиническая больница с поликлиникой, Отделение радиотерапии";"Москва";"Маршала Тимошенко, 15 ст5";"121359";="+74955300300, +74955300111, +74955300930";"";"http://www.cchp.ru";"https://vk.com/kremlinmedicine";"";"37.382377";"55.75104";"Медицина / Здоровье / Красота";"Больницы"
"85";"Новый Шаг, спортивно-реабилитационный центр";"Москва";"Бахрушина, 15 ст2";"115054";="+74954775540";"";"http://novyshag.ru";"https://vk.com/newsteprf";"";"37.636461";"55.735359";"Медицина / Здоровье / Красота";"Реабилитационные центры, Больницы, Ортопедия и травматология, Услуги вертебролога, Центры мануальной терапии, Занятия лечебной физкультурой, Услуги массажиста"
"86";"Егорьевская центральная районная больница, Приемное отделение";"Егорьевск";"Жукова Гора, 19";"140301";="+74964030718, +74964030615";"";"http://egcrb.ru";"https://vk.com/egcrb";"";"39.027892";"55.363387";"Медицина / Здоровье / Красота";"Больницы"
"87";"Первая больница, Хирургическое отделение";"Орехово-Зуево";"улица Барышникова, 13 к1";"142611";="+74964257751, +74964257823, +74964257404";"";"http://ozcgb.ru";"";"";"38.998161";"55.80184";"Медицина / Здоровье / Красота";"Больницы"
"88";"Городская клиническая больница им. Д.Д. Плетнёва, Патологоанатомическое отделение";"Москва";"11-я Парковая улица, 32 ст15";"105077";="+74957005757, +74954655958, +74997800831";"";"http://gkb57.ru";"https://vk.com/public152780350";"";"37.809413";"55.797814";"Медицина / Здоровье / Красота";"Морги, Больницы"
"89";"Городская клиническая больница №67 им. Л.А. Ворохобова, Консультативно-диагностический центр";"Москва";"Саляма Адиля, 7";"123154";="+74955303366, +74955303186, +74955303311, +74955303379";"";"";"";"";"37.465488";"55.773492";"Медицина / Здоровье / Красота";"Больницы"
"90";"Мытищинская городская клиническая больница, Хирургическое отделение";"Мытищи";"Коминтерна, 24";"141009";="+74953081300, +74955866288";"";"http://мгкб.рф";"";"";"37.777416";"55.922934";"Медицина / Здоровье / Красота";"Больницы"
"91";"Щёлковская городская больница, Филиал №3";"пос. Биокомбината";"посёлок Биокомбината, 7а";"141142";="+79672850933, +74965673789, +74965673236";"";"http://schrb.ru/";"";"";"38.115739";"55.917217";"Медицина / Здоровье / Красота";"Больницы"
"92";"Клиника детской челюстно-лицевой хирургии";"Москва";"улица Тимура Фрунзе, 16 ст5";"119021";="+74992552722, +74992468258";"";"http://childface.ru";"";"";"37.590793";"55.734889";"Медицина / Здоровье / Красота";"Больницы, Челюстно-лицевая хирургия"
"93";"НИИ неотложной детской хирургии и травматологии";"Москва";"улица Большая Полянка, 22";"119180";="+74959593840, +74959594881, +74959595120, +74959592779";"";"http://www.doctor-roshal.ru";"";"";"37.618468";"55.737919";"Медицина / Здоровье / Красота";"Больницы"
"94";"Городская клиническая больница им. И.В. Давыдовского, Лаборатория атеротромбоза";"Москва";"Яузская улица, 11/6 к4";"109240";="+74959153590, +74993900323, +74959153887";"";"http://www.gkb-23.ru";"";"";"37.650532";"55.746201";"Медицина / Здоровье / Красота";"Больницы"
"95";"РЖД, научный клинический центр";"Москва";"шоссе Волоколамское, 84 ст4";"125367";="+74959250202, +74959250200, 88002343434";"";"http://www.ckb-rzd.ru";"https://vk.com/rzd_medicine";"";"37.458172";"55.819968";"Медицина / Здоровье / Красота";"Больницы"
"96";"Детская городская клиническая больница святого Владимира, Педиатрическое отделение 2";"Москва";"Рубцовско-Дворцовая, 1/3 к1";"107014";="+74997480483";"";"http://гемангиомапро.рф";"https://vk.com/dgkbsv";"";"37.696621";"55.78734";"Медицина / Здоровье / Красота";"Больницы"
"97";"Университетская клиническая больница №4, Клинико-диагностический центр";"Москва";"улица Доватора, 15 ст2";"119048";="+74992466741, +74992452660, +74992468053, +74992451937";"";"http://www.sechenovclinic.ru";"https://vk.com/sechenov_ru";"";"37.566244";"55.721244";"Медицина / Здоровье / Красота";"Больницы"
"98";"Городская клиническая больница им. С.И. Спасокукоцкого, Урологическое отделение №4";"Москва";"Вучетича, 21 ст2";"127206";="+74951977777, +74958703612";"";"http://www.50gkb.ru";"https://vk.com/gkb_50";"";"37.554395";"55.812468";"Медицина / Здоровье / Красота";"Больницы"
"99";"Городская клиническая больница №52, Приемное отделение";"Москва";"Пехотная, 3 к5";"123182";="+74958703607, +74991962233, +74991963571";"";"http://www.52gkb.ru";"https://vk.com/public152474290";"";"37.484596";"55.803333";"Медицина / Здоровье / Красота";"Больницы"
"100";"Городская клиническая больница им. С.П. Боткина, Кардиологическое отделение №5";"Москва";"2-й Боткинский проезд, 5 к20";"125284";="+74994900303, 88006003141, +74997288156";"";"http://botkinmoscow.ru";"https://vk.com/botkinmoscow";"";"37.549745";"55.779179";"Медицина / Здоровье / Красота";"Больницы"
"101";"Поликлиника №1, Онкологическое отделение";"Коломна";"улица Октябрьской революции, 318 к2";"140407";="+74966150505";"";"http://poliklinika-nepec.t.ener.ru";"";"";"38.775934";"55.090373";"Медицина / Здоровье / Красота";"Больницы"
"102";"Городская клиническая больница №51";"Москва";"улица Алябьева, 7/33 к2";"121309";="+74991468124";"";"http://gkb51.ru";"https://vk.com/club188866607";"";"37.485672";"55.742618";"Медицина / Здоровье / Красота";"Больницы"
"103";"РЖД-медицина, Приемное отделение";"Москва";"Ставропольская улица, 23 к1 ст8";"109386";="88007000701";"";"http://semashko.com";"https://vk.com/dkb.semashko";"";"37.760581";"55.684292";"Медицина / Здоровье / Красота";"Больницы"
"104";"Дзержинская городская больница";"Дзержинский";"Ленина, 30";"140090";="+74955513055, +74955513011";"";"";"";"";"37.848637";"55.628147";"Медицина / Здоровье / Красота";"Больницы"
"105";"Городская клиническая больница им. Ф.И. Иноземцева, Неврологическое отделение";"Москва";"Фортунатовская, 1 к4";"105187";="+74953650505";"";"http://inozemtcev.ru";"";"";"37.736739";"55.791827";"Медицина / Здоровье / Красота";"Больницы"
"106";"Московская областная больница им. В.Н. Розанова";"Пушкино";"Авиационная, 35 к2";"141206";="+74959933147, +74965393070";"";"http://prbmo.ru";"https://vk.com/pushkino_rb";"";"37.837728";"56.019408";"Медицина / Здоровье / Красота";"Больницы"
"107";"Морозовская детская городская клиническая больница";"Москва";"Верхняя Первомайская, 48 к3";"105077";="+74959598800, +74959598803";"";"http://мороздгкб.рф";"https://vk.com/morozdgkbdzm";"";"37.810934";"55.797914";"Медицина / Здоровье / Красота";"Больницы"
"108";"Центральная клиническая больница гражданской авиации, Патологоанатомическое отделение";"Москва";"Иваньковское шоссе, 7 ст2";"125367";="+74954900490, +74954900468";"";"http://ckbga.ru";"";"";"37.460616";"55.825764";"Медицина / Здоровье / Красота";"Больницы"
"109";"Больница им. Е.О. Мухина, Патологоанатомическое отделение";"Москва";"Федеративный проспект, 17 ст25";"111399";="+74953039754, +74953011320, +74953029569";"";"http://gkb-muhina.ru";"https://vk.com/gkb.mukhina";"";"37.813834";"55.756749";"Медицина / Здоровье / Красота";"Больницы"
"110";"Городская клиническая больница им. Д.Д. Плетнёва, Рентгенологическое отделение";"Москва";"11-я Парковая улица, 32 к2";"105077";="+74957005757, +74959653802";"";"http://gkb57.ru";"https://vk.com/gkb57";"";"37.809109";"55.798358";"Медицина / Здоровье / Красота";"Больницы"
"111";"Городская клиническая онкологическая больница №1, Отделение платных медицинских услуг";"Москва";"Бауманская, 17/1 к3";"105005";="";"";"http://gkob1.ru";"https://vk.com/gkob1";"";"37.679575";"55.775173";"Медицина / Здоровье / Красота";"Больницы"
"112";"Городская клиническая онкологическая больница №1, Онкологическое отделение №1";"Москва";"Загородное шоссе, 18а ст9";"117152";="";"";"http://gkob1.ru";"https://vk.com/gkob1";"";"37.599193";"55.69543";"Медицина / Здоровье / Красота";"Больницы"
"113";"Монинская больница";"рп. Монино";"Центральная, 1а";"141171";="+74962531697, +74962531601";"";"";"";"";"38.207849";"55.843149";"Медицина / Здоровье / Красота";"Больницы"
"114";"Коломенская областная больница, Нейрохирургическое отделение";"Коломна";"улица Октябрьской революции, 318 к2";"140407";="+74966122627";"";"http://црб-коломна.рф";"";"";"38.774822";"55.090344";"Медицина / Здоровье / Красота";"Больницы"
"115";"Городская клиническая больница им. В.В. Виноградова, Рентгенологическое отделение";"Москва";"улица Вавилова, 61 к4";"117292";="+74951034666";"info@gkb64.ru";"http://gkb64.ru";"https://vk.com/gkb64";"";"37.55654";"55.686298";"Медицина / Здоровье / Красота";"Больницы, Диагностические центры"
"116";"Научно-практический психоневрологический центр им. З.П. Соловьева, Поликлиническое отделение";"Москва";"Донская улица, 43 ст8";"115419";="+74992374153, +74992365996";"";"http://npcpn.ru";"https://vk.com/npcpn";"";"37.604489";"55.716829";"Медицина / Здоровье / Красота";"Больницы"
"117";"Городская клиническая больница №52";"Москва";"Пехотная, 3 к12";"123182";="+74958703607, +74991961889";"";"http://www.52gkb.ru";"https://vk.com/public152474290";"";"37.484489";"55.80186";"Медицина / Здоровье / Красота";"Больницы"
"118";"Национальный медико-хирургический центр им. Н.И. Пирогова, Стационар";"Москва";"Нижняя Первомайская, 70 ст1";"105203";="+74994640303, +74994645163";"";"http://www.pirogov-center.ru";"https://vk.com/pirogovcenter";"";"37.820999";"55.78963";"Медицина / Здоровье / Красота";"Больницы"
"119";"Городская клиническая больница им. С.П. Боткина, Гематологическое отделение №7";"Москва";"2-й Боткинский проезд, 5 к1";"125284";="+74994900303, 88006003141";"";"http://botkinmoscow.ru";"https://vk.com/botkinmoscow";"";"37.552929";"55.782505";"Медицина / Здоровье / Красота";"Больницы"
"120";"Городская клиническая больница №52, Гинекологическое отделение";"Москва";"Пехотная, 3 к6";"123182";="+74958703607";"";"http://www.52gkb.ru";"https://vk.com/public152474290";"";"37.487103";"55.803868";"Медицина / Здоровье / Красота";"Больницы"
"121";"Городская клиническая больница им. С.П. Боткина, Центр амбулаторной онкологической помощи";"Москва";"2-й Боткинский проезд, 5 к28";"125284";="+74994900303, 88006003141";"";"http://botkinmoscow.ru";"https://vk.com/botkinmoscow";"";"37.548561";"55.780833";"Медицина / Здоровье / Красота";"Больницы"
"122";"Долгопрудненская центральная городская больница";"Долгопрудный";"Павлова, 2 к6";"141704";="+74954086166";"";"http://dol-cgb.ru";"";"";"37.515293";"55.942707";"Медицина / Здоровье / Красота";"Больницы"
"123";"НИИ СП им. Н.В. Склифосовского ДЗМ, Отделение острых термических поражений";"Москва";"Большая Сухаревская площадь, 3 ст3";"107045";="+74956806722, +74956288203, +74956244205";"";"http://sklif.mos.ru";"https://vk.com/sklif.official";"";"37.636725";"55.773082";"Медицина / Здоровье / Красота";"Больницы"
"124";"Морозовская детская городская клиническая больница, Отделение неотложной хирургии и урологии-андрологии";"Москва";"4-й Добрынинский переулок, 1/9 ст8";"119049";="+74959598800, +74959598803, +74959598725";"";"http://мороздгкб.рф";"https://vk.com/morozdgkbdzm";"";"37.61587";"55.726236";"Медицина / Здоровье / Красота";"Больницы, Услуги нейрохирурга"
"125";"Жуковская городская клиническая больница, Приемное отделение";"Жуковский";"улица Чкалова, 28 к1";"140181";="+74955569868, 88005505030";"";"http://zhgkb.ru";"https://vk.com/public120959885";"";"38.127271";"55.598339";"Медицина / Здоровье / Красота";"Больницы"
"126";"Городская клиническая больница им. С.С. Юдина, Временный медицинский центр";"Москва";"Академика Миллионщикова, 1 ст А";"115487";="+74996124566";"";"http://gkbyudina.ru";"https://vk.com/gkbyudina";"";"37.654939";"55.67232";"Медицина / Здоровье / Красота";"Больницы"
"127";"Городская клиническая больница им. В.П. Демихова, Патологоанатомическое отделение";"Москва";"Шкулёва, 4 ст31";"109263";="+74991796785, +74958703606, +74997426761";"";"http://demikhova.ru";"";"";"37.753675";"55.693591";"Медицина / Здоровье / Красота";"Больницы, Морги"
"128";"Инфекционная клиническая больница №1, Патологоанатомическое отделение";"Москва";"шоссе Волоколамское, 63 к8";"125310";="+74991900101, +74954901416";"";"http://ikb1.ru";"https://vk.com/club182643197";"";"37.457985";"55.815738";"Медицина / Здоровье / Красота";"Больницы, Услуги инфекциониста"
"129";"Детская городская клиническая больница святого Владимира, Приемное отделение №1";"Москва";"Рубцовско-Дворцовая, 1/3 к2а";"107014";="+74997480483";"";"http://гемангиомапро.рф";"https://vk.com/dgkbsv";"";"37.69448";"55.786938";"Медицина / Здоровье / Красота";"Больницы"
"130";"12 консультативно-диагностический центр Министерства обороны РФ, Лечебный корпус";"Москва";"улица Академика Скрябина, 3 к4";"109377";="+74953712710";"";"http://12kdc.moscow";"";"";"37.801744";"55.713556";"Медицина / Здоровье / Красота";"Больницы"
"131";"Городская клиническая больница №1 им. Н.И. Пирогова, Оториноларингологическое отделение";"Москва";"Ленинский проспект, 10 к8";"119049";="+74997645002, +74955369614";"";"http://gkb1.ru";"";"";"37.595659";"55.721529";"Медицина / Здоровье / Красота";"Больницы"
"132";"Городская клиническая больница им. В.В. Вересаева, Кардиологическое отделение №10";"Москва";"Лобненская улица, 10 к12";"127644";="+74994505581, +74954830274, +74954845786";"";"http://gkb81.ru";"https://vk.com/gkb81";"";"37.535174";"55.890604";"Медицина / Здоровье / Красота";"Больницы"
"133";"Городская клиническая больница им. С.П. Боткина, Отделение анестезиологии-реанимации №33";"Москва";"2-й Боткинский проезд, 5 к10";"125284";="+74994900303, 88006003141, +74956531694";"";"http://botkinmoscow.ru";"https://vk.com/botkinmoscow";"";"37.553286";"55.781076";"Медицина / Здоровье / Красота";"Больницы"
"134";"Люберецкая областная больница, Стационарное отделение №3";"дп. Красково";"Карла Маркса, 90";"140050";="+74955545154, +74955572100";"";"http://www.luberob.ru";"https://vk.com/lubobl";"";"37.995124";"55.658781";"Медицина / Здоровье / Красота";"Больницы"
"135";"Научно-клинический центр №3, Приемное отделение";"Троицк";"Октябрьский проспект, 3";"108840";="+74958512874, +79166413132";"";"http://hospital-ran-troitsk.ru";"https://vk.com/public187431307";"";"37.290805";"55.473392";"Медицина / Здоровье / Красота";"Больницы"
"136";"Городская клиническая больница им. С.П. Боткина, Отделение переливания крови";"Москва";"2-й Боткинский проезд, 5 к11";"125284";="+74994900303, 88006003141, +74959453206";"";"http://botkinmoscow.ru";"https://vk.com/botkinmoscow";"";"37.553684";"55.781438";"Медицина / Здоровье / Красота";"Больницы"
"137";"Городская клиническая больница им. С.П. Боткина, Хирургическое отделение №46";"Москва";"2-й Боткинский проезд, 5 к8";"125284";="+74994900303, 88006003141, +74997288130";"";"http://botkinmoscow.ru";"https://vk.com/botkinmoscow";"";"37.550549";"55.780448";"Медицина / Здоровье / Красота";"Больницы"
"138";"Морозовская детская городская клиническая больница, Клиническая-диагностическая лаборатория";"Москва";"4-й Добрынинский переулок, 1/9 ст10";"119049";="+74959598800, +74959598803";"";"http://мороздгкб.рф";"https://vk.com/morozdgkbdzm";"";"37.617686";"55.726882";"Медицина / Здоровье / Красота";"Больницы"
"139";"Московский научно-практический центр медицинской реабилитации, восстановительной и спортивной медицины, Консультативно-диагностическое отделение";"Москва";"Земляной Вал улица, 53 ст2";"105120";="+74955310081, +74956166069, +74959164390, +74959164562";"";"http://cmrvsm.ru";"";"";"37.656756";"55.752817";"Медицина / Здоровье / Красота";"Больницы"
"140";"Городская клиническая больница №13, Гинекологическое отделение";"Москва";"Велозаводская, 1/1 ст12";"115280";="+74994263687";"";"";"";"";"37.66658";"55.71903";"Медицина / Здоровье / Красота";"Больницы"
"141";"Московский городской спинальный нейрохирургический центр, ГКБ №67";"Москва";"Саляма Адиля, 7 ст6";"123154";="+74955303298";"";"http://spine67.ru";"https://vk.com/spine67";"";"37.465163";"55.773907";"Медицина / Здоровье / Красота";"Больницы, Услуги нейрохирурга"
"142";"Российская детская клиническая больница, Отделение клинической иммунологии";"Москва";"Ленинский проспект, 117 к3";"119571";="+74959369009, +74959369247, +74959369147";"";"http://www.rdkb.ru";"";"";"37.490558";"55.651102";"Медицина / Здоровье / Красота";"Больницы"
"143";"Городская клиническая больница №67 им. Л.А. Ворохобова, нейрохирургическое отделение №2";"Москва";"Саляма Адиля, 2/44 ст1";"123423";="+74955303221, +74955303064, +74955303129";"";"";"";"";"37.467372";"55.772018";"Медицина / Здоровье / Красота";"Больницы"
"144";"Одинцовская областная больница, Неврологическое отделение";"Одинцово";"Маршала Неделина, 11а";"143002";="+74955930873";"";"";"";"";"37.268887";"55.674535";"Медицина / Здоровье / Красота";"Больницы"
"145";"Чеховская областная больница, Терапевтическое отделение";"Чехов";"Гагарина, 37";"142304";="+74967267982, +74993481066,,,105, +74993481066,,,106, 88005505030, +74967237057, +74967237067";"";"http://chehovmed.ru";"";"";"37.429858";"55.163133";"Медицина / Здоровье / Красота";"Больницы"
"146";"Отделение сложного протезирования";"Москва";"улица Тимура Фрунзе, 16 ст2";"119021";="+74992552722";"";"http://cniis.ru";"";"";"37.590323";"55.734728";"Медицина / Здоровье / Красота";"Больницы, Челюстно-лицевая хирургия"
"147";"Национальный медицинский исследовательский центр травматологии и ортопедии им. Н.Н. Приорова, 8-е отделение ортопедии взрослых";"Москва";"улица Приорова, 10";"127299";="+74957444010, +74991536455";"";"http://www.cito-priorov.ru";"https://vk.com/citopriorov";"";"37.530735";"55.820103";"Образование / Работа / Карьера";"Научно-исследовательские институты, Больницы"
"148";"Городская больница г. Московский, Филиал №6";"дп. Кокошкино";"Дзержинского, 3";"108804";="+74996383703";"";"";"https://vk.com/gb_moskovsky";"";"37.166604";"55.603283";"Медицина / Здоровье / Красота";"Больницы"
"149";"Люберецкая областная больница, Стационарное отделение №1";"Люберцы";"Октябрьский проспект, 338 ст1";"140006";="+74955545154, +74955548285";"";"http://www.luberob.ru";"https://vk.com/lubobl";"";"37.904722";"55.664721";"Медицина / Здоровье / Красота";"Больницы"
"150";"Химкинская областная больница, Анестезиолого-реанимационное отделение";"Химки";"Куркинское шоссе, 11";"141407";="";"";"http://hckb.ru";"https://vk.com/khimkickb";"";"37.412454";"55.883309";"Медицина / Здоровье / Красота";"Больницы"
"151";"Долгопрудненская центральная городская больница";"Долгопрудный";"Павлова, 2 к3";"141704";="+74954086166, +74986863973";"";"http://dol-cgb.ru";"";"";"37.515293";"55.942707";"Медицина / Здоровье / Красота";"Больницы"
"152";"Балашихинская областная больница, Филиал №2";"Балашиха";"шоссе Энтузиастов, 41";"143907";="+74955210001, +74955211418, +74955216368, +74955213240";"";"http://balob.ru";"https://vk.com/id574073566";"";"37.967427";"55.798036";"Медицина / Здоровье / Красота";"Больницы"
"153";"Городская клиническая больница им. В.П. Демихова, Административный корпус";"Москва";"Шкулёва, 4 к13";"109263";="+74991796785, +74958703606, +74991788544";"";"http://demikhova.ru";"";"";"37.75013";"55.692604";"Медицина / Здоровье / Красота";"Больницы"
"154";"Федеральный медицинский биофизический центр им. А.И. Бурназяна ФМБА России, Неврологическое отделение для лечения больных с острыми нарушениями мозгового кровообращения";"Москва";"улица Маршала Новикова, 23";"123098";="+74991908555, +74991908579";"";"http://fmbafmbc.ru";"https://vk.com/club211016082";"";"37.456917";"55.805477";"Медицина / Здоровье / Красота";"Больницы"
"155";"Московский городской научно-практический центр борьбы с туберкулезом, Туберкулезное внелегочное урологическое отделение";"Москва";"улица Барболина, 3 к11";"107014";="+74992682500, +74992680005, +74992682770, +74992682760";"";"http://mnpcbt.ru";"";"";"37.68659";"55.788862";"Медицина / Здоровье / Красота";"Больницы"
"156";"Дневной стационар №4, Научно-практический центр детской психоневрологии";"Москва";"Красногвардейская 3-я, 4";"123317";="+74954308040";"";"http://npcdp.ru";"https://vk.com/npcdp";"";"37.54118";"55.758584";"Медицина / Здоровье / Красота";"Больницы"
"157";"Электростальская центральная городская больница, Дерматовенерологическое отделение";"Электросталь";"Советская, 5Б";"144000";="+74965746305";"";"http://muzecgb.ru";"";"";"38.432874";"55.791362";"Медицина / Здоровье / Красота";"Больницы"
"158";"НИИ урологии и интервенционной радиологии им. Н.А. Лопаткина, 2-е урологическое отделение";"Москва";"3-я Парковая улица, 42а";"105425";="+74991104067, +74991636355";"";"http://uroline.nmicr.ru";"";"";"37.783465";"55.804208";"Медицина / Здоровье / Красота";"Больницы"
"159";"ФНКЦ ФМБА РОССИИ, Оториноларингологическое отделение";"Москва";"Ореховый бульвар, 28";"115682";="+74997254440";"";"http://fnkc-fmba.ru";"https://vk.com/fnkcfmba";"";"37.763893";"55.616657";"Медицина / Здоровье / Красота";"Больницы"
"160";"Национальный медико-хирургический центр им. Н.И. Пирогова, Отделение нейрохирургии";"Москва";"Нижняя Первомайская, 70";"105203";="+74994640303";"";"http://www.pirogov-center.ru";"https://vk.com/pirogovcenter";"";"37.820822";"55.791278";"Медицина / Здоровье / Красота";"Больницы"
"161";"Сухаревская сельская районная больница";"д. Сухарево";"деревня Сухарево, 1а";"141052";="+74986986453, +74955873042";"";"";"";"";"37.514197";"56.071929";"Медицина / Здоровье / Красота";"Больницы"
"162";"Мытищинская городская клиническая больница, Неврологическое отделение №1";"Мытищи";"Коминтерна, 24 к5";"141009";="+74953081300, +74955864377,,,504, +74955864377,,,505, +74955864377,,,506";"";"http://мгкб.рф";"";"";"37.775743";"55.920231";"Медицина / Здоровье / Красота";"Больницы"
"163";"Химкинская областная больница, Педиатрическое отделение";"Химки";"Куркинское шоссе, 11 к2";"141407";="+74955757122, +74955757133";"";"http://hckb.ru";"https://vk.com/khimkickb";"";"37.410485";"55.882289";"Медицина / Здоровье / Красота";"Больницы"
"164";"GMS, Hospital";"Москва";"Каланчёвская, 45";"129090";="+74950859947";"info@gmsclinic.ru, info@gmshospital.ru";"http://gmsclinic.ru/contacts/hospital?utm_source=2gis&utm_medium=referral";"https://vk.com/gmsclinic";"";"37.646437";"55.778267";"Медицина / Здоровье / Красота";"Больницы, Диагностические центры, Многопрофильные медицинские центры, Лечение ЛОР-заболеваний, Ортопедия и травматология, Услуги гастроэнтеролога, Услуги гинеколога, Услуги детских врачей, Услуги невролога, Услуги онколога, Услуги терапевта"
"165";"Объединенная больница с поликлиникой, Центр здоровья";"Москва";"Мичуринский проспект, 6 ст12";"119330";="+74993333000";"";"http://fgu-obp.ru";"";"";"37.525919";"55.714754";"Медицина / Здоровье / Красота";"Больницы, Занятия по аквааэробике, Реабилитационные центры, Занятия лечебной физкультурой, Теннисные корты"
"166";"Электростальская центральная городская больница, Отделение по оказанию психиатрической помощи";"Электросталь";"Пионерская, 6";"144007";="+74965738795";"";"http://muzecgb.ru";"";"";"38.448133";"55.780396";"Медицина / Здоровье / Красота";"Больницы"
"167";"Клиника Сокол";"Москва";"Чапаевский переулок, 3";"125057";="+74951085058";"";"http://medsokol.ru";"";"";"37.520948";"55.799077";"Медицина / Здоровье / Красота";"Многопрофильные медицинские центры, Диагностические центры, Медицинские анализы, Патронажные услуги, Услуги дерматовенеролога, Услуги онколога, Больницы, Лечение ЛОР-заболеваний, Услуги косметолога, Услуги массажиста, Услуги процедурного кабинета"
"168";"Городская клиническая больница №1 им. Н.И. Пирогова, Акушерско-обсервационное отделение";"Москва";"Ленинский проспект, 8 к5";"119049";="+74997645002";"";"http://gkb1.ru";"";"";"37.603549";"55.724759";"Медицина / Здоровье / Красота";"Больницы"
"169";"Инфекционная больница для больных Covid19";"Солнечногорск";"Военный городок, 13";"141506";="+79256225879, +79256225703, +79256226089, +79256225293";"";"";"";"";"36.998393";"56.185672";"Медицина / Здоровье / Красота";"Больницы"
"170";"Городская клиническая больница №1 им. Н.И. Пирогова, Неврологическое отделение";"Москва";"Ленинский проспект, 8 к8";"119049";="+74997645002, +74955316945";"";"http://gkb1.ru";"";"";"37.602376";"55.725402";"Медицина / Здоровье / Красота";"Больницы"
"171";"Одинцовская районная больница №2, Терапевтическое отделение";"с. Перхушково";"село Перхушково, 4а";"143081";="+74957814080, +74955944483";"";"";"";"";"37.155636";"55.654531";"Медицина / Здоровье / Красота";"Больницы"
"172";"РЖД-медицина, Центр ядерной медицины и позитронно-эмиссионной томографии";"Москва";"Будайская улица, 2 ст15";"129128";="88007000701, 88002343434, +74957270003";"";"http://ckb-rzd.ru";"https://vk.com/rzd_medicine";"";"37.668495";"55.834129";"Медицина / Здоровье / Красота";"Услуги онколога, Больницы"
"173";"Городская клиническая больница №67 им. Л.А. Ворохобова, Приемное отделение";"Москва";"Саляма Адиля, 2/44 ст8";"123423";="+74955303230, +74955303232";"";"";"";"";"37.466614";"55.770046";"Медицина / Здоровье / Красота";"Больницы"
"174";"Московский городской научно-практический центр борьбы с туберкулезом";"Москва";"улица Барболина, 3 к10";"107014";="+74992682500, +74992680005, +74992682520, +74992682661";"";"http://mnpcbt.ru";"";"";"37.688171";"55.789594";"Медицина / Здоровье / Красота";"Больницы"
"175";"Детская городская клиническая больница №9 им. Г.Н. Сперанского, Отделение детской урологии-андрологии №1";"Москва";"Шмитовский проезд, 29 к3";"123317";="+74992590188";"";"http://dgkb-9.ru";"";"";"37.542194";"55.755434";"Медицина / Здоровье / Красота";"Больницы"
"176";"Городская клиническая больница №29 им. Н.Э. Баумана, Гинекологическое отделение";"Москва";"Госпитальная площадь, 2 к15";"111250";="+74950110239, +74956321580";"";"http://www.klinika29.ru";"https://vk.com/club119917431";"";"37.702445";"55.767822";"Медицина / Здоровье / Красота";"Больницы"
"177";"Солнечногорская областная больница, Хирургическое отделение №1";"Солнечногорск";"микрорайон Рекинцо, ст1";"141506";="+74962665993, +74959941385";"";"http://solnob.ru";"";"";"37.006251";"56.181192";"Медицина / Здоровье / Красота";"Больницы"
"178";"Городская клиническая больница №67 им. Л.А. Ворохобова, Неврологическое отделение №1";"Москва";"Саляма Адиля, 2 ст28";"123423";="+74955303189, +74955303091, +74955303286";"";"";"";"";"37.465072";"55.771797";"Медицина / Здоровье / Красота";"Больницы"
"179";"Орехово-Зуевская центральная городская больница №2";"Орехово-Зуево";"Горячевой проезд, 3";"142608";="+74964126668, +74964237428, +74964237429";"";"";"";"";"38.945022";"55.815238";"Медицина / Здоровье / Красота";"Больницы"
"180";"Городская клиническая больница им. Д.Д. Плетнёва, Эндокринологическое отделение";"Москва";"11-я Парковая улица, 32 к4";"105077";="+74957005757, +74997800821";"";"http://gkb57.ru";"https://vk.com/gkb57";"";"37.806703";"55.798855";"Медицина / Здоровье / Красота";"Больницы"
"181";"Родильный дом, Женская консультация";"Орехово-Зуево";"улица Козлова, 30";"142608";="+74964290469";"";"";"";"";"38.953565";"55.812339";"Медицина / Здоровье / Красота";"Женские консультации, Больницы"
"182";"Городская клиническая больница №13, Неврологическое отделение №1";"Москва";"Велозаводская, 1/1 ст15";"115280";="+74994263687";"";"";"";"";"37.665479";"55.720442";"Медицина / Здоровье / Красота";"Больницы"
"183";"Инфекционная клиническая больница №1, 10-е инфекционное отделение";"Москва";"шоссе Волоколамское, 63 к4";"125310";="+74991900101, +74954901458,,,1200";"";"http://ikb1.ru";"https://vk.com/club182643197";"";"37.454055";"55.816575";"Медицина / Здоровье / Красота";"Больницы, Услуги инфекциониста"
"184";"НИИ СП им. Н.В. Склифосовского ДЗМ, Отделение анестезиологии и реанимации для трансплантации органов";"Москва";"Большая Сухаревская площадь, 3 ст5";"129090";="+74956806722";"";"http://sklif.mos.ru";"https://vk.com/sklif.official";"";"37.636411";"55.773694";"Медицина / Здоровье / Красота";"Больницы"
"185";"НИИ СП им. Н.В. Склифосовского ДЗМ, Временный медицинский центр для больных Covid-19";"Москва";"Большая Сухаревская площадь, 3 ст1а";"129090";="+74956806722";"";"http://sklif.mos.ru";"https://vk.com/sklif.official";"";"37.635296";"55.773626";"Медицина / Здоровье / Красота";"Больницы"
"186";"Городская клиническая больница №1 им. Н.И. Пирогова";"Москва";"Ленинский проспект, 8 к9";"119049";="+74997645002, +74992366069";"";"http://gkb1.ru";"";"";"37.603098";"55.724123";"Медицина / Здоровье / Красота";"Больницы"
"187";"Городская клиническая больница №1 им. Н.И. Пирогова, Приемное отделение кардионеврологического корпуса";"Москва";"Ленинский проспект, 8 к8";"119049";="+74997645002";"";"http://gkb1.ru";"";"";"37.602379";"55.725587";"Медицина / Здоровье / Красота";"Больницы"
"188";"Детская городская клиническая больница им. Н.Ф. Филатова, Отделение урологии";"Москва";"Садовая-Кудринская улица, 15 к3а";"123001";="+74992541010, +79688941947, +74992543101";"";"http://урография.рф";"";"";"37.586387";"55.765012";"Медицина / Здоровье / Красота";"Больницы"
"189";"Городская клиническая больница №24, Терапевтическое отделение";"Москва";"Писцовая, 10";"127015";="+74956857693";"";"";"";"";"37.579015";"55.798215";"Медицина / Здоровье / Красота";"Больницы"
"190";"Детская городская клиническая больница №9 им. Г.Н. Сперанского, Приемное хирургическое отделение №1";"Москва";"Шмитовский проезд, 29 к5";"123317";="+74992597393";"";"http://dgkb-9.ru";"https://vk.com/speranskogo9";"";"37.539341";"55.755321";"Медицина / Здоровье / Красота";"Больницы"
"191";"Национальный медицинский исследовательский центр травматологии и ортопедии им. Н.Н. Приорова, Патологоанатомическое отделение";"Москва";"улица Приорова, 10 ст2";"127299";="+74957444010, +74954504201";"";"http://www.cito-priorov.ru";"https://vk.com/citopriorov";"";"37.530368";"55.821324";"Образование / Работа / Карьера";"Научно-исследовательские институты, Больницы"
"192";"Городская клиническая больница №67 им. Л.А. Ворохобова";"Москва";"Саляма Адиля, 2/44 ст2";"123423";="";"";"";"";"";"37.468303";"55.7708";"Медицина / Здоровье / Красота";"Больницы"
"193";"Инфекционная клиническая больница №1, Инфекционное отделение №1";"Москва";"шоссе Волоколамское, 63 к1";"125310";="+74991900101, +74954901458,,,1219";"";"http://ikb1.ru";"https://vk.com/club182643197";"";"37.454019";"55.815664";"Медицина / Здоровье / Красота";"Больницы, Услуги инфекциониста"
"194";"Больница им. Е.О. Мухина, Хирургическое отделение";"Москва";"Федеративный проспект, 17 к8";"111399";="+74953039754, +74953038235";"";"http://gkb-muhina.ru";"https://vk.com/gkb.mukhina";"";"37.810041";"55.75641";"Медицина / Здоровье / Красота";"Больницы"
"195";"Городская клиническая больница им. М.Е. Жадкевича, Отделение анестезиологии-реанимации";"Москва";"Можайское шоссе, 14 ст1";"121374";="+74954405810";"";"http://gb71.ru";"";"";"37.433705";"55.721385";"Медицина / Здоровье / Красота";"Больницы"
"196";"Московский научно-практический центр медицинской реабилитации, восстановительной и спортивной медицины, Филиал №3";"Москва";"Вольская 2-я, 19 ст2";"111674";="+74957066942, +74957066948";"";"http://www.cmrvsm.ru";"https://vk.com/cmrvsm";"";"37.936089";"55.694965";"Медицина / Здоровье / Красота";"Больницы"
"197";"Жуковская городская клиническая больница, Инфекционное отделение";"Жуковский";"улица Фрунзе, 1а";"140181";="+74955569868, 88005505030, +74984846830, +74955566790";"";"http://zhgkb.ru";"https://vk.com/public120959885";"";"38.128653";"55.598901";"Медицина / Здоровье / Красота";"Больницы"
"198";"Российская детская клиническая больница";"Москва";"Ленинский проспект, 117 к2";"119571";="+74959369009";"";"http://www.rdkb.ru";"";"";"37.492966";"55.651111";"Медицина / Здоровье / Красота";"Больницы"
"199";"Московский научно-практический центр медицинской реабилитации, восстановительной и спортивной медицины, 2-е хирургическое отделение";"Москва";"Земляной Вал улица, 53 ст8";"105120";="+74955310081, +74959164562";"";"http://cmrvsm.ru";"";"";"37.657867";"55.752441";"Медицина / Здоровье / Красота";"Больницы"
"200";"Лунный камень, медицинский центр";"рп. Томилино";"Потехина, 12";"140070";="+74995500053";"";"http://lunemed.ru";"";"";"37.957781";"55.662137";"Медицина / Здоровье / Красота";"Больницы, Услуги гинеколога, Услуги массажиста, Услуги психолога, Диагностические центры"
"201";"Петрово-Дальневская больница";"с. Петрово-Дальнее";"Ленинский посёлок, вл2";"143422";="+74953561960, +74953562217";"";"http://www.mlpu-pdub.ru";"";"";"37.189942";"55.746016";"Медицина / Здоровье / Красота";"Больницы"
"202";"Морозовская детская городская клиническая больница, Неврологическое отделение";"Москва";"4-й Добрынинский переулок, 1/9 ст16";"119049";="+74959598800, +74959598803, +74992377692";"";"http://мороздгкб.рф";"https://vk.com/morozdgkbdzm";"";"37.618746";"55.72586";"Медицина / Здоровье / Красота";"Больницы"
"203";"Сеченовская университетская клиника хирургии";"Москва";"Коломенский проезд, 4";"115446";="+79175511785";"";"";"";"";"37.640241";"55.663179";"Медицина / Здоровье / Красота";"Больницы"
"204";"НИИ СП им. Н.В. Склифосовского ДЗМ, Лабораторный корпус";"Москва";"Большая Сухаревская площадь, 3 ст10";"129090";="+74956806722";"";"http://sklif.mos.ru";"https://vk.com/sklif.official";"";"37.634486";"55.775112";"Медицина / Здоровье / Красота";"Больницы"
"205";"НИИ СП им. Н.В. Склифосовского ДЗМ, Центр радиохирургии";"Москва";"Большая Сухаревская площадь, 3 ст18";"129090";="+74956806722, +79260361190, +74956083450";"";"http://rssklif.ru";"https://vk.com/sklif.official";"";"37.633986";"55.774865";"Медицина / Здоровье / Красота";"Больницы"
"206";"Морозовская детская городская клиническая больница, Отделение переливание крови";"Москва";"4-й Добрынинский переулок, 1/9 ст9";"119049";="+74959598800, +74959598803, +74959598837";"";"http://мороздгкб.рф";"https://vk.com/morozdgkbdzm";"";"37.616167";"55.725622";"Медицина / Здоровье / Красота";"Больницы"
"207";"Морозовская детская городская клиническая больница, Педиатрическое отделение сочетанной патологии";"Москва";"4-й Добрынинский переулок, 1/9 ст12";"119049";="+74959598800, +74959598803";"";"http://мороздгкб.рф";"https://vk.com/morozdgkbdzm";"";"37.61775";"55.725695";"Медицина / Здоровье / Красота";"Больницы"
"208";"Детская городская клиническая больница им. Н.Ф. Филатова, Отделение экстракорпоральной детоксикации крови и гемодиализа";"Москва";"Садовая-Кудринская улица, 15 ст6";"123001";="+74992541010, +79688941947";"";"http://filatovmos.ru";"";"";"37.584532";"55.764883";"Медицина / Здоровье / Красота";"Больницы"
"209";"Городская клиническая больница №24, Отделение аллергологии и иммунологии";"Москва";"Писцовая, 10";"127015";="+74956850732";"";"";"";"";"37.579015";"55.798215";"Медицина / Здоровье / Красота";"Больницы"
"210";"Городская клиническая больница им. В.В. Виноградова, Неврологическое отделение";"Москва";"улица Вавилова, 61 к8";"117292";="+74951034666";"info@gkb64.ru";"http://gkb64.ru";"https://vk.com/gkb64";"";"37.559052";"55.688218";"Медицина / Здоровье / Красота";"Больницы"
"211";"Инфекционная клиническая больница №1";"Москва";"шоссе Волоколамское, 47 ст2";"125367";="+74991900101";"";"http://ikb1.ru";"https://vk.com/club182643197";"";"37.464857";"55.814563";"Медицина / Здоровье / Красота";"Больницы, Услуги инфекциониста"
"212";"Люберецкая областная больница, Сосудистый центр";"Люберцы";"Октябрьский проспект, 338 ст2";"140006";="+74955545154, +74955547070, +74955549468";"";"http://www.luberob.ru";"https://vk.com/lubobl";"";"37.905584";"55.664872";"Медицина / Здоровье / Красота";"Больницы"
"213";"Королёвская городская больница №1, Педиатрический стационар";"Королёв";"Циолковского, 22";"141070";="+74955116363, +74955125171";"";"http://korolev.clinic";"https://vk.com/korolevgb";"";"37.825177";"55.919799";"Медицина / Здоровье / Красота";"Больницы"
"214";"НИИ неотложной детской хирургии и травматологии, Отделение клинической патофизиологии";"Москва";"улица Большая Полянка, 20 ст2";"119180";="+74959593840, +74959592896, +74956335845";"";"http://www.doctor-roshal.ru";"";"";"37.616631";"55.738759";"Медицина / Здоровье / Красота";"Больницы"
"215";"Подольская областная клиническая больница, Хирургическое отделение №2";"Подольск";"Кирова, 38 к2";"142110";="+74967544861, +74967545898, +74967699454, +74967545565";"";"";"https://vk.com/id431843290";"";"37.531838";"55.430301";"Медицина / Здоровье / Красота";"Больницы"
"216";"Красногорская городская больница №1, Патологоанатомическое отделение";"Красногорск";"улица Карбышева, 6";"143408";="+74955645730, +74955632456";"";"";"";"";"37.306858";"55.838402";"Медицина / Здоровье / Красота";"Больницы"
"217";"Городская клиническая больница №51, Приемное отделение";"Москва";"улица Алябьева, 7/33 к1";"121309";="+74991468264";"";"http://gkb51.ru";"https://vk.com/club188866607";"";"37.485463";"55.741869";"Медицина / Здоровье / Красота";"Больницы"
"218";"Городская клиническая больница им. В.П. Демихова, Отделение гнойной хирургии";"Москва";"Шкулёва, 4 ст1";"109263";="+74991796785, +74958703606, +74991781543";"";"http://demikhova.ru";"";"";"37.749746";"55.693318";"Медицина / Здоровье / Красота";"Больницы"
"219";"Центральная городская больница им. М.В. Гольца";"Фрязино";"Московская улица, 7";"141190";="+74962554021, +74962554660, +74962554529";"";"http://cgb-fryazino.org";"";"";"38.055582";"55.957009";"Медицина / Здоровье / Красота";"Больницы"
"220";"Федеральный медицинский биофизический центр им. А.И. Бурназяна ФМБА России, Патологоанатомическое отделение";"Москва";"Гамалеи, 17";"123098";="+74991908555, +74991909489, +74991909488";"";"http://fmbafmbc.ru";"https://vk.com/club211016082";"";"37.456123";"55.799212";"Медицина / Здоровье / Красота";"Больницы"
"221";"Коммунарка, Детское инфекционное отделение";"пос. Коммунарка";"улица Сосенский Стан, 8 ст3";"108814";="+74957440703";"";"http://gkb40dzm.ru";"https://vk.com/gkb40mos";"";"37.465716";"55.568266";"Медицина / Здоровье / Красота";"Больницы"
"222";"Российская детская клиническая больница, Хирургическое онкологическое отделение";"Москва";"Ленинский проспект, 117 к8";"119571";="+74959369009, +74959369317, +74959369117";"";"http://www.rdkb.ru";"";"";"37.494477";"55.649975";"Медицина / Здоровье / Красота";"Больницы"
"223";"Центр ЛОР-хирургии";"Москва";"Севастопольский проспект, 24 к1";"117209";="";"";"http://www.ordermd.ru";"https://vk.com/lor.order";"";"37.580444";"55.669524";"Медицина / Здоровье / Красота";"Больницы, Лечение ЛОР-заболеваний, Услуги детских врачей, Диагностические центры, Услуги хирурга, Медицинские анализы"
"224";"Инфекционная клиническая больница №2, 8-е инфекционное отделение";"Москва";"8-я улица Соколиной Горы, 15 к2";"105275";="+74958703609, +74953655601";"";"http://ikb2.ru";"https://vk.com/ikb2dzm";"";"37.73852";"55.771291";"Медицина / Здоровье / Красота";"Больницы"
"225";"Московская городская онкологическая больница №62, Хирургическое отделение общей онкологии №1";"пос. Истра";"посёлок Истра, ст27 к10";"143423";="+74955360100, +74955360151";"";"http://www.onco62.ru";"";"";"37.148799";"55.771865";"Медицина / Здоровье / Красота";"Больницы"
"226";"Красногорская городская больница №2";"рп. Нахабино";"Институтская улица, 9а";"143432";="+74955662592";"";"";"";"";"37.180184";"55.838529";"Медицина / Здоровье / Красота";"Больницы"
"227";"Одинцовская областная больница, Звенигородское подразделение";"Звенигород";"Пролетарская, 49";"143180";="+74955971120, +74986974294";"";"http://zdr2497.polikln.ru";"";"";"36.85659";"55.73667";"Медицина / Здоровье / Красота";"Больницы"
"228";"Городская клиническая больница им. С.И. Спасокукоцкого, Хирургическое отделение";"Москва";"Вучетича, 21 ст5";"127206";="+74951977777, +74958703612";"";"http://www.50gkb.ru";"https://vk.com/gkb_50";"";"37.555117";"55.812534";"Медицина / Здоровье / Красота";"Больницы"
"229";"Акушерское обсервационное отделение, Городская клиническая больница им. М.П. Кончаловского";"Зеленоград";"Каштановая аллея, 2 ст2";"124489";="+79153098336, +74997292841";"";"http://gb3zelao.ru";"https://vk.com/gkb_3zelao";"";"37.234298";"55.982866";"Медицина / Здоровье / Красота";"Больницы, Женские консультации, Фельдшерско-акушерские пункты"
"230";"Детская городская клиническая больница им. Н.Ф. Филатова, Пункт неотложной травматологической помощи";"Москва";"Садовая-Кудринская улица, 15 к2";"123001";="+74992541010, +79688941947, +74992541192";"";"http://filatovmos.ru";"";"";"37.586145";"55.764664";"Медицина / Здоровье / Красота";"Больницы"
"231";"Детская городская клиническая больница им. Н.Ф. Филатова";"Москва";"Садовая-Кудринская улица, 15 ст4";"123001";="+74992541010, +79688941947";"";"http://filatovmos.ru";"";"";"37.585011";"55.7648";"Медицина / Здоровье / Красота";"Больницы"
"232";"Московский городской научно-практический центр борьбы с туберкулезом, Родильное отделение";"Москва";"улица Барболина, 3 к13";"107014";="+74992682500, +74992680005";"";"http://mnpcbt.ru";"";"";"37.68777";"55.789183";"Медицина / Здоровье / Красота";"Больницы"
"233";"Психоневрологическое отделение №11, Научно-практический центр детской психоневрологии";"Москва";"Энергетическая улица, 8 к2 ст1";"111116";="+74953625560, +74954300229, +74954308040";"";"http://npcdp.ru";"https://vk.com/npcdp";"";"37.706109";"55.758513";"Медицина / Здоровье / Красота";"Больницы"
"234";"Инфекционная клиническая больница №2, Патологоанатомическое отделение";"Москва";"8-я улица Соколиной Горы, 15 к16";"105275";="+74958703609, +74953650810, +74953652307";"";"http://ikb2.ru";"https://vk.com/ikb2dzm";"";"37.73945";"55.772737";"Медицина / Здоровье / Красота";"Больницы"
"235";"Детская инфекционная клиническая больница №6, Инфекционное отделение №6 для детей раннего возраста";"Москва";"3-й Лихачёвский переулок, 2Б";"125438";="+74991541172";"";"http://dikb6.ru";"https://vk.com/dikb6";"";"37.517936";"55.847487";"Медицина / Здоровье / Красота";"Больницы"
"236";"Городская клиническая больница им. В.П. Демихова, 1-е отделение реанимации и интенсивной терапии";"Москва";"Шкулёва, 4 к10";"109263";="+74991796785, +74958703606, +74991797067, +74991799409";"";"http://demikhova.ru";"";"";"37.753065";"55.692085";"Медицина / Здоровье / Красота";"Больницы"
"237";"Научно-исследовательский клинический институт педиатрии им. академика Ю.Е. Вельтищева, Отделение детской хирургии";"Москва";"Талдомская улица, 2 ст2";"125412";="+74954837250, +74954835775";"";"http://pedklin.ru";"https://vk.com/pedklin";"";"37.519521";"55.871351";"Образование / Работа / Карьера";"Научно-исследовательские институты, Больницы"
"238";"Юбилейная городская поликлиника, Стационар";"Королёв";"Лесная, 10/8 к2";"141092";="+74955153122, +74955151577";"";"http://korolev.clinic";"";"";"37.841047";"55.93445";"Медицина / Здоровье / Красота";"Больницы"
"239";"Городская клиническая больница №31, Отделение оперативной эндоскопии";"Москва";"улица Лобачевского, 42 к3";"119415";="+74994329653";"";"http://www.gkb-31.ru";"https://vk.com/gkb31msk";"";"37.501194";"55.669821";"Медицина / Здоровье / Красота";"Больницы"
"240";"Подольская детская городская больница, Приемное отделение";"Подольск";"Кирова, 38 к4";"142110";="+74967544887, +74967544705, +74967545926";"";"http://zdr2545.polikln.ru";"https://vk.com/club128649373";"";"37.53519";"55.428366";"Медицина / Здоровье / Красота";"Больницы"
"241";"Центральная клиническая больница гражданской авиации, Врачебно-летная экспертная комиссия";"Москва";"Иваньковское шоссе, 7";"125367";="+74954900490, +74954900335";"";"http://ckbga.ru";"";"";"37.458777";"55.822812";"Медицина / Здоровье / Красота";"Больницы"
"242";"Неврологическое отделение для новорожденных и грудных детей №3, Научно-практический центр детской психоневрологии";"Москва";"Мичуринский проспект, 74";"119602";="+74954308093, +74954308040";"";"http://npcdp.ru";"https://vk.com/npcdp";"";"37.464503";"55.67941";"Медицина / Здоровье / Красота";"Больницы"
"243";"РЖД-медицина, Терапевтическое отделение";"Москва";"Ставропольская улица, 23 к1 ст20";"109386";="88007000701";"";"http://semashko.com";"https://vk.com/dkb.semashko";"";"37.761373";"55.684226";"Медицина / Здоровье / Красота";"Больницы"
"244";"Солнечногорская областная больница";"Солнечногорск";"микрорайон Рекинцо, ст1";"141506";="+74962665993, +74959941430";"";"http://solnob.ru";"";"";"37.006251";"56.181192";"Медицина / Здоровье / Красота";"Больницы"
"245";"Городская клиническая больница №1 им. Н.И. Пирогова, Отдел медицинской статистики";"Москва";"Ленинский проспект, 8 к15";"119049";="+74992374061";"";"";"";"";"37.598604";"55.723075";"Медицина / Здоровье / Красота";"Больницы"
"246";"Клиническая больница №1, Центр восстановительной медицины";"Москва";"Староволынская, 10 ст2";"121352";="";"";"http://volynka.ru";"";"";"37.480605";"55.718595";"Медицина / Здоровье / Красота";"Больницы"
"247";"Перинатальный центр, Городская клиническая больница №24";"Москва";"4-й Вятский переулок, 41";"127287";="+74956134509, +74956564716";"";"http://www.gkb-24.ru/perinatal-centr/";"";"";"37.568457";"55.799493";"Медицина / Здоровье / Красота";"Больницы"
"248";"Ногинская центральная районная больница, Стационар";"Старая Купавна";"Матросова, 15";"142450";="+74965112030, +74965125880, +74965125938";"";"http://zdravnoginsk.ru";"https://vk.com/crbnoginsk";"";"38.190752";"55.811205";"Медицина / Здоровье / Красота";"Больницы"
"249";"Ногинская центральная районная больница, Стационар №2";"Ногинск";"Текстилей, 14";"142406";="+74965112030, +74965151324";"";"http://zdravnoginsk.ru";"https://vk.com/crbnoginsk";"";"38.44712";"55.884895";"Медицина / Здоровье / Красота";"Больницы"
"250";"Городская клиническая больница №67 им. Л.А. Ворохобова";"Москва";"Саляма Адиля, 2/44 ст8";"123423";="";"";"";"";"";"37.467546";"55.770071";"Медицина / Здоровье / Красота";"Больницы"
"251";"Морозовская детская городская клиническая больница, Отделение гастроэнтерологии";"Москва";"4-й Добрынинский переулок, 1/9 ст17";"119049";="+74959598800, +74959598803, +74959598740";"";"http://мороздгкб.рф";"https://vk.com/morozdgkbdzm";"";"37.618594";"55.725447";"Медицина / Здоровье / Красота";"Больницы"
"252";"Детская городская клиническая больница им. Н.Ф. Филатова, Хирургический стационар кратковременного пребывания";"Москва";"Садовая-Кудринская улица, 15 к2";"123001";="+74992541010, +79688941947, +79776925270";"";"http://filatovmos.ru";"";"";"37.586145";"55.764664";"Медицина / Здоровье / Красота";"Больницы"
"253";"Городская клиническая больница №1 им. Н.И. Пирогова, Офтальмологическое отделение";"Москва";"Ленинский проспект, 10 к8";"119049";="+74997645002, +74995004393, +79636408076";"";"http://katarakta.ru";"";"";"37.596093";"55.721816";"Медицина / Здоровье / Красота";"Больницы"
"254";"Дзержинская городская больница, Детское отделение";"Дзержинский";"Ленина, 30 к3";"140090";="+74955515072";"";"";"";"";"37.852052";"55.627904";"Медицина / Здоровье / Красота";"Больницы"
"255";"Городская клиническая больница им. С.С. Юдина, Травматолого-ортопедическое отделение №1";"Москва";"Коломенский проезд, 4";"115446";="+74996124566";"";"http://gkbyudina.ru";"https://vk.com/gkbyudina";"";"37.640241";"55.663179";"Медицина / Здоровье / Красота";"Больницы"
"256";"Федеральный клинический центр высоких медицинских технологий Федерального медико-биологического агентства";"Москва";"Абельмановская, 4 ст7";"109147";="+74955756063, +74955756195, +74956761611";"";"http://www.kb119.ru";"";"";"37.670136";"55.736466";"Медицина / Здоровье / Красота";"Больницы"
"257";"Детская городская клиническая больница святого Владимира, Детское уроандрологическое отделение";"Москва";"Рубцовско-Дворцовая, 1/3 к5";"107014";="+74997480483";"";"http://гемангиомапро.рф";"https://vk.com/dgkbsv";"";"37.697862";"55.787912";"Медицина / Здоровье / Красота";"Больницы"
"258";"Глазная клиника доктора Крячко";"Москва";"Новолесная, 4";"127055";="+74997058700, +74996480509, +79260232005";"";"http://visus.ru";"https://vk.com/drkryachko";"";"37.59171";"55.782175";"Медицина / Здоровье / Красота";"Микрохирургия глаза, Услуги офтальмолога, Оптика, Услуги детских врачей, Больницы"
"259";"Городская клиническая больница №52, Отделение гематологии и высокодозной химиотерапии";"Москва";"Пехотная, 3 к4";"123182";="+74958703607, +74991961789";"";"http://www.52gkb.ru";"https://vk.com/public152474290";"";"37.483563";"55.80281";"Медицина / Здоровье / Красота";"Больницы"
"260";"Городская клиническая больница им. С.П. Боткина";"Москва";"2-й Боткинский проезд, 5 ст15";"125284";="+74994900303, 88006003141";"";"http://botkinmoscow.ru";"https://vk.com/botkinmoscow";"";"37.552496";"55.778873";"Медицина / Здоровье / Красота";"Больницы"
"261";"Инфекционная клиническая больница №1, Консультативно-поликлиническое отделение";"Москва";"шоссе Волоколамское, 63 к1";"125310";="+74991900101";"";"http://ikb1.ru";"https://vk.com/club182643197";"";"37.454019";"55.815664";"Медицина / Здоровье / Красота";"Больницы, Услуги инфекциониста"
"262";"Городская клиническая больница им. С.П. Боткина, Инженерный корпус";"Москва";"2-й Боткинский проезд, 5 к29";"125284";="+74994900303, 88006003141";"";"http://botkinmoscow.ru";"https://vk.com/botkinmoscow";"";"37.551277";"55.778962";"Медицина / Здоровье / Красота";"Больницы"
"263";"Химкинская областная больница";"Химки";"Ленинский проспект, 14";"141401";="+74955758797, +74955712025";"";"http://hckb.ru";"https://vk.com/khimkickb";"";"37.462446";"55.901048";"Медицина / Здоровье / Красота";"Больницы"
"264";"Кузнечики, больница";"пос. фабрики имени 1-го Мая";"посёлок Фабрики им. 1 Мая, 31";"108824";="+74952121480";"";"http://gbkuznechiki.ru";"";"";"37.509455";"55.486085";"Медицина / Здоровье / Красота";"Больницы"
"265";"Балашихинская областная больница, Инфекционное отделение";"Балашиха";"Носовихинское шоссе, 12 к2";"143983";="+74955222187";"";"http://balob.ru";"https://vk.com/id574073566";"";"37.98005";"55.748234";"Медицина / Здоровье / Красота";"Больницы"
"266";"Одинцовская областная больница, Звенигородское подразделение";"Звенигород";"Лермонтова, 6";"143185";="+74955971120";"";"";"";"";"36.848017";"55.73608";"Медицина / Здоровье / Красота";"Больницы"
"267";"Павлово-Посадская центральная районная больница, Приемное отделение";"Павловский Посад";"Карла Маркса, 6";"142500";="+74964323162";"";"http://ppcrb.vmsk.ru";"";"";"38.655559";"55.78492";"Медицина / Здоровье / Красота";"Больницы"
"268";"НМИЦ Кардиологии им. академика Е.И. Чазова, Консультативно-диагностическое отделение";"Москва";"Черепковская 3-я улица, 15а ст5";"121552";="88007074419";"";"http://cardioweb.ru";"https://vk.com/cardiowebru";"";"37.375953";"55.75668";"Медицина / Здоровье / Красота";"Больницы"
"269";"Щёлковская городская больница, Администрация";"Щёлково";"Парковая, 3";"141100";="+79672850933";"";"http://schrb.ru/";"";"";"37.990208";"55.920147";"Медицина / Здоровье / Красота";"Больницы"
"270";"Патолого-анатомическое отделение";"Коломна";"улица Октябрьской революции, 318 к6";"140407";="+74953215742, +74966120775";"";"http://www.bsme-mos.ru";"";"";"38.774839";"55.089844";"Медицина / Здоровье / Красота";"Больницы"
"271";"Раменская центральная областная больница, Неврологическое отделение";"Раменское";"улица Махова, 14 к1";"140105";="";"";"http://ramcrb.ru";"https://vk.com/ramenob";"";"38.214605";"55.574465";"Медицина / Здоровье / Красота";"Больницы"
"272";"Морозовская детская городская клиническая больница, Педиатрическое диагностическое отделение";"Москва";"4-й Добрынинский переулок, 1/9 ст17";"119049";="+74959598800, +74959598803, +74992364680";"";"http://мороздгкб.рф";"https://vk.com/morozdgkbdzm";"";"37.618594";"55.725447";"Медицина / Здоровье / Красота";"Больницы"
"273";"НИИ СП им. Н.В. Склифосовского ДЗМ, Нейрохирургическое отделение";"Москва";"Большая Сухаревская площадь, 3 ст21";"129090";="+74956806722";"";"http://sklif.mos.ru";"https://vk.com/sklif.official";"";"37.63568";"55.775897";"Медицина / Здоровье / Красота";"Больницы"
"274";"Городская клиническая больница им. И.В. Давыдовского, Патологоанатомическое отделение";"Москва";"Яузская улица, 11/6 ст9";"109240";="+74959153590, +74993900323";"";"http://www.gkb-23.ru";"";"";"37.649327";"55.746383";"Медицина / Здоровье / Красота";"Больницы"
"275";"Первый Московский государственный медицинский университет им. И.М. Сеченова, Университетская детская клиническая больница";"Москва";"улица Большая Пироговская, 19 ст3";"119435";="+74956091400";"";"http://sechenov.ru";"https://vk.com/sechenov_ru";"";"37.572269";"55.731102";"Медицина / Здоровье / Красота";"Больницы"
"276";"Университетская клиническая больница №3, Клиника ревматологии, нефрологии и профпатологии им. Е.М. Тареева";"Москва";"улица Россолимо, 11 ст5";"119021";="+74992485900, +74992485997";"";"http://tareevclinic.ru";"https://vk.com/tareevclinic";"";"37.581327";"55.733969";"Медицина / Здоровье / Красота";"Больницы"
"277";"Городская клиническая больница им. И.В. Давыдовского, Отдел кадров";"Москва";"Яузская улица, 11/6 ст19";"109240";="+74959153590, +74993900323";"";"http://www.gkb-23.ru";"";"";"37.647897";"55.747345";"Медицина / Здоровье / Красота";"Больницы"
"278";"Патологоанатомическое отделение, ГКБ им. Д.Д. Плетнёва";"Москва";"3-я Парковая улица, 51 ст2";"105425";="+74991646620, +74956523658, +74957005757";"";"http://gkb57.ru";"";"";"37.780026";"55.802097";"Медицина / Здоровье / Красота";"Больницы"
"279";"Детская городская клиническая больница святого Владимира, Травматолого-ортопедическое отделение №2";"Москва";"Рубцовско-Дворцовая, 1/3 к2а";"107014";="+74997480483";"";"http://гемангиомапро.рф";"https://vk.com/dgkbsv";"";"37.69448";"55.786938";"Медицина / Здоровье / Красота";"Больницы"
"280";"Городская клиническая больница им. В.В. Виноградова, Травматологическое отделение";"Москва";"улица Вавилова, 61 к11";"117292";="+74951034666";"info@gkb64.ru";"http://gkb64.ru";"https://vk.com/gkb64";"";"37.555713";"55.686223";"Медицина / Здоровье / Красота";"Больницы"
"281";"Городская клиническая больница им. В.П. Демихова, Хирургическое отделение";"Москва";"Шкулёва, 4 к10";"109263";="+74991796785, +74958703606, +74991784685";"";"http://demikhova.ru";"";"";"37.753065";"55.692085";"Медицина / Здоровье / Красота";"Больницы"
"282";"Городская клиническая больница №52, Отделение оториноларингологии и микрохирургии уха";"Москва";"Пехотная, 3 к4";"123182";="+74958703607, +74991962675";"";"http://www.52gkb.ru";"https://vk.com/public152474290";"";"37.483563";"55.80281";"Медицина / Здоровье / Красота";"Больницы"
"283";"Центральная клиническая больница гражданской авиации, Приемное отделение";"Москва";"Иваньковское шоссе, 7";"125367";="+74954900490, +74954900437";"";"http://ckbga.ru";"";"";"37.459484";"55.823214";"Медицина / Здоровье / Красота";"Больницы"
"284";"Городская клиническая больница №13, Центр восстановительного лечения детей до 3-х лет жизни";"Москва";"Велозаводская, 1/1 ст5";"115280";="+74994263687, +74999404738,,,1156";"";"";"";"";"37.664687";"55.718727";"Медицина / Здоровье / Красота";"Больницы"
"285";"Научно-практический психоневрологический центр им. З.П. Соловьева, Лечебно-диагностический корпус";"Москва";"Донская улица, 43 ст13";"115419";="+74992374153, +74992365996";"";"http://npcpn.ru";"https://vk.com/npcpn";"";"37.606545";"55.716571";"Медицина / Здоровье / Красота";"Больницы"
"286";"Центральная клиническая больница с поликлиникой, Приемное отделение";"Москва";"Маршала Тимошенко, 15 ст4";"121359";="+74955300300, +74955300111, +74955300826";"";"http://www.cchp.ru";"https://vk.com/kremlinmedicine";"";"37.38089";"55.749082";"Медицина / Здоровье / Красота";"Больницы"
"287";"Диагностический кабинет, Городская клиническая больница им. С.П. Боткина";"Москва";"Мамоновский переулок, 7 ст2";"123001";="+74994900303, 88006003141";"";"http://www.botkinmoscow.ru";"https://vk.com/botkinmoscow";"";"37.598525";"55.767072";"Медицина / Здоровье / Красота";"Больницы"
"288";"Консультативно-диагностический центр, Чеховская областная больница";"Чехов";"Пионерская, 4";"142301";="+74967279948";"";"http://chehovmed.ru";"";"";"37.478255";"55.148358";"Медицина / Здоровье / Красота";"Детские поликлиники, Больницы"
"289";"Подольская областная клиническая больница, Неврологическое отделение";"Подольск";"Кирова, 38 к18";"142110";="+74967544861, +74967545582";"";"http://podolskaya-okb.ru";"https://vk.com/id431843290";"";"37.536944";"55.429385";"Медицина / Здоровье / Красота";"Больницы"
"290";"Городская клиническая больница №67 им. Л.А. Ворохобова, Родовое отделение";"Москва";"Саляма Адиля, 2/44 ст4";"123423";="";"";"";"";"";"37.468664";"55.769346";"Медицина / Здоровье / Красота";"Больницы"
"291";"Детская городская больница";"Ногинск";"Санаторная, 1";"142402";="+74965164956, +74965164959";"";"http://zdravnoginsk.ru/newfiles/Noginsk/Dgb/Dgbstac/index.php";"";"";"38.467616";"55.880453";"Медицина / Здоровье / Красота";"Больницы"
"292";"Городская клиническая больница №13, Терапевтический корпус";"Москва";"Велозаводская, 1/1 ст15";"115280";="+74994263687";"";"";"";"";"37.665479";"55.720442";"Медицина / Здоровье / Красота";"Больницы"
"293";"Городская клиническая больница №52, Консультативно-диагностичекое нефрологическое отделение";"Москва";"Пехотная, 3 ст16";"123182";="+74958703607, +74991962248";"";"http://www.52gkb.ru";"https://vk.com/public152474290";"";"37.487268";"55.803147";"Медицина / Здоровье / Красота";"Больницы"
"294";"Наро-Фоминская областная больница, г. Апрелевка";"рп. Селятино";"Больничная улица, 1";"143345";="88005505030, +74963421850, +74963425606, +74963421611, +74963421825";"";"";"";"";"36.974939";"55.510655";"Медицина / Здоровье / Красота";"Больницы"
"295";"Химкинская областная больница, Стационар";"Химки";"Мичурина, 31в";"141420";="+74955712025, +74955741678, +74955742042";"";"http://hckb.ru";"";"";"37.299838";"55.943204";"Медицина / Здоровье / Красота";"Больницы"
"296";"Московская областная больница им. профессора Розанова В.Н., Приёмное отделение";"Пушкино";"Авиационная, 35 к2";"141206";="+74965319003, 88005505030, +79163642914, +74959934363";"";"http://prbmo.ru";"https://vk.com/pushkino_rb";"";"37.837233";"56.019308";"Медицина / Здоровье / Красота";"Больницы"
"297";"Федеральный научно-клинический центр медицинской реабилитации и курортологии Федерального медико-биологического агентства, д. Голубое";"д. Голубое";"деревня Голубое, 4";"141551";="+74955360922, +79670531565, +79773607784";"";"";"";"";"37.101627";"55.985552";"Медицина / Здоровье / Красота";"Больницы"
"298";"Университетская клиническая больница №4, Хирургическое отделение";"Москва";"улица Доватора, 15 ст1";"119048";="+74992466741, +74992452660, +74992469620";"";"http://www.sechenovclinic.ru";"";"";"37.566376";"55.722519";"Медицина / Здоровье / Красота";"Больницы"
"299";"Морозовская детская городская клиническая больница, Отделение педиатрии";"Москва";"4-й Добрынинский переулок, 1/9 ст1";"119049";="+74959598800, +74959598803";"";"http://мороздгкб.рф";"https://vk.com/morozdgkbdzm";"";"37.617033";"55.724324";"Медицина / Здоровье / Красота";"Больницы"
"300";"Городская клиническая онкологическая больница №1, Онкологическое отделение №2";"Москва";"Загородное шоссе, 18а";"117152";="+79661907059";"";"http://gkob1.ru";"https://vk.com/gkob1";"";"37.601177";"55.696324";"Медицина / Здоровье / Красота";"Больницы"
"301";"Университетская клиническая больница №1, Централизованное патологоанатомическое отделение";"Москва";"Абрикосовский переулок, 1 ст1";"119435";="+74994508889";"";"http://sechenovclinic.ru";"";"";"37.56371";"55.729605";"Медицина / Здоровье / Красота";"Больницы"
"302";"Национальный медицинский исследовательский центр травматологии и ортопедии им. Н.Н. Приорова, 9-е отделение детской травматологии";"Москва";"улица Приорова, 10 ст4";"127299";="+74957444010, +74954500932, +74954504311";"";"http://www.cito-priorov.ru";"https://vk.com/citopriorov";"";"37.530965";"55.818927";"Образование / Работа / Карьера";"Научно-исследовательские институты, Больницы"
"303";"Инфекционная клиническая больница №2, Приемное отделение";"Москва";"8-я улица Соколиной Горы, 15 к5";"105275";="+74958703609, +74953650147";"";"http://ikb2.ru";"https://vk.com/ikb2dzm";"";"37.739805";"55.76945";"Медицина / Здоровье / Красота";"Больницы"
"304";"Одинцовская областная больница, Отделение детской гематологии";"Одинцово";"бульвар Любы Новоселовой, 6";"143003";="";"";"";"";"";"37.254872";"55.681104";"Медицина / Здоровье / Красота";"Больницы, Детские поликлиники, Услуги детских врачей"
"305";"Научно-исследовательский клинический институт педиатрии им. академика Ю.Е. Вельтищева, 2-е отделение офтальмологии";"Москва";"Талдомская улица, 2 ст1";"125412";="+74954837250, +74994875523,,,12";"";"http://pedklin.ru";"https://vk.com/pedklin";"";"37.520083";"55.871151";"Образование / Работа / Карьера";"Научно-исследовательские институты, Больницы"
"306";"Солнечногорская областная больница, Инфекционное отделение";"Солнечногорск";"микрорайон Рекинцо, ст1в";"141506";="+74962665993, +74962645287";"";"http://solnob.ru";"";"";"37.007083";"56.17976";"Медицина / Здоровье / Красота";"Больницы"
"307";"Городская клиническая больница №15 им. О.М. Филатова, Неврологическое отделение";"Москва";"Вешняковская, 23";"111539";="+74953751555, +79037445856";"";"http://gkb15.moscow";"";"";"37.833579";"55.731279";"Медицина / Здоровье / Красота";"Больницы"
"308";"Больница им. Е.О. Мухина, Консультативно-диагностическое отделение перинатального центра";"Москва";"Федеративный проспект, 17 к7";"111399";="+74953039754, +74953025324";"";"http://gkb-muhina.ru";"https://vk.com/gkb.mukhina";"";"37.811595";"55.756523";"Медицина / Здоровье / Красота";"Больницы"
"309";"Детская городская клиническая больница им. З.А. Башляевой, Офтальмологическое отделение";"Москва";"улица Героев Панфиловцев, 28";"125373";="+74955392473, +74954969111";"";"http://www.tdgb-mos.ru";"";"";"37.404591";"55.851538";"Медицина / Здоровье / Красота";"Больницы"
"310";"Московский научно-практический центр медицинской реабилитации, восстановительной и спортивной медицины, Филиал №3";"Москва";"Вольская 2-я, 19 ст3";"111674";="+74957066942, +74957066948";"";"http://zdr2531.polikln.ru";"https://vk.com/cmrvsm";"";"37.932963";"55.695274";"Медицина / Здоровье / Красота";"Больницы"
"311";"Клиническая больница №1, Управление делами Президента РФ";"Москва";"Староволынская, 10 ст38";"121352";="";"";"http://volynka.ru";"";"";"37.480218";"55.716858";"Медицина / Здоровье / Красота";"Больницы"
"312";"Красногорская городская больница №2, Стационарное отделение";"рп. Нахабино";"Институтская улица, 9Б";"143432";="+74955662694";"";"";"";"";"37.17336";"55.840854";"Медицина / Здоровье / Красота";"Больницы"
"313";"Городская клиническая онкологическая больница №1";"Москва";"Бауманская, 17/1 к2";"105005";="";"";"http://gkob1.ru";"https://vk.com/gkob1";"";"37.67944";"55.775501";"Медицина / Здоровье / Красота";"Больницы"
"314";"РЖД, Отделение функциональной диагностики №1";"Москва";"шоссе Волоколамское, 84";"125367";="+74959250202, +74959250200, 88002343434";"";"http://www.ckb-rzd.ru";"";"";"37.456151";"55.819933";"Медицина / Здоровье / Красота";"Больницы"
"315";"Долгопрудненская центральная городская больница, Детское соматическое отделение";"Долгопрудный";"Первомайская, 58а";"141704";="+74954086166, +74954088566";"";"http://dol-cgb.ru";"";"";"37.517272";"55.941321";"Медицина / Здоровье / Красота";"Больницы"
"316";"Городская клиническая больница им. С.П. Боткина, Отдел лучевой диагностики";"Москва";"2-й Боткинский проезд, 5 ст4";"125284";="+74994900303, 88006003141";"";"http://botkinmoscow.ru";"https://vk.com/botkinmoscow";"";"37.555308";"55.780541";"Медицина / Здоровье / Красота";"Больницы"
"317";"Щёлковская городская больница";"Щёлково";"Парковая, 8 ст8";"141100";="+79672850933, +74965666413";"";"http://schrb.ru/";"";"";"37.986139";"55.921698";"Медицина / Здоровье / Красота";"Больницы"
"318";"Щёлковская районная больница №2, Офтальмологическое отделение";"Щёлково";"Зубеева, ст2";"141100";="+74965667331";"";"";"";"";"37.983041";"55.920351";"Медицина / Здоровье / Красота";"Больницы"
"319";"РЖД-медицина, клиника и госпиталь";"Москва";"Лосиноостровская, 43 ст1";"107150";="88007000701";"";"http://semashko.com";"https://vk.com/dkb.semashko";"";"37.726081";"55.829791";"Медицина / Здоровье / Красота";"Больницы, Диагностические центры, Многопрофильные медицинские центры, Ортопедия и травматология, Пластическая хирургия, Услуги гематолога, Услуги кардиолога, Услуги маммолога, Услуги нефролога, Услуги невролога, Услуги онколога, Услуги пульмонолога, Услуги терапевта, Услуги уролога / андролога, Услуги флеболога, Услуги хирурга, Услуги эндокринолога"
"320";"Городская клиническая больница им. С.И. Спасокукоцкого, Терапевтическое отделение";"Москва";"Вучетича, 21 ст6";"127206";="+74951977777, +74958703612";"";"http://www.50gkb.ru";"https://vk.com/gkb_50";"";"37.554493";"55.812032";"Медицина / Здоровье / Красота";"Больницы"
"321";"Морозовская детская городская клиническая больница, Патологоанатомическое отделение";"Москва";"4-й Добрынинский переулок, 1/9 ст18";"119049";="+74959598800, +74959598803, +74992363285";"";"http://мороздгкб.рф";"https://vk.com/morozdgkbdzm";"";"37.619632";"55.725598";"Медицина / Здоровье / Красота";"Больницы"
"322";"НИИ неотложной детской хирургии и травматологии, Лабораторное отделение";"Москва";"улица Большая Полянка, 22";"119180";="+74959593840, +74959594750";"";"http://www.doctor-roshal.ru";"";"";"37.618468";"55.737919";"Медицина / Здоровье / Красота";"Больницы"
"323";"Воскресенская областная больница, Управление Воскресенской областной больницей";"Воскресенск";"Гражданская, 2а";"140203";="+74964497412, +74964497407, +74964497418";"";"";"";"";"38.772315";"55.254474";"Медицина / Здоровье / Красота";"Больницы"
"324";"НИИ СП им. Н.В. Склифосовского ДЗМ, Токсикологический центр";"Москва";"Большая Сухаревская площадь, 3 ст7";"129090";="+74956806722";"";"http://sklif.mos.ru";"https://vk.com/sklif.official";"";"37.636648";"55.775298";"Медицина / Здоровье / Красота";"Больницы"
"325";"Морозовская детская городская клиническая больница, Инфекционно-боксированное отделение для детей младшего возраста";"Москва";"4-й Добрынинский переулок, 1/9 ст22а";"119049";="+74959598800, +74959598803";"";"http://мороздгкб.рф";"https://vk.com/morozdgkbdzm";"";"37.61855";"55.725286";"Медицина / Здоровье / Красота";"Больницы"
"326";"Первый Московский государственный медицинский университет им. И.М. Сеченова, Кафедра оперативной хирургии и топографической анатомии";"Москва";"улица Россолимо, 15/13 ст1";"119021";="+74956091400, +74992487013";"";"http://sechenov.ru";"https://vk.com/sechenov_ru";"";"37.578694";"55.733674";"Медицина / Здоровье / Красота";"Больницы"
"327";"НИИ СП им. Н.В. Склифосовского ДЗМ, Отделение реанимации и интенсивной терапии для хирургических больных";"Москва";"Большая Сухаревская площадь, 3 ст1";"107045";="+74956806722";"";"http://sklif.mos.ru";"https://vk.com/sklif.official";"";"37.635328";"55.773511";"Медицина / Здоровье / Красота";"Больницы"
"328";"Менделеевская городская больница";"рп. Менделеево";"Институтская, 8";"141570";="+74955462197, +74955463082, +74955462223";"";"http://mend-boln.ru";"";"";"37.231606";"56.034569";"Медицина / Здоровье / Красота";"Больницы"
"329";"Российский научный центр хирургии им. академика Б.В. Петровского, Отделение хирургии аорты и ее ветвей";"Москва";"Абрикосовский переулок, 2";"119435";="+74992481555, +74992481188, +74992481015";"";"http://med.ru";"https://vk.com/spineclinic";"";"37.563886";"55.73005";"Медицина / Здоровье / Красота";"Больницы"
"330";"Доктор рядом, многопрофильный медицинский центр";"Москва";"Наримановская улица, 8 к1";"107564";="+74951044003, +74956031805";"";"http://vitbiomedplus.ru";"https://vk.com/doctorryadom";"";"37.703695";"55.814633";"Медицина / Здоровье / Красота";"Больницы"
"331";"Детская инфекционная клиническая больница №6";"Москва";"улица Большая Академическая, 28 ст3";"125008";="+74991540333";"";"http://dikb6.ru";"https://vk.com/dikb6";"";"37.531957";"55.828782";"Медицина / Здоровье / Красота";"Больницы, Услуги инфекциониста"
"332";"Городская клиническая больница им. В.М. Буянова, Кардиологическое отделение";"Москва";"улица Бакинская, 26";"115516";="+74953215492, +74953229121";"";"http://gkb-buyanova.ru";"https://vk.com/gkb_buyanova";"";"37.654111";"55.618974";"Медицина / Здоровье / Красота";"Больницы"
"333";"Городская клиническая больница №52, Отдел платных медицинских услуг";"Москва";"Пехотная, 3 ст16";"123182";="+74958703607, +74958703604";"";"http://www.52gkb.ru";"https://vk.com/public152474290";"";"37.48783";"55.803414";"Медицина / Здоровье / Красота";"Больницы"
"334";"Детская инфекционная клиническая больница №6, Инфекционное отделение №5 для новорожденных с внутриутробной и постнатальной инфекцией";"Москва";"3-й Лихачёвский переулок, 2Б";"125438";="+74954565750";"";"http://dikb6.ru";"https://vk.com/dikb6";"";"37.517697";"55.847487";"Медицина / Здоровье / Красота";"Больницы"
"335";"Московский научно-практический центр наркологии Департамента здравоохранения г. Москвы, Отделение медицинского освидетельствования состояния опьянения";"Москва";"Старопетровский проезд, 2";"125130";="+74996602055, +74991562118";"";"http://www.narcologos.ru";"https://vk.com/narkologos";"";"37.501982";"55.821542";"Медицина / Здоровье / Красота";"Больницы"
"336";"Городская клиническая больница им. С.П. Боткина, Отделение сосудистой хирургии №54";"Москва";"2-й Боткинский проезд, 5 к22";"125284";="+74994900303, 88006003141, +74997626183";"";"http://botkinmoscow.ru";"https://vk.com/botkinmoscow";"";"37.550131";"55.78125";"Медицина / Здоровье / Красота";"Больницы"
"337";"Городская клиническая больница им. В.В. Вересаева, Отделение общей хирургии";"Москва";"Лобненская улица, 10 к10";"127644";="+74994505581, +74954830292";"";"http://gkb81.ru";"https://vk.com/gkb81";"";"37.532731";"55.890561";"Медицина / Здоровье / Красота";"Больницы"
"338";"Городская клиническая больница №13, Ортопедическое отделение";"Москва";"Велозаводская, 1/1 к3";"115280";="+74994263687";"";"";"https://vk.com/public188030934";"";"37.664571";"55.719606";"Медицина / Здоровье / Красота";"Больницы"
"339";"Инфекционная клиническая больница №1";"Москва";"шоссе Волоколамское, 47 ст7";"125367";="+74991900101";"";"http://ikb1.ru";"https://vk.com/club182643197";"";"37.466598";"55.81363";"Медицина / Здоровье / Красота";"Больницы, Услуги инфекциониста"
"340";"Медгород, лечебно-диагностический центр";"Москва";"Валовая, 32/75 ст1";"115054";="+74955404803";"";"http://medgorod-clinic.ru";"https://vk.com/med_gorod";"";"37.626027";"55.730199";"Медицина / Здоровье / Красота";"Многопрофильные медицинские центры, Диагностические центры, Услуги терапевта, Услуги невролога, Услуги кардиолога, Услуги уролога / андролога, Услуги детских врачей, Лечение ЛОР-заболеваний, Услуги гастроэнтеролога, Услуги аллерголога / иммунолога, Услуги дерматовенеролога, Ортопедия и травматология, Услуги маммолога, Услуги пульмонолога, Услуги эндокринолога, Услуги гинеколога, Услуги ревматолога, Услуги массажиста, Услуги косметолога, Услуги нефролога, Занятия лечебной физкультурой, Центры иммунизации, Услуги ведения беременности, Услуги инфекциониста, Услуги процедурного кабинета, SPA-процедуры, Больницы, Медицинские анализы, Услуги онколога, Центры диетологии / нутрициологии, Центры мануальной терапии, Услуги физиотерапевта"
"341";"Городская клиническая больница №15 им. О.М. Филатова, Отделение реанимации и анестезиологии";"Москва";"Вешняковская, 23";"111539";="+74953751555, +79037445856";"";"http://gkb15.moscow";"https://vk.com/filatovka15";"";"37.833579";"55.731279";"Медицина / Здоровье / Красота";"Больницы"
"342";"Городская клиническая больница №52, Отделение анестезиологии и реанимации";"Москва";"Пехотная, 3 к6";"123182";="+74958703607, +74991963306";"";"http://www.52gkb.ru";"https://vk.com/public152474290";"";"37.487103";"55.803868";"Медицина / Здоровье / Красота";"Больницы"
"343";"Мытищинская городская клиническая больница, Детское инфекционное отделение";"Мытищи";"Коминтерна, 24 к4";"141009";="+74953081300, +74955864144";"";"http://мгкб.рф";"";"";"37.776308";"55.921401";"Медицина / Здоровье / Красота";"Больницы"
"344";"Центральная клиническая больница с поликлиникой, Детское отделение хирургии";"Москва";"Маршала Тимошенко, 15 ст3";"121359";="+74955300300, +74955300111, +74955300969, +74955300189";"";"http://www.cchp.ru";"https://vk.com/kremlinmedicine";"";"37.383616";"55.749432";"Медицина / Здоровье / Красота";"Больницы"
"345";"РЖД-медицина, Физиотерапевтическое отделение";"Москва";"Будайская улица, 2 ст8";"129128";="88007000701";"";"http://semashko.com";"https://vk.com/dkb.semashko";"";"37.666986";"55.830562";"Медицина / Здоровье / Красота";"Больницы, Многопрофильные медицинские центры, Диагностические центры, Ортопедия и травматология, Пластическая хирургия, Услуги гематолога, Услуги кардиолога, Услуги маммолога, Услуги невролога, Услуги онколога, Услуги пульмонолога, Услуги терапевта, Услуги уролога / андролога, Услуги флеболога, Услуги хирурга, Услуги эндокринолога"
"346";"Психиатрическая больница №6, Кабинет анонимной наркологической помощи";"Коломна";"улица Октябрьской революции, 336";"140408";="+74966130617";"";"http://pb6-kolomna.ru";"";"";"38.790682";"55.087275";"Медицина / Здоровье / Красота";"Больницы, Диспансеры, Психологическая помощь в избавлении от зависимостей, Услуги психиатра"
"347";"Городская клиническая больница им. М.П. Кончаловского, Патологоанатомическое отделение";"Зеленоград";"Каштановая аллея, 2 ст13";"124489";="+74997352597, +79254832321, +74997345970, +74997363446";"";"http://gb3zelao.ru";"https://vk.com/gkb_3zelao";"";"37.235938";"55.983392";"Медицина / Здоровье / Красота";"Больницы, Морги"
"348";"Центральная городская больница им. М.В. Гольца, Терапевтическое отделение";"Фрязино";"Московская улица, 7 к3";"141190";="+74962554021, +74962556822";"";"http://cgb-fryazino.org";"";"";"38.054882";"55.957253";"Медицина / Здоровье / Красота";"Больницы"
