"id";"name";"city_name";"geometry_name";"post_code";"phone";"email";"website";"vkontakte";"instagram";"lon";"lat";"category";"subcategory"
"1";"Робостанция, научно-развлекательная выставка";"Москва";"проспект Мира (ВДНХ), 119 ст2";"129223";="+74951345969";"robostation@robostation.ru";"http://робостанция.рф";"https://vk.com/robocorpmoscow";"";"37.63158";"55.828671";"Культура / Искусство / Религия";"Музеи, Организация выставок, Организация и проведение праздников, Художественные выставки / Галереи, Детские игровые залы / Игротеки"
"2";"Усадьба Гребнево, Музей";"д. Гребнево";"Усадьба Гребнево, 53/1";"";="+74993980893, +79252142964, +79161017960";"event@usadbagrebnevo.com";"http://usadbagrebnevo.com";"https://vk.com/usadbagrebnevo";"";"38.088477";"55.949063";"Культура / Искусство / Религия";"Музеи"
"3";"Brick star, музей лего";"Москва";"Трубная площадь, 2";"107031";="+74959998558";"brickstar-museum@yandex.ru";"http://brickstar.ru";"https://vk.com/brickstar";"";"37.621462";"55.76618";"Культура / Искусство / Религия";"Музеи, Игрушки"
"4";"Big Creative Company, Музей эротики";"Москва";"улица Новый Арбат, 15 ст1";"119019";="88006005808";"info@bigcreative.fun, info@tochkag.net";"http://tochkag.net";"https://vk.com/museum_tochka_g";"";"37.591942";"55.751785";"Культура / Искусство / Религия";"Музеи"
"5";"Музей мертвых кукол";"Москва";"Малая Молчановка, 8 ст2";"121069";="+79951166611";"info@dead-dolls.museum";"http://dead-dolls.museum";"";"";"37.592266";"55.754003";"Культура / Искусство / Религия";"Музеи"
"6";"Царь-макет, музей";"Москва";"Константинова, 11а";"129164";="+74951092096";"info@tsar-maket.ru";"http://tsar-maket.ru";"https://vk.com/tsarmaket";"";"37.655383";"55.817197";"Культура / Искусство / Религия";"Музеи"
"7";"Дедушкин чердак, интерактивный политехнический музей для детей от 1 до 101 года";"Москва";"Измайловское шоссе, 73ж";"105187";="+79164415554, +79015018085";"museumcherdak@gmail.com";"http://www.museumcherdak.ru";"https://vk.com/museum_cherdak";"";"37.749293";"55.794253";"Культура / Искусство / Религия";"Музеи, Организация и проведение праздников"
"8";"Оружейный подвал на Никольской, контактный музей";"Москва";"улица Никольская, 11-13 ст1";"109012";="+79017063372";"guns@guns.moscow";"http://taplink.cc/guns.moscow";"https://vk.com/guns.moscow";"";"37.621711";"55.756834";"Культура / Искусство / Религия";"Музеи"
"9";"Лес, интерактивное мультимедийное пространство";"Москва";"проспект Мира (ВДНХ), 119 пав17";"129223";="+79686028008";"les.gallery.17@gmail.com";"http://les.gallery";"https://vk.com/les.gallery";"";"37.623906";"55.831377";"Досуг / Развлечения / Общественное питание";"Детские игровые залы / Игротеки, Музеи, Аттракционы, Кофейни, Продажа кофе"
"10";"Государственный музей изобразительных искусств им. А.С. Пушкина";"Москва";"улица Волхонка, 12 ст1";"119019";="+74956099520, +74956977412, +74956979578";"";"http://pushkinmuseum.art";"https://vk.com/theartsmuseum";"";"37.605861";"55.747094";"Культура / Искусство / Религия";"Музеи, Интересные здания"
"11";"Московский Кремль";"Москва";"Манежная, 2-10";"109012";="+74956970349, +74956954146";"";"http://www.kreml.ru";"https://vk.com/kremlinmuseums";"";"37.612798";"55.752427";"Культура / Искусство / Религия";"Музеи"
"12";"Кусково, музей-усадьба";"Москва";"Юности, 2";"111402";="+74953753131, +74953700160";"";"http://www.mos.ru/afisha/venues/130211/";"https://vk.com/museum_kuskovo";"";"37.809024";"55.73502";"Культура / Искусство / Религия";"Музеи, Парки культуры и отдыха"
"13";"Патриот, военно-патриотический парк культуры и отдыха Вооруженных Сил РФ";"";"Минское шоссе 55 км, 1";"143070";="88007070107";"";"http://patriotp.ru";"https://vk.com/parkpatriot";"";"36.830767";"55.570894";"Досуг / Развлечения / Общественное питание";"Парки культуры и отдыха, Музеи"
"14";"Архангельское, музей-заповедник";"пос. Архангельское";"Музей-усадьба Архангельское, 1";"143420";="+74986538660, +74957975409";"";"http://www.arhangelskoe.su";"https://vk.com/public96891566";"";"37.284647";"55.787583";"Культура / Искусство / Религия";"Музеи"
"15";"Государственный Дарвиновский музей";"Москва";"улица Вавилова, 57";"117292";="+74997832253, +74991321047";"";"http://darwinmuseum.ru";"https://vk.com/darwinmuseum";"";"37.561723";"55.69085";"Культура / Искусство / Религия";"Музеи"
"16";"Музей космонавтики";"Москва";"проспект Мира, 111";"129515";="+74997502300,,,1016";"";"http://jivo.chat/2sY5UIoauC";"https://vk.com/kosmo_museum";"";"37.639845";"55.823354";"Культура / Искусство / Религия";"Музеи, Интересные здания"
"17";"Переделкино, дом творчества писателей";"пос. ДСК "Мичуринец"";"Погодина, 4";"108816";="+74994600940";"";"http://pro-peredelkino.org";"https://vk.com/peredelkino_dt";"";"37.334285";"55.657428";"Культура / Искусство / Религия";"Музеи, Библиотеки"
"18";"Московский музей современного искусства";"Москва";"улица Петровка, 25 ст1";"107031";="+74956906870";"";"http://www.mmoma.ru";"https://vk.com/id77591204";"";"37.614058";"55.767213";"Культура / Искусство / Религия";"Музеи"
"19";"Оружейная палата";"Москва";"Кремль, 1р";"109012";="+74956954631, +74956970349, +74956214720";"";"http://www.kreml.ru";"https://vk.com/kremlinmuseums";"";"37.613194";"55.749223";"Культура / Искусство / Религия";"Музеи, Интересные здания"
"20";"Государственный исторический музей";"Москва";"Красная площадь, 1";"109012";="+74956923731, +74956924019";"";"http://www.shm.ru";"https://vk.com/gim";"";"37.618099";"55.755381";"Культура / Искусство / Религия";"Музеи, Интересные здания"
"21";"Бункер-42 на Таганке, музей Холодной войны";"Москва";"5-й Котельнический переулок, 11";"115172";="+74955000554, +79857900082";"";"http://www.bunker42.com";"https://vk.com/bunker42com";"";"37.649216";"55.741679";"Культура / Искусство / Религия";"Музеи"
"22";"Кусково, музей-усадьба";"Москва";"Юности, 2 ст1";"111402";="+74953753131";"";"http://www.kuskovo.ru";"https://vk.com/museum_kuskovo";"";"37.80751";"55.7352";"Культура / Искусство / Религия";"Музеи"
"23";"Палеонтологический музей им. Ю.А. Орлова";"Москва";"Профсоюзная, 123";"117647";="+74953394544, +74953391500, +79169968134";"";"http://www.paleo.ru";"https://vk.com/paleomuseum";"";"37.514209";"55.624334";"Культура / Искусство / Религия";"Музеи"
"24";"Царицыно, Хлебный дом";"Москва";"Дольская улица, 1 ст4";"115569";="+74953224433";"";"http://tsaritsyno-museum.ru";"https://vk.com/tsaritsynomuseum";"";"37.68464";"55.61605";"Культура / Искусство / Религия";"Музеи, Интересные здания"
"25";"Храм Василия Блаженного, Покровский собор";"Москва";"Красная площадь, 2";"109012";="+74956983304";"";"http://www.shm.ru";"https://vk.com/club51240869";"";"37.623158";"55.75269";"Культура / Искусство / Религия";"Музеи, Интересные здания"
"26";"Государственный музей истории ГУЛАГа";"Москва";"1-й Самотёчный переулок, 9";"127473";="+74956217310, +74956818882";"";"http://www.gmig.ru";"https://vk.com/gulagmuseum";"";"37.6137";"55.777131";"Культура / Искусство / Религия";"Музеи"
"27";"Garage, музей современного искусства";"Москва";"Крымский Вал улица, 9 ст32";"119049";="+74956450520";"";"http://www.garagemca.org";"https://vk.com/garagemca";"";"37.601436";"55.727542";"Культура / Искусство / Религия";"Музеи, Библиотеки"
"28";"Еврейский музей и центр толерантности";"Москва";"улица Образцова, 11 ст1а";"127055";="+74956450550";"";"http://www.jewish-museum.ru";"https://vk.com/j_museum";"";"37.606877";"55.7894";"Культура / Искусство / Религия";"Музеи"
"29";"Центральный музей ВОВ 1941-1945 гг.";"Москва";"площадь Победы, 3";"121170";="+74994498181";"";"http://victorymuseum.ru";"https://vk.com/muzeypobedy";"";"37.505141";"55.73102";"Культура / Искусство / Религия";"Музеи"
"30";"Макет Москвы, выставочный центр";"Москва";"проспект Мира (ВДНХ), 119 ст75а";"129223";="+79252373728, +79252373729";"";"http://www.maketmoskvy.ru";"https://vk.com/maketmoskvy";"";"37.630547";"55.834396";"Культура / Искусство / Религия";"Музеи"
"31";"Булгаковский Дом, музей-театр";"Москва";"Большая Садовая улица, 10";"123001";="+74959700619, +74957759461, +79037680204";"";"http://www.dombulgakova.ru";"https://vk.com/bulgakov_house";"";"37.59363";"55.767184";"Культура / Искусство / Религия";"Музеи"
"32";"Государственный музей А.С. Пушкина";"Москва";"улица Пречистенка, 12/2 ст6";"119034";="+74956375674";"";"http://www.pushkinmuseum.ru";"https://vk.com/club41276547";"";"37.596857";"55.744098";"Культура / Искусство / Религия";"Музеи"
"33";"Музей М.А. Булгакова";"Москва";"Большая Садовая улица, 10";"123001";="+74956995366";"";"http://www.bulgakovmuseum.ru";"https://vk.com/bulgakovmuseum";"";"37.593892";"55.767044";"Культура / Искусство / Религия";"Музеи"
"34";"Россия – Моя История, исторический парк";"Москва";"проспект Мира (ВДНХ), 119 пав57";"129223";="88005551263";"";"http://myhistorypark.ru";"https://vk.com/myhistory_project";"";"37.626327";"55.833776";"Культура / Искусство / Религия";"Музеи"
"35";"Музей Москвы, музейное объединение";"Москва";"Зубовский бульвар, 2 ст1";"119021";="+74957390008";"";"http://mosmuseum.ru";"https://vk.com/moscowmuseum";"";"37.593565";"55.736418";"Культура / Искусство / Религия";"Музеи"
"36";"Рабочий и колхозница, музейно-выставочный центр";"Москва";"проспект Мира, 123Б";"129223";="";"";"http://znanie.vdnh.ru";"https://vk.com/vdnh";"";"37.646689";"55.828107";"Культура / Искусство / Религия";"Музеи"
"37";"Бородинская битва, музей-панорама";"Москва";"Кутузовский проспект, 38 ст1";"121170";="+74991481927, +74991481875";"";"http://www.1812panorama.ru";"https://vk.com/panoramaborodino";"";"37.523363";"55.738626";"Культура / Искусство / Религия";"Музеи, Интересные здания"
"38";"Автомобили мира, музей";"Москва";"Самокатная, 4 ст34";"111033";="+74959888040";"";"http://automuseum.ru";"https://vk.com/autoretromuseum";"";"37.675536";"55.754941";"Культура / Искусство / Религия";"Музеи"
"39";"Гараж особого назначения ФСО России, музей";"Москва";"проспект Мира (ВДНХ), 119 ст53";"129223";="+74956380820";"";"http://gon-museum.ru";"https://vk.com/gon_museum";"";"37.621394";"55.837079";"Культура / Искусство / Религия";"Музеи"
"40";"Дом Пашкова";"Москва";"улица Воздвиженка, 3/5 ст1";"119019";="88001005790, +74956099590, +74995570470,,,12, +74995570470,,,71";"";"http://pashkovdom.rsl.ru";"https://vk.com/leninka_ru";"";"37.608284";"55.749847";"Культура / Искусство / Религия";"Музеи, Аренда площадок для культурно-массовых мероприятий, Библиотеки"
"41";"Музей Покровского монастыря и Блаженной Матроны Московской";"Москва";"Таганская улица, 58";"109147";="+74959114920";"";"http://www.pokrov-monastir.ru/news/muzey_pokrovskogo_monastyrya";"";"";"37.67113";"55.738804";"Культура / Искусство / Религия";"Музеи"
"42";"Государственный Дарвиновский музей";"Москва";"улица Вавилова, 57 ст1";"117292";="+74997832253, +74991321047";"";"http://darwinmuseum.ru";"https://vk.com/darwinmuseum";"";"37.562235";"55.690874";"Культура / Искусство / Религия";"Музеи"
"43";"Музей Отечественной войны 1812 года";"Москва";"площадь Революции, 2/3";"109012";="+74956923731";"";"http://www.shm.ru";"https://vk.com/gim";"";"37.618385";"55.756354";"Культура / Искусство / Религия";"Музеи, Интересные здания"
"44";"Государственный музей искусства народов Востока";"Москва";"Никитский бульвар, 12а";"119019";="+74956910212, +74956914966";"";"http://www.orientmuseum.ru";"https://vk.com/club51591430";"";"37.599761";"55.756366";"Культура / Искусство / Религия";"Музеи"
"45";"Алмазный фонд, выставочный зал";"Москва";"Кремль, 1р";"109012";="+74956292036";"";"";"";"";"37.613816";"55.749525";"Культура / Искусство / Религия";"Музеи"
"46";"Дворец царя Алексея Михайловича в Коломенском";"Москва";"проспект Андропова, 39 к69";"115487";="+74997828903";"";"http://www.mgomz.ru";"";"";"37.655969";"55.65628";"Культура / Искусство / Религия";"Музеи"
"47";"Музей Москвы, музейное объединение";"Москва";"Зубовский бульвар, 2 ст7";"119021";="+74957390008";"";"http://mosmuseum.ru";"https://vk.com/moscowmuseum";"";"37.594315";"55.736681";"Культура / Искусство / Религия";"Музеи"
"48";"Московский музей современного искусства";"Москва";"Гоголевский бульвар, 10 ст2";"119019";="+74956906870, +74952314410";"";"http://www.mmoma.ru";"https://vk.com/id77591204";"";"37.600488";"55.746353";"Культура / Искусство / Религия";"Музеи"
"49";"Музей эмоций";"Москва";"Нижний Сусальный переулок, 5 ст18";"105064";="+79958877788";"";"http://museumofemotions.ru/msk";"https://vk.com/museumofemotions";"";"37.664704";"55.759047";"Культура / Искусство / Религия";"Музеи, Художественные выставки / Галереи"
"50";"Государственный культурный центр-музей В.С. Высоцкого";"Москва";"Высоцкого, 3 ст1";"109240";="+74959152979, +74959157578";"";"http://www.visotsky.ru";"https://vk.com/club122558565";"";"37.651737";"55.744509";"Культура / Искусство / Религия";"Музеи"
"51";"Государственный центральный театральный музей им. Бахрушина А.А.";"Москва";"Бахрушина, 31";"115054";="+74994847777, 88007777484, +74959537875";"";"http://www.gctm.ru";"https://vk.com/bahrushinmuseum";"";"37.6377";"55.731951";"Культура / Искусство / Религия";"Музеи, Интересные здания"
"52";"Русский быт, экологический центр";"Москва";"Бумажная просека, 21 ст2";"129338";="+74953238885";"";"http://losinyiostrov.ru/";"https://vk.com/losiny_ostrov";"";"37.729409";"55.862725";"Культура / Искусство / Религия";"Музеи"
"53";"Музей железнодорожного транспорта Московской железной дороги, Экспозиционная площадка";"Москва";"Рижская площадь, 3 ст5";"129272";="+74992668208";"";"http://www.rzd-expo.ru/museums/museum_of_the_moscow_railway/";"";"";"37.632398";"55.794004";"Культура / Искусство / Религия";"Музеи"
"54";"Кукольный дом Ольги Окуджава";"Москва";"Плотников переулок, 21 ст1";"119002";="+74992415534, +74992415518";"";"http://dombulata.ru";"";"";"37.588092";"55.74757";"Культура / Искусство / Религия";"Музеи"
"55";"Музей московского художественного театра им А.П. Чехова";"Москва";"Глинищевский переулок, 5/7";"125009";="+74956505391";"";"";"";"";"37.611149";"55.763764";"Культура / Искусство / Религия";"Музеи"
"56";"Творческая мастерская С.Т. Конёнкова, мемориальный музей";"Москва";"Тверской бульвар, 28/17";"125009";="+74956296139, +74956294472";"";"";"";"";"37.605286";"55.763995";"Культура / Искусство / Религия";"Музеи"
"57";"Ингосстрах, музей";"Москва";"Пятницкая улица, 14 ст12";"115035";="+74959565555";"";"http://www.ingos.ru";"";"";"37.626593";"55.743066";"Культура / Искусство / Религия";"Музеи"
"58";"Музей Почты России";"Москва";"Чистопрудный бульвар, 2 ст6";"101000";="+74952765555,,,02505, +79266018405";"";"";"https://vk.com/moscowpostmuseum";"";"37.638011";"55.764327";"Культура / Искусство / Религия";"Музеи"
"59";"Научно-мемориальный музей профессора Н.Е. Жуковского";"Москва";"улица Радио, 17 к5";"105005";="+74959169061, +74959169060";"";"http://zhukovskymuseum.ru";"https://vk.com/zhukovskymuseum";"";"37.679156";"55.76357";"Культура / Искусство / Религия";"Музеи, Интересные здания"
"60";"Музей органической культуры";"Коломна";"Казакова, 10";"140400";="+74966186572, +79030014865, +74966186817, +74966186729";"";"http://www.museumart.ru";"";"";"38.756039";"55.104188";"Культура / Искусство / Религия";"Музеи"
"61";"Музеи наукограда Королёв, Отдел новейшей истории города";"Королёв";"Терешковой, 1";"141070";="+74955166066";"";"http://museumkorolev.ru";"https://vk.com/museumkorolev";"";"37.813632";"55.918528";"Культура / Искусство / Религия";"Музеи"
"62";"Кабинет и квартира В.И. Ленина в Кремле";"рп. Горки Ленинские";"посёлок Горки Ленинские, 1 ст5";"142712";="+74955489023";"";"http://mgorki.ru";"https://vk.com/gorkilen";"";"37.762588";"55.499113";"Культура / Искусство / Религия";"Музеи"
"63";"Знаменское-Губайлово, культурно-выставочный комплекс";"Красногорск";"Красная Горка, 35";"143404";="+74953692346";"";"http://usadbagubailovo.ru";"https://vk.com/znamenskoegubailovo";"";"37.321375";"55.8217";"Культура / Искусство / Религия";"Музеи"
"64";"Камышмаш, выставочный зал автомобилей";"д. Большое Сареево";"Речная, 42";"143033";="+74957558801";"";"http://kmz-zavod.ru";"";"";"37.183631";"55.715858";"Культура / Искусство / Религия";"Музеи"
"65";"Музей Краснознаменска и космоса";"Краснознаменск";"площадь Ленина, 1";"143090";="+79360020147, +74955902345,,,112";"";"http://do-kz.ru";"";"";"37.042609";"55.600872";"Культура / Искусство / Религия";"Музеи"
"66";"Let`s go, музей лего";"Звенигород";"Ратехинское шоссе, ст1";"143180";="+79067736137";"";"http://letsgo-museum.ru";"https://vk.com/letsgomuseum";"";"36.824625";"55.733332";"Культура / Искусство / Религия";"Музеи"
"67";"Музей ватной игрушки";"Москва";"Шоссейная улица, 82 ст1";"109383";="";"";"http://www.manufactura-mi.ru/museum";"";"";"37.718755";"55.669638";"Культура / Искусство / Религия";"Музеи"
"68";"Школа Ремесел, выставочный зал";"Коломна";"Чкалова, 24";"140402";="+74966132533, +79684040266, +74966162533";"";"http://kolomna-shkolaremesel.ru";"https://vk.com/kolomna_shkolaremesel";"";"38.795724";"55.075512";"Культура / Искусство / Религия";"Музеи"
"69";"Славянский кремль Виталия Сундакова, музей";"д. Лопаткино";"деревня Лопаткино, вл1";"142143";="";"";"http://slavkreml.ru";"https://vk.com/slav_kreml";"";"37.652607";"55.316353";"Культура / Искусство / Религия";"Музеи"
"70";"Академгородок, музей быта советских ученых";"Москва";"улица Маршала Новикова, 1";"123098";="+74991960659, +74991960949";"";"";"https://vk.com/public214088535";"";"37.469896";"55.800554";"Культура / Искусство / Религия";"Музеи"
"71";"Живая история, музей";"Москва";"Земляной Вал улица, 27 ст3";"105064";="+79055481101, +79197842003";"";"http://zhivayaistoriya.com";"https://vk.com/club42652868";"";"37.658728";"55.759177";"Культура / Искусство / Религия";"Музеи"
"72";"Музей современной модной куклы";"Солнечногорск";"Красная улица, 65";"141503";="+79854323566";"";"";"https://vk.com/solndollmuseum";"";"36.97852";"56.186426";"Культура / Искусство / Религия";"Музеи"
"73";"Музей железнодорожного транспорта Московской железной дороги";"Москва";"улица Кожевническая, 2";"115114";="";"";"http://mzd.rzd.ru/ru/3917";"";"";"37.64215";"55.728704";"Культура / Искусство / Религия";"Музеи"
"74";"ВПК НПО машиностроения, музей";"Реутов";"Гагарина, 33 к4";"143966";="+74955287154";"";"http://www.npomash.ru/museum/ru/museum_npo.htm";"";"";"37.874537";"55.758015";"Культура / Искусство / Религия";"Музеи"
"75";"Галерея Анастасии Чижовой, музей кукол";"Москва";"проспект Мира (ВДНХ), 119 ст16";"129223";="+79854208155";"";"http://agallery.ru";"https://vk.com/vdnh";"";"37.622815";"55.830434";"Культура / Искусство / Религия";"Музеи"
"76";"Тапан, музей";"Москва";"Олимпийский проспект, 9 ст2";"129272";="+74956810765";"";"http://armenianchurch.ru/tapan?section=news";"https://vk.com/muzem_tapan";"";"37.621965";"55.787907";"Культура / Искусство / Религия";"Музеи"
"77";"Железное царство, музей";"д. Коростово";"деревня Коростово, 24";"143442";="+79857841049";"";"";"";"";"37.302322";"55.899908";"Культура / Искусство / Религия";"Музеи"
"78";"Имена и эпохи, музей пластилиновой мини-скульптуры";"Москва";"Измайловское шоссе, 73ж";"105187";="+79036148487, +79037464140";"";"http://www.сладкарня-марципан.рф";"https://vk.com/plastmuseum";"";"37.751585";"55.79401";"Культура / Искусство / Религия";"Музеи"
"79";"Музей истории основания Российского флота";"Москва";"Измайловское шоссе, 73ж ст20";"105187";="+74952155437";"";"http://kremlin-izmailovo.com";"";"";"37.754801";"55.794194";"Культура / Искусство / Религия";"Музеи"
"80";"Усадьба Лопасня-Зачатьевское, музей";"Чехов";"Пушкина, 10";"142306";="+74967230389";"";"http://chekhovmuseum.com/museum/branches/museum-estate-lopasnya-conception/";"";"";"37.445784";"55.139603";"Культура / Искусство / Религия";"Музеи"
"81";"Наша Эпоха, музей";"Москва";"Олсуфьевский переулок, 6 ст2";"119021";="+74992452185";"";"http://www.nashaepoha.ru";"";"";"37.580944";"55.732711";"Культура / Искусство / Религия";"Музеи"
"82";"Музей печатной графики";"Москва";"Хрустальный переулок, 1";"109012";="+79265555947";"";"http://printmuseum.ru";"";"";"37.625454";"55.752878";"Культура / Искусство / Религия";"Музеи"
"83";"Музей истории Черноморского флота";"Москва";"Большая Черёмушкинская, 38";"117218";="+79152871821, +79266363080";"";"http://dpish.mskobr.ru/muzej_istorii_chernomorskogo_flota";"";"";"37.580505";"55.678795";"Культура / Искусство / Религия";"Музеи"
"84";"Музей ангелов на Арбате";"Москва";"улица Арбат, 4 ст1-1а";"119019";="+79154505606";"";"http://дом-ангелов.рф";"";"";"37.598976";"55.752384";"Культура / Искусство / Религия";"Музеи"
"85";"Негосударственный музей американского искусства";"Москва";"улица Поварская, 22 ст1а";"121069";="+79250383420";"";"http://www.sam-house-museum.com";"";"";"37.59481";"55.754692";"Культура / Искусство / Религия";"Музеи"
"86";"Мемориальный музей-квартира Е.Ф. Гнесиной";"Москва";"улица Поварская, 30-36 ст1";"121069";="+74956904505";"";"http://gnesina-museum.com";"https://vk.com/gnesina_museum";"";"37.59113";"55.75581";"Культура / Искусство / Религия";"Музеи"
"87";"Центр противопожарной пропаганды и общественных связей, Главное управление МЧС России по г. Москве";"Москва";"Дурова, 49";"129090";="+74956844538";"";"http://вдпо.рф";"https://vk.com/club203015498";"";"37.629536";"55.778456";"Культура / Искусство / Религия";"Музеи"
"88";"Музей-квартира им. Е. Вахтангова";"Москва";"Денежный переулок, 12";"119002";="+74992413765";"";"http://vakhtangov.ru";"https://vk.com/vakhtangov_theatre";"";"37.587853";"55.743806";"Культура / Искусство / Религия";"Музеи"
"89";"Музей истории ВОГ";"Москва";"улица 1905 года, 10а";"123022";="+74952556704";"";"http://www.voginfo.ru";"https://vk.com/voginfo";"";"37.5592";"55.767354";"Культура / Искусство / Религия";"Музеи"
"90";"Церковный музей Московской епархии русской православной церкви";"Москва";"Новодевичий проезд, 1 ст1";"119435";="+74992468526";"";"http://www.ndm-museum.ru";"";"";"37.557695";"55.726921";"Культура / Искусство / Религия";"Музеи"
"91";"Музей русских гуслей и китайского гуциня";"Москва";"5-й Лучевой просек, 5а ст4";"107014";="+79163450978";"";"http://guslimuseum.ru";"";"";"37.674447";"55.798156";"Культура / Искусство / Религия";"Музеи"
"92";"Музей Храма святителя Николая Мирликийского у Соломенной сторожки";"Москва";"Ивановская, 3 ст1";"127434";="+79154903864, +79296642421, +74999779931, +79851708503";"";"http://agios-nicolos.ru";"";"";"37.568418";"55.818345";"Культура / Искусство / Религия";"Музеи"
"93";"Мульт-мастерская дедушки Мультфильмыча";"Москва";"Измайловское шоссе, 73ж";"105187";="+74959406960, +74959406980, +79104380804";"";"http://animamuseum.ru";"";"";"37.749318";"55.794333";"Культура / Искусство / Религия";"Музеи"
"94";"Мемориальный дом-музей академика И.В. Курчатова";"Москва";"площадь Академика Курчатова, 1 ст42";"123060";="+74991969226";"";"http://www.museum.ru/m1719";"";"";"37.476319";"55.798364";"Культура / Искусство / Религия";"Музеи"
"95";"Егорьевский историко-художественный музей";"Егорьевск";"Советская, 73/20";"140301";="+74964024185";"";"http://egmuseum.ru";"https://vk.com/egmuseum";"";"39.034603";"55.384113";"Культура / Искусство / Религия";"Музеи"
"96";"Энергия, музей";"Королёв";"Ленина, 4а";"141070";="+74955138996";"";"http://www.energia.ru/energia/history/museum/museum.html";"";"";"37.804056";"55.920414";"Культура / Искусство / Религия";"Музеи"
"97";"Картинка, музей детской книжной иллюстрации";"Балашиха";"Пролетарская, 8";"143980";="+74955229220";"";"http://muzeykartinka.ru";"https://vk.com/public173992166";"";"38.007998";"55.74711";"Культура / Искусство / Религия";"Музеи"
"98";"Шёлковая фабрика, музей-лаборатория";"Коломна";"Уманская, 3д";"140415";="+79581830020";"";"http://silkfactory.ru";"https://vk.com/kolomnasilkfactory";"";"38.766868";"55.100712";"Культура / Искусство / Религия";"Музеи, Коворкинг, Курсы творчества и рукоделия для взрослых"
"99";"Музей академического театра Российской армии";"Москва";"Суворовская площадь, 2а";"129110";="+74956815120, +74956815719";"";"http://teatrarmii.ru/projects";"";"";"37.614417";"55.782487";"Культура / Искусство / Религия";"Музеи"
"100";"Радиомузей Валерия Громова";"Москва";"Сущёвская, 9 ст4";"127030";="+74957441070, +74999724200";"";"http://rkk-museum.ru";"";"";"37.601308";"55.780528";"Культура / Искусство / Религия";"Музеи"
"101";"Старо-Никольское, усадьба";"пос. Первомайское";"Парковая улица, 18";"108808";="+74999180861";"";"";"";"";"37.153819";"55.535813";"Культура / Искусство / Религия";"Музеи"
"102";"Музей Российского общества Красного Креста и Августейших владельцев имения Ильинское-Усово";"с. Ильинское";"улица Ленина, 3а";"143421";="";"";"";"";"";"37.234191";"55.757541";"Культура / Искусство / Религия";"Музеи"
"103";"Объединение Гжель, музей";"д. Турыгино";"деревня Турыгино, 149 ст1";"140155";="+79060552357";"";"http://gzhel.ru";"";"";"38.507797";"55.586168";"Культура / Искусство / Религия";"Музеи"
"104";"Куровский народный историко-краеведческий музей";"Куровское";"Вокзальная, 7";"142620";="+74964113601";"";"";"";"";"38.923804";"55.577226";"Культура / Искусство / Религия";"Музеи"
"105";"Музей Орловского рысака и Русской Тройки";"Москва";"6-й Лучевой просек, 21 ст9";"107014";="+79032057554, +79039611874";"";"http://museum-trotter.ru";"";"";"37.682003";"55.813136";"Культура / Искусство / Религия";"Музеи"
"106";"Водяная мельница на речке Жуже, музей";"Москва";"проспект Андропова, 39 ст62";"115487";="+74996152768, +74996152771";"";"http://mgomz.ru";"https://vk.com/mgomz";"";"37.680169";"55.672057";"Культура / Искусство / Религия";"Музеи"
"107";"Демонстрационный центр, Центральный аэрогидродинамический институт им. профессора Н.Е. Жуковского";"Жуковский";"Жуковского, 1 к1";"140181";="+79031416085";"";"http://tsagi.ru/institute/Demo_center";"https://vk.com/tsagi_official";"";"38.111415";"55.596634";"Культура / Искусство / Религия";"Музеи"
"108";"Победные дни отчизны, музей воинской славы";"Москва";"Вешняковская, 24а";"111395";="";"";"";"";"";"37.818392";"55.719989";"Культура / Искусство / Религия";"Музеи"
"109";"Кадашевская слобода, музей";"Москва";"Кадашёвский тупик, 2 ст5";"115035";="+79258393051, +79175718020, +79104466277, +79104133775";"";"http://www.museumkadashi.com";"";"";"37.623025";"55.743171";"Культура / Искусство / Религия";"Музеи"
"110";"Экскурсионное бюро, Московская Соборная мечеть";"Москва";"Выползов переулок, 7 ст2";"129090";="+74951205589, +79160884561";"";"http://www.mihrab.ru";"";"";"37.627045";"55.779441";"Культура / Искусство / Религия";"Музеи"
"111";"Школа 204 им. А.М. Горького, музей";"Москва";"Тихвинская, 39 ст2";"127055";="+79099104036";"";"http://www.museum204.com";"";"";"37.598799";"55.792131";"Культура / Искусство / Религия";"Музеи"
"112";"Мемориальная квартира А.И. Сумбатова-Южина";"Москва";"Большой Палашёвский переулок, 5/1";"123104";="+79168798490";"";"http://www.maly.ru/yuzhin";"";"";"37.598686";"55.764288";"Культура / Искусство / Религия";"Музеи"
"113";"Государственный музейно-выставочный центр росизо";"Москва";"проспект Мира (ВДНХ), 119 ст516";"129223";="+74953500544";"";"http://rosizo.ru";"https://vk.com/rosizo";"";"37.61998";"55.830112";"Культура / Искусство / Религия";"Музеи"
"114";"Музей современной оловянной военно-исторической миниатюры";"Москва";"Варшавское шоссе, вл132/2";"117519";="+79778954802";"";"http://оловянныесолдатики.рф";"";"";"37.608735";"55.620345";"Культура / Искусство / Религия";"Музеи, Сувениры"
"115";"Музей-библиотека им Н.Ф. Фёдорова";"Москва";"Профсоюзная, 92";"117485";="+74953355722";"";"http://nffedorov.ru";"";"";"37.529002";"55.648845";"Культура / Искусство / Религия";"Музеи"
"116";"Музей боевой славы 43-й армии";"Москва";"Профсоюзная, 142 к5";"117321";="+74954207044, +74953383200";"";"http://gym1507uz.mskobr.ru/obrazovanie/muzei/muzej_43_armii";"";"";"37.504463";"55.626772";"Культура / Искусство / Религия";"Музеи"
"117";"Музеи наукограда Королёв, Отдел новейшей истории города микрорайона Юбилейного";"Королёв";"М.К. Тихонравова, 23";"141091";="+74955166066, +74986281008";"";"http://museumkorolev.ru";"https://vk.com/museumkorolev";"";"37.834545";"55.938836";"Культура / Искусство / Религия";"Музеи"
"118";"Музей крестьянского быта";"д. Горки";"деревня Горки, 9";"142712";="+74955489933";"";"http://mgorki.ru";"https://vk.com/gorkilen";"";"37.756298";"55.510339";"Культура / Искусство / Религия";"Музеи"
"119";"Государственный центр современного искусства, Пушкинский музей";"Москва";"Зоологическая, 13 ст2";"123242";="+74992548492";"";"http://pushkinmuseum.art";"";"";"37.581533";"55.764355";"Культура / Искусство / Религия";"Музеи"
"120";"Музей истории г. Лобня";"Лобня";"Жирохова, 2";"141733";="+74986195535";"";"http://museum-lobnya.mo.muzkult.ru";"";"";"37.472515";"56.023787";"Культура / Искусство / Религия";"Музеи"
"121";"Пушкинский Краеведческий Музей, Дача Струковых";"Пушкино";"Серебрянская 1-я улица, 3";"141207";="+74965320309";"";"http://museumpushkino.ru";"";"";"37.845149";"56.018534";"Культура / Искусство / Религия";"Музеи"
"122";"Музей Люберецкого техникума им. Героя Советского Союза, лётчика-космонавта Ю.А. Гагарина";"Люберцы";"Октябрьский проспект, 136";"140005";="+74955031090, +74955034577";"";"http://luberteh.ru/muzey-gagarina.htm";"";"";"37.886719";"55.681274";"Культура / Искусство / Религия";"Музеи"
"123";"Музей Зеленограда";"Зеленоград";"Зеленоград, к1410";"124617";="+74997314512, +74997171602";"";"http://www.zelmuseum.ru";"https://vk.com/zelmuseum";"";"37.146676";"55.986717";"Культура / Искусство / Религия";"Музеи"
"124";"Музей памяти Лопасненского края";"Чехов";"Московская улица, 22";"142306";="+74967267770";"";"http://мплк.рф";"";"";"37.452266";"55.143297";"Культура / Искусство / Религия";"Музеи"
"125";"Музей Гжельского промысла";"с. Речицы";"Молодёжная, 24/1";"140145";="+74964647404, +74964647154, +79151324840, +79268373854";"";"http://www.krez.ru";"https://vk.com/gzhel_galaktika";"";"38.452166";"55.598433";"Культура / Искусство / Религия";"Музеи"
"126";"Музей С.И. Танеева в Дютькове";"Звенигород";"Дютьково микрорайон, 23а";"143078";="+74957275008, +79857275008";"";"http://www.m-dutkovo.ru";"";"";"36.806475";"55.752337";"Культура / Искусство / Религия";"Музеи"
"127";"Музей космонавта Валерия Быковского";"Павловский Посад";"площадь Революции, 15";"142500";="+79857515331";"";"http://ppmvk.ru/";"https://vk.com/museumbykovskiy";"";"38.650045";"55.780684";"Культура / Искусство / Религия";"Музеи"
"128";"Музей русской охоты";"Москва";"Трёхпрудный переулок, 11/13 ст2";"123001";="+79168000000";"";"";"";"";"37.596484";"55.765518";"Культура / Искусство / Религия";"Музеи"
"129";"Музей Священника Павла Флоренского";"Москва";"улица Бурденко, 16/12";"119121";="+74992465490, +79096969051";"";"";"";"";"37.580522";"55.739117";"Культура / Искусство / Религия";"Музеи"
"130";"Музей традиции";"Коломна";"Казакова, 6";"140400";="+79030014865";"";"http://www.museumart.ru";"";"";"38.755673";"55.104228";"Культура / Искусство / Религия";"Музеи"
"131";"Музей далёкой галактики";"Москва";"Загородное шоссе, 9 к1";"117152";="+74956824222,,,2575, +79154327879, +79169143347";"";"";"https://vk.com/muzeidalekoigalaktiki";"";"37.607495";"55.692874";"Культура / Искусство / Религия";"Музеи"
"132";"Музей Московского государственного технического университета им. Н.Э. Баумана";"Москва";"Бауманская 2-я, 5 ст1";"105005";="+74992636386";"";"";"https://vk.com/bmstu1830";"";"37.684401";"55.76624";"Культура / Искусство / Религия";"Музеи"
"133";"Патриот, центр управления";"";"Парк Патриот, ст2а";"";="88007070107";"";"http://patriotp.ru";"";"";"36.826451";"55.565732";"Культура / Искусство / Религия";"Музеи"
"134";"Музей боевой славы 70-й стрелковой дивизии";"Московский";"3-й микрорайон, 8";"108811";="";"";"http://museum2065.ru";"";"";"37.346743";"55.595651";"Культура / Искусство / Религия";"Музеи"
"135";"Музей-студия головоломок";"Москва";"Багратионовский проезд, 7 к3";"121087";="+74957688273, +79857688273";"";"http://www.puzzlemuseum.ru";"https://vk.com/puzzlemuseum";"";"37.503042";"55.741716";"Культура / Искусство / Религия";"Музеи"
"136";"Митино, культурный центр";"Москва";"Пятницкое шоссе, 45";"125310";="+74957514890, +74957512804, +74957940500";"";"";"";"";"37.349296";"55.858201";"Досуг / Развлечения / Общественное питание";"Детские / подростковые клубы, Культурно-досуговые центры для взрослых, Музеи"
"137";"ЗЕНИТ, музей";"Красногорск";"Речная улица, 8 ст13";"143402";="+74955618008";"";"";"";"";"37.331475";"55.831281";"Культура / Искусство / Религия";"Музеи"
"138";"Музей боевой славы 171-ой стрелковой дивизии им. Героя Советского Союза К.Я. Самсонова";"Москва";"Востряковский проезд, 13а";"117403";="";"";"";"";"";"37.645288";"55.577717";"Культура / Искусство / Религия";"Музеи"
"139";"Путь русской славы, музей";"Химки";"Ленинградская, 39 ст6";"141402";="+79213283418";"";"http://skazdvor.ru";"";"";"37.414835";"55.908359";"Культура / Искусство / Религия";"Музеи"
"140";"Климо, музей русской деревянной игрушки";"Подольск";"Фабричный проезд, 2";"142180";="+74994004009, +79255984834";"";"http://www.klimo.ru";"";"";"37.508558";"55.345858";"Культура / Искусство / Религия";"Музеи"
"141";"Музей колоколов, Православная школа им. Преподобного Сергия Радонежского в усадьбе Свиблово";"Москва";"Лазоревый проезд, 15 ст2";"129323";="";"";"http://sviblovoprav.mskobr.ru";"https://vk.com/club155073465";"";"37.631015";"55.853328";"Культура / Искусство / Религия";"Музеи"
"142";"У Троицы, музей";"Москва";"Троицкая, 7/1";"129090";="+74956811104";"";"";"";"";"37.62235";"55.774857";"Культура / Искусство / Религия";"Музеи"
"143";"Музей боевой славы 327-й авиадивизии 4-й воздушной армии";"Москва";"Ясеневая улица, 35 к2";"115597";="+74953985035";"";"";"";"";"37.738754";"55.607791";"Культура / Искусство / Религия";"Музеи"
"144";"Музей боевой славы 139-й Рославльской Краснознаменной ордена Суворова стрелковой дивизии";"Москва";"11-я Парковая улица, 50";"105215";="+79852709095";"";"";"https://vk.com/museum139";"";"37.806387";"55.807284";"Культура / Искусство / Религия";"Музеи"
"145";"Музей истории разведки и контрразведки России";"Москва";"Севастопольский проспект, 20а";"117447";="";"";"";"";"";"37.597272";"55.68218";"Культура / Искусство / Религия";"Музеи"
"146";"Музей боевой славы";"Коломна";"Непобедимого, 1";"140407";="+74966165230, +74966165231";"";"http://kolomnamuzej.ru";"https://vk.com/muzejboevojslavi";"";"38.771596";"55.093822";"Культура / Искусство / Религия";"Музеи"
"147";"Музей меди и латуни";"Киржач";"Ленинградская, 15";"601010";="+79612563020, +74923729181";"";"";"https://vk.com/club135035242";"";"38.870966";"56.159404";"Культура / Искусство / Религия";"Музеи"
"148";"Музей реставрации памятников архитектуры";"Коломна";"Красногвардейская, 17";"140400";="+79251528575";"";"";"";"";"38.762017";"55.100279";"Культура / Искусство / Религия";"Музеи"
"149";"Музей Зюзинской волости";"Москва";"Перекопская, 9а";"117209";="+74997894491";"";"";"";"";"37.579154";"55.657791";"Культура / Искусство / Религия";"Музеи"
"150";"Музей транспорта Москвы";"Москва";"Новорязанская, 27 ст1";"105066";="+74953692675";"";"http://www.mtmuseum.com";"https://vk.com/mtmuseum";"";"37.666545";"55.772148";"Культура / Искусство / Религия";"Музеи"
"151";"Музей еврейского наследия и Холокоста";"Москва";"Кутузовский проспект, 53";"121170";="+74991481907, +74991480887";"";"";"";"";"37.496221";"55.730258";"Культура / Искусство / Религия";"Музеи"
"152";"Янтарная галерея";"Москва";"улица Арбат, 23 ст1";"119002";="+74012310864, +79097851701";"";"http://ambercombine.ru";"";"";"37.595282";"55.750486";"Культура / Искусство / Религия";"Музеи"
"153";"Терракотовая армия";"Москва";"проспект Мира (ВДНХ), 119 пав21";"129223";="+74996438238";"";"http://terracottaarmy.ru";"";"";"37.620273";"55.832472";"Культура / Искусство / Религия";"Художественные выставки / Галереи, Музеи"
"154";"Музей барона Мюнхгаузена";"Москва";"улица Народного Ополчения, 12 к6";"123423";="+74957288864";"";"http://баронмюнхаузен.рф";"";"";"37.480976";"55.771804";"Культура / Искусство / Религия";"Музеи"
"155";"Музей морского космического флота";"Москва";"Пятницкое шоссе, 45";"125310";="+74957512804, +79859926100, +79175077511";"";"";"";"";"37.349296";"55.858201";"Культура / Искусство / Религия";"Музеи"
"156";"Музей-квартира В.Н. Плучека";"Москва";"улица Большая Бронная, 2/6";"123104";="+74994847777";"";"http://www.gctm.ru";"";"";"37.597562";"55.759996";"Культура / Искусство / Религия";"Музеи"
"157";"Stella art found, фонд поддержки культуры";"Москва";"Скарятинский переулок, 7";"121069";="+74956913407";"";"http://www.safmuseum.org";"https://vk.com/safmuseum";"";"37.589636";"55.758685";"Культура / Искусство / Религия";"Музеи"
"158";"Творческое наследие академика Юрия Орехова, музей";"Москва";"Земледельческий переулок, 7";"119121";="+74992480246";"";"http://www.sculptura.ru";"";"";"37.578174";"55.740336";"Культура / Искусство / Религия";"Музеи"
"159";"Центр соколиной охоты Константина Соколова";"д. Лысково";"";"";="+79175116961";"";"http://соколинаяохота.рф";"https://vk.com/falconry_museum";"";"";"";"Культура / Искусство / Религия";"Музеи"
"160";"Музей Индустриализации Земледелия им. В.П. Горячкина";"Москва";"улица Прянишникова, 14 ст3";"127434";="+74999763521";"";"";"";"";"37.557077";"55.836422";"Культура / Искусство / Религия";"Музеи"
"161";"Музей истории, МГУ им. М.В. Ломоносова";"Москва";"Ломоносовский проспект, 27";"119192";="+74959393552";"";"http://msu.ru";"";"";"37.524201";"55.698713";"Культура / Искусство / Религия";"Музеи"
"162";"Русский музей детского искусства";"Москва";"Якорная, 4";"115470";="+79646406335";"";"http://sobyanina.ru";"";"";"37.681513";"55.687752";"Культура / Искусство / Религия";"Музеи"
"163";"Княжий Двор";"рп. Большие Дворы";"Маяковского, 130";"142541";="+74964350389";"";"http://ppmvk.ru";"";"";"38.646885";"55.817693";"Культура / Искусство / Религия";"Музеи"
"164";"Музей охоты и рыболовства";"Москва";"Головинское шоссе, 1";"125212";="+74954591134, +74956466719";"";"http://www.rors.ru";"";"";"37.48871";"55.839611";"Культура / Искусство / Религия";"Музеи"
"165";"Музеи наукограда Королёв, Мемориальный дом-музей С.Н. Дурылина";"Королёв";"Свободная, 12";"141060";="+74955166066, +74955190080";"";"http://museumkorolev.ru";"https://vk.com/museumkorolev";"";"37.858911";"55.933309";"Культура / Искусство / Религия";"Музеи"
"166";"Музей антибольшевистского сопротивления";"Подольск";"Плещеевская, 43а";"142101";="+79261062388";"";"http://elan-kazak.org";"https://vk.com/elankazak";"";"37.598745";"55.457013";"Культура / Искусство / Религия";"Музеи"
"167";"Лыткаринский историко-краеведческий музей";"Лыткарино";"7-й квартал, 6";"140081";="+74955524980";"";"http://lytkarinomuseum.ru";"https://vk.com/lytkarinomuseum";"";"37.90053";"55.580479";"Культура / Искусство / Религия";"Музеи"
"168";"Климовский историко-краеведческий музей";"Подольск";"проспект 50 лет Октября, 24а";"142184";="+74967628004";"";"http://икм-климовск.рф";"https://vk.com/club197410339";"";"37.537428";"55.368725";"Культура / Искусство / Религия";"Музеи"
"169";"Музейно-выставочный комплекс";"Люберцы";"Звуковая, 3";"140000";="+74955014244";"";"";"https://vk.com/malmus";"";"37.894145";"55.676957";"Культура / Искусство / Религия";"Музеи"
"170";"Метро на даче, музей";"д. Санники";"Полис киз, 18";"143362";="+79031089841";"";"http://metro-na-dache.clients.site/";"https://vk.com/counthmetro";"";"37.04133";"55.56768";"Культура / Искусство / Религия";"Музеи"
"171";"Онлайн музей";"Москва";"Кутузовский проспект, 18";"121151";="";"";"http://ballsfootball.online";"";"";"37.551582";"55.746651";"Культура / Искусство / Религия";"Музеи"
"172";"Усадьба фабриканта Думнова, музей";"с. Заречье";"Центральная, 19";"601015";="+79161343172";"";"http://domdumnova.ru";"";"";"38.600364";"55.997956";"Культура / Искусство / Религия";"Музеи"
"173";"Купеческий дом, музей";"Москва";"Троицкая, 7/1 ст1";"129090";="+74956811104";"";"";"";"";"37.62235";"55.774857";"Культура / Искусство / Религия";"Музеи"
"174";"Экскурсионное бюро Храма Христа Спасителя";"Москва";"улица Волхонка, вл15 ст1";"119019";="+74956372847, +74956372967";"";"";"";"";"37.604222";"55.744743";"Спорт / Отдых / Туризм";"Круизы / Морские, речные прогулки, Музеи"
"175";"Музей органической культуры, Выставочный зал";"Коломна";"Брусенский переулок, 31";"140400";="+74966186572";"";"http://www.museumart.ru";"";"";"38.752545";"55.103849";"Культура / Искусство / Религия";"Музеи"
"176";"Музей, МПГУ им. М.А. Шолохова";"Москва";"проспект Вернадского, 88";"119571";="";"";"http://мпгу.рф/ob-mpgu/muzey-mpgu";"https://vk.com/museum_mspu";"";"37.476794";"55.657837";"Культура / Искусство / Религия";"Музеи"
"177";"Музей истории вычислительной техники";"Москва";"Егерская, 4";"107014";="+79057482646";"";"";"";"";"37.684356";"55.793586";"Культура / Искусство / Религия";"Музеи"
"178";"Мемориальный кабинет-музей академика А.П. Виноградова";"Москва";"Косыгина, 19 ст1";"119334";="+74959397700, +74959397020";"";"";"";"";"37.551986";"55.706051";"Культура / Искусство / Религия";"Музеи"
"179";"Музей усадьбы Тимохово-Салазкино";"Видное";"Школьная, 79а/1";"142703";="+74957405825";"";"";"";"";"37.691912";"55.551026";"Культура / Искусство / Религия";"Музеи"
"180";"Музей психологии";"Люберцы";"проспект Гагарина, 26 к2";"140010";="+79959175999";"";"";"https://vk.com/muzeipsihologii";"";"37.918966";"55.690855";"Культура / Искусство / Религия";"Музеи"
"181";"Квартирка, арт-студия";"Москва";"2-я Нововатутинская улица, 5";"108836";="+79264112240";"";"";"";"";"37.351727";"55.518298";"Образование / Работа / Карьера";"Курсы творчества и рукоделия для взрослых, Детские / подростковые клубы, Музеи"
"182";"Историко-краеведческий музей, г. Ивантеевка";"Ивантеевка";"Центральный проезд, 1";"141282";="+74965361390";"";"";"";"";"37.908615";"55.967116";"Культура / Искусство / Религия";"Музеи"
"183";"Жуковская палата ремесел";"Жуковский";"улица Фрунзе, 12";"140181";="+79637505609";"";"";"https://vk.com/public24685601";"";"38.124583";"55.599036";"Культура / Искусство / Религия";"Музеи, Библиотеки"
"184";"Музей экспозиция города Старая Купавна";"Старая Купавна";"Большая Московская улица, 116";"142450";="+74965195332";"";"";"";"";"38.182309";"55.811226";"Культура / Искусство / Религия";"Музеи"
"185";"Дом Салтыкова, музейно-выставочный центр";"с. Речицы";"Художника, 1в";"140145";="+79168804554";"";"";"https://vk.com/id483183960";"";"38.468586";"55.597183";"Культура / Искусство / Религия";"Музеи"
"186";"Краеведческий музей";"Ликино-Дулёво";"Советская, 34";"142671";="+74964140724";"";"";"";"";"38.95774";"55.723468";"Культура / Искусство / Религия";"Музеи"
"187";"Музей песка";"Королёв";"проспект Космонавтов, 34Б";"141080";="";"";"";"";"";"37.86624";"55.909437";"Культура / Искусство / Религия";"Музеи, Аренда помещений"
"188";"Музей столярных инструментов";"Пушкино";"Оранжерейная, 28а";"141207";="+79261675957, +79164373423";"";"http://museumtools.ru";"";"";"37.837474";"56.004057";"Культура / Искусство / Религия";"Музеи"
"189";"Ломовой, музей";"Балашиха";"Жилгородок, 4а";"143989";="+79099922111";"";"http://romanlomov.ru";"https://vk.com/folk.museum";"";"37.994697";"55.748453";"Культура / Искусство / Религия";"Музеи"
"190";"Софрино, музей";"рп. Софрино";"Патриарха Пимена, 3";"141270";="+74959932449";"";"http://sofrino.ru";"";"";"37.937906";"56.149108";"Культура / Искусство / Религия";"Музеи"
"191";"Музейно-выставочный центр национальной микроэлектроники им. А.И. Шокина";"Зеленоград";"площадь Шокина, 2 ст3";"124498";="";"";"";"";"";"37.21369";"55.981857";"Культура / Искусство / Религия";"Музеи"
"192";"Мелиховская школа, музей";"с. Мелихово";"село Мелихово, 2а";"142326";="+79164847247, +79057812910";"";"http://chekhovmuseum.com";"https://vk.com/chekhovmuseum";"";"37.652935";"55.114522";"Культура / Искусство / Религия";"Музеи"
"193";"Музей кофеграфии, музей";"Москва";"Большой Головин переулок, 25";"107045";="+79995574747";"";"";"";"";"37.630351";"55.769524";"Культура / Искусство / Религия";"Музеи"
"194";"Городищинский историко-краеведческий музей";"пос. Городищи";"Советская, 21а";"601130";="+79190044056";"";"http://gorodischi33.info";"";"";"39.081594";"55.866121";"Культура / Искусство / Религия";"Музеи"
"195";"Еда Руси, интерактивный музей древнерусской кухни";"д. Жаворонки";"деревня Жаворонки, 5";"141420";="";"";"http://www.едаруси.рф";"";"";"37.274002";"55.927297";"Культура / Искусство / Религия";"Музеи"
"196";"Музей 157-й Неманской стрелковой дивизии";"Москва";"улица Зои и Александра Космодемьянских, 6а";"125171";="+74991501413, +74991507901, +74991500151";"";"";"https://vk.com/museum157";"";"37.507099";"55.817919";"Культура / Искусство / Религия";"Музеи"
"197";"Геолого-палеонтологический школьный музей";"Москва";"Соколово-Мещерская, 25 к2";"125466";="+74997131419";"";"";"";"";"37.383322";"55.903";"Культура / Искусство / Религия";"Музеи"
"198";"Музей Дворцового села Ильинское";"с. Ильинское";"Советская улица, 2";"143421";="+74955614332";"";"";"";"";"37.23417";"55.75849";"Культура / Искусство / Религия";"Музеи"
"199";"Музей VI съезда коммунистической партии Китая";"пос. Первомайское";"Парковая улица, 18";"108808";="+74999180861";"";"";"";"";"37.153977";"55.535724";"Культура / Искусство / Религия";"Музеи"
"200";"Сокол, музей";"Москва";"улица Электрозаводская, 24";"107023";="";"";"";"";"";"37.708158";"55.788999";"Культура / Искусство / Религия";"Музеи"
"201";"Музей памяти";"Москва";"Удальцова, 40";"119607";="";"";"";"";"";"37.493259";"55.684518";"Культура / Искусство / Религия";"Музеи"
"202";"Историко-художественный музей им. Б.И. Тимофеева";"с. Растуново";"Заря, 18";"142062";="";"";"";"";"";"37.839637";"55.275889";"Культура / Искусство / Религия";"Музеи"
"203";"Государственный центральный театральный музей им. Бахрушина А.А., Дирекция";"Москва";"Бахрушина, 29";"115054";="+74994847777, 88007777484";"";"http://www.gctm.ru";"https://vk.com/bahrushinmuseum";"";"37.637573";"55.732151";"Культура / Искусство / Религия";"Музеи"
"204";"Музейно-выставочный центр";"Электросталь";"Николаева, 30а";"144003";="+74965711572, +74965710288";"";"http://el-museum.ru";"https://vk.com/museum_and_exhibition";"";"38.438795";"55.783606";"Культура / Искусство / Религия";"Музеи"
"205";"Музей железнодорожных войск РФ";"дп. Загорянский";"улица Розы Люксембург, вл5";"141181";="+74965667386";"";"";"";"";"37.95089";"55.902608";"Культура / Искусство / Религия";"Музеи"
"206";"Слава русского оружия им. В.И. Полосухина, музей";"Москва";"Ясеневая улица, 35 к2";"115597";="";"";"";"";"";"37.738754";"55.607791";"Культура / Искусство / Религия";"Музеи"
"207";"Московский музей современного искусства, Мастерская музея";"Москва";"улица Зорге, 5 ст1";"123308";="+74956906870";"";"http://www.mmoma.ru";"https://vk.com/id77591204";"";"37.511076";"55.780864";"Культура / Искусство / Религия";"Музеи"
"208";"Музей-заповедник А.П. Чехова";"с. Новоселки";"село Новоселки, 60/1";"142326";="+74999410314, +74967276256, +74967276752";"";"http://chekhovmuseum.com";"";"";"37.541158";"55.127926";"Культура / Искусство / Религия";"Музеи"
"209";"Абрамцево, экологический центр";"Балашиха";"квартал Абрамцево, ст1";"143909";="+74957981709";"";"http://elkisland.ru";"";"";"37.82566";"55.837101";"Культура / Искусство / Религия";"Музеи"
"210";"Федеральный музей профессионального образования г. Подольск";"Подольск";"Парковая, 1";"142110";="+74967547104";"";"http://www.muz-prof.ru";"";"";"37.521286";"55.434646";"Культура / Искусство / Религия";"Музеи"
"211";"Московский дом Ахматовой, музей";"Москва";"Никитский переулок, 4а ст1";"125009";="";"";"";"";"";"37.610585";"55.757108";"Культура / Искусство / Религия";"Музеи"
"212";"Белая Дача, музей";"Котельники";"микрорайон Белая Дача, 1а";"140055";="+74955599666";"";"http://belaya-dacha.ru";"";"";"37.850418";"55.660544";"Культура / Искусство / Религия";"Музеи"
"213";"Музей истории гигиены труда и профпатологии, НИИ медицины труда им. академика Н.Ф. Измерова";"Москва";"проспект Будённого, 31";"105275";="+74959183010, +74953660977";"";"";"";"";"37.731479";"55.767304";"Культура / Искусство / Религия";"Музеи"
"214";"Музей Аэрофлота";"Химки";"Шереметьево аэропорт, к6";"125445";="+74995007233,,,3030, +74995007233,,,5582";"";"";"";"";"37.407756";"55.9827";"Культура / Искусство / Религия";"Музеи"
"215";"Музей землеведения";"Москва";"Ленинские Горы, 1";"119234";="+74959392976, +74959391415";"";"http://www.museum.msu.ru";"";"";"37.530641";"55.702895";"Культура / Искусство / Религия";"Музеи"
"216";"Московский музей современного искусства";"Москва";"Тверской бульвар, 9";"123104";="+74956906870";"";"http://www.mmoma.ru";"https://vk.com/id77591204";"";"37.599313";"55.759547";"Культура / Искусство / Религия";"Музеи"
"217";"3D GALLERY, музей скульптуры";"Химки";"Чапаева, 3а";"141402";="";"";"";"";"";"37.447943";"55.889923";"Культура / Искусство / Религия";"Музеи"
"218";"Музей истории науки и техники";"Москва";"Яковоапостольский переулок, 9 ст1";"105064";="+79104234042";"";"";"https://vk.com/mint.museum";"";"37.654459";"55.758792";"Культура / Искусство / Религия";"Музеи"
"219";"Музей истории газового хозяйства";"Москва";"Мрузовский переулок, 11 ст1";"105120";="88007007104";"";"http://mos-gaz.ru";"";"";"37.66775";"55.757424";"Культура / Искусство / Религия";"Музеи"
"220";"Музей кнута и пряника";"Москва";"Измайловское шоссе, 73ж";"105187";="+79859691404";"";"http://csmuseum.business.site";"";"";"37.750803";"55.794549";"Культура / Искусство / Религия";"Музеи"
"221";"Музей спортивной славы, район Лианозово";"Москва";"Алтуфьевское шоссе, 87";"127576";="+74992090995";"";"";"";"";"37.585604";"55.892068";"Культура / Искусство / Религия";"Музеи"
"222";"Царская охота, экологический центр";"Балашиха";"улица Лукино, 55в";"";="+74953238885";"";"";"https://vk.com/losiny_ostrov";"";"37.91195";"55.835368";"Культура / Искусство / Религия";"Музеи"
"223";"Егорьевский историко-художественный музей";"Егорьевск";"Советская, 58";"140301";="+74964024185";"";"";"";"";"39.031951";"55.384968";"Культура / Искусство / Религия";"Музеи"
"224";"Музеи наукограда Королёв, Усадьба Костино";"Королёв";"улица Ильича, 1";"141080";="+74955166066, +74955196265";"";"http://museumkorolev.ru";"https://vk.com/museumkorolev";"";"37.854868";"55.912632";"Культура / Искусство / Религия";"Музеи"
"225";"Музей мебели";"д. Лужки";"коттеджный посёлок Лужки-2, 2";"143541";="+79258416282, +79039689604";"";"";"";"";"36.964621";"55.85882";"Культура / Искусство / Религия";"Музеи"
"226";"Лыткаринский историко-краеведческий музей, Выставочный зал";"Лыткарино";"Коммунистическая, 10";"140081";="+74955524980";"";"http://lytkarinomuseum.ru";"https://vk.com/lytkarinomuseum";"";"37.900021";"55.581274";"Культура / Искусство / Религия";"Музеи"
"227";"Лыткаринский историко-краеведческий музей, Интерактивный оптический центр";"Лыткарино";"Парковая, 1а";"140080";="+74955524980";"";"http://lytkarinomuseum.ru";"https://vk.com/lytkarinomuseum";"";"37.918948";"55.578548";"Культура / Искусство / Религия";"Музеи"
"228";"Дом-музей Героя Советского Союза И.И. Иванова";"д. Чижово";"деревня Чижово, 65";"141196";="";"";"http://geroy-ivanov.narod.ru";"";"";"38.064554";"55.956375";"Культура / Искусство / Религия";"Музеи"
"229";"Музей истории, РЭУ им. Г.В. Плеханова";"Москва";"Стремянный переулок, 28 ст1";"115054";="+74992379231";"";"http://rea.ru";"";"";"37.629131";"55.727359";"Культура / Искусство / Религия";"Музеи"
"230";"Музей Апрелевского завода граммофонных пластинок";"Апрелевка";"Августовская улица, 24а";"143360";="";"";"";"";"";"37.073291";"55.551974";"Культура / Искусство / Религия";"Музеи"
"231";"Центральный музей им. Б.В. Зимина";"Москва";"улица Куусинена, 19а";"125252";="+74951234718";"";"http://museum-ksrk.ru";"";"";"37.511519";"55.787765";"Культура / Искусство / Религия";"Музеи"
"232";"Мемориальный музей Ю.А. Сенкевича";"Москва";"Селезнёвская, 11 ст3";"127473";="+74956843480, +79168218284";"";"";"";"";"37.605081";"55.781097";"Культура / Искусство / Религия";"Музеи"
"233";"Музей памяти Лопасненского края";"Чехов";"Чехова, 28";"142306";="+74967268578, +74967267770";"";"http://мплк.рф";"";"";"37.460374";"55.140852";"Культура / Искусство / Религия";"Музеи"
"234";"Сокольники и флот, музей";"Москва";"улица Короленко, 2/23 к6";"107014";="+79036790302, +74959648107";"";"";"";"";"37.687233";"55.797855";"Культура / Искусство / Религия";"Музеи"
"235";"Музей-ризница, Николо-Угрешский монастырь";"Дзержинский";"площадь Святителя Николая, 1 к19";"140090";="+74955512643";"";"http://ugresha.org";"";"";"37.839878";"55.622425";"Культура / Искусство / Религия";"Музеи"
"236";"Военно-исторический музей Тарутино";"с. Тарутино";"Кутузовская, 1а";"249165";="+74843221320";"";"";"";"";"36.930211";"55.111426";"Культура / Искусство / Религия";"Музеи"
"237";"Национальный музей радио";"с. Петровское";"село Петровское, 82";"143395";="+79057400943";"";"";"";"";"36.984479";"55.534245";"Культура / Искусство / Религия";"Музеи"
"238";"Троицкий музей имени М.Н. Лялько";"Троицк";"улица Нагорная, 9";"108841";="+74958430220";"";"http://troick-museum.ru";"";"";"37.299196";"55.49171";"Культура / Искусство / Религия";"Музеи"
"239";"Родные истоки, музей";"Москва";"Текстильщиков 8-я, 14";"109129";="+74991791101";"";"";"";"";"37.746592";"55.70194";"Культура / Искусство / Религия";"Музеи"
"240";"Музей, Финансовый университет при Правительстве РФ";"Москва";"Ленинградский проспект, 49";"125057";="+74952495226";"";"http://fa.ru";"";"";"37.529191";"55.800246";"Культура / Искусство / Религия";"Музеи"
"241";"В.Д. Берестов и его окружение, литературный музей";"Москва";"Седова, 4 к1";"129323";="+79166141578";"";"http://muz-berestov.jimdo.com";"";"";"37.641688";"55.852913";"Культура / Искусство / Религия";"Музеи"
"242";"Живая история, музей";"Москва";"Автозаводская, 20 ст5";"115280";="+79055481101";"";"";"";"";"37.63858";"55.706152";"Культура / Искусство / Религия";"Музеи"
"243";"Пушкари, военно-исторический клуб";"д. Огуднево";"деревня Огуднево, 1/1";"141135";="+79067866452";"";"http://clubpushkari.ru";"https://vk.com/rekrutskoedepo_1812";"";"38.277991";"56.067935";"Культура / Искусство / Религия";"Музеи"
"244";"Народный музей музыкальных инструментов";"Москва";"Сущёвская, 14";"127030";="+79629852013";"";"http://musmuseum.ru";"https://vk.com/musmuseum";"";"37.602426";"55.781326";"Культура / Искусство / Религия";"Музеи"
"245";"Музей подстаканников и принадлежностей для чаепития";"Мытищи";"Благовещенская, 9";"141018";="+79652624525, +79851842627";"";"http://музей-подстаканников.рф";"";"";"37.710144";"55.900477";"Культура / Искусство / Религия";"Музеи"
"246";"Ногинский музейно-выставочный центр";"Ногинск";"Рогожская, 74";"142400";="+79465145714";"";"";"";"";"38.43883";"55.856379";"Культура / Искусство / Религия";"Музеи"
"247";"Выставочный зал";"Электросталь";"Чернышевского, 38";"144003";="+74965711572, +74965746528";"";"http://el-museum.ru";"https://vk.com/museum_and_exhibition";"";"38.437298";"55.782479";"Культура / Искусство / Религия";"Музеи"
"248";"Музейно-выставочный центр";"Электросталь";"Расковой, 37";"144003";="+74965711572";"";"http://el-museum.ru";"https://vk.com/museum_and_exhibition";"";"38.436282";"55.782179";"Культура / Искусство / Религия";"Музеи"
"249";"Орехово-Зуевский историко-краеведческий городской музей";"Ликино-Дулёво";"Октябрьская, 42";"142672";="";"";"http://ozmuseum.ru";"https://vk.com/ozmuseum";"";"38.956886";"55.714783";"Культура / Искусство / Религия";"Музеи"
"250";"Мемориальный кабинет-квартира академика Н.Н. Семенова";"Черноголовка";"Третья, 7";"142432";="+74965225788, +79037350442";"";"";"";"";"38.392452";"56.007334";"Культура / Искусство / Религия";"Музеи"
"251";"Музей истории г. Бронницы";"Бронницы";"Советская, 71";"140170";="+74964665986, +79854216771";"";"http://bronmus.ru";"https://vk.com/bronmus";"";"38.267946";"55.424779";"Культура / Искусство / Религия";"Музеи"
"252";"Музей скорой помощи, Станция скорой и неотложной медицинской помощи им. Пучкова А.С.";"Москва";"1-й Коптельский переулок, 3 ст1";"129090";="";"";"http://mos03.ru/rubrics/about-the-museum/informatsiya-o-muzee-ssinmp-im-a-s-puchkova/";"";"";"37.63759";"55.77363";"Культура / Искусство / Религия";"Музеи"
"253";"Красная поляна, музей";"Лобня";"Спортивная, 3";"141734";="+79852061513";"";"";"https://vk.com/krasnajapoljanamusey";"";"37.422077";"56.025672";"Культура / Искусство / Религия";"Музеи"
"254";"Коломенский завод, музей";"Коломна";"Партизан, 42";"140408";="+74966138354";"";"";"";"";"38.803245";"55.088489";"Культура / Искусство / Религия";"Музеи"
"255";"Экспозиция меда и пчеловодства, Дирекция природных территорий Кузьминки-Люблино";"Москва";"Заречье, 10 ст1";"109472";="+74953773593, +74952584560";"";"http://kuzpark.ru";"https://vk.com/kuzpark";"";"37.788135";"55.693389";"Культура / Искусство / Религия";"Музеи"
"256";"Центр изучения истории и наследия Златоустовского монастыря, Храм святых бессребреников и чудотворцев Космы и Дамиана на Маросейке";"Москва";"Малый Златоустинский переулок, 5 ст1";"101000";="+79859669363, +79165640645";"";"http://zlatoustmonastyr.ru";"https://vk.com/club182018187";"";"37.634255";"55.759042";"Город / Власть";"Общественные организации, Музеи, Организация экскурсий по городу"
"257";"Музей Пожарного дела Богородска-Ногинска";"Ногинск";"шоссе Энтузиастов, 129";"142401";="+74965142864, +74965143191";"";"";"";"";"38.491923";"55.858431";"Культура / Искусство / Религия";"Музеи"
"258";"Музей истории народного образования г. Коломна";"Коломна";"улица Октябрьской революции, 232";"140400";="+74966186292, +74966133353";"";"";"";"";"38.760152";"55.098261";"Культура / Искусство / Религия";"Музеи"
"259";"Музей истории УВД, УВД по Воскресенскому муниципальному району Московской области";"Воскресенск";"улица Андреса, 45";"140204";="+74964459047";"";"";"";"";"38.731208";"55.34018";"Культура / Искусство / Религия";"Музеи"
"260";"Разрушенный, но живой, музей истории Московского Златоустовского монастыря";"Москва";"Малый Златоустинский переулок, 5 ст1";"101000";="+79859669363, +79165640645";"";"http://zlatoustmonastyr.ru";"https://vk.com/club182018187";"";"37.634255";"55.759042";"Культура / Искусство / Религия";"Музеи, Организация экскурсий по городу"
"261";"Галерея - Картины художников, интерактивный музей";"Пушкино";"Набережная улица, 35 к7";"141205";="+74993489298";"";"http://posterclub.ru/";"";"";"37.860239";"56.020296";"Культура / Искусство / Религия";"Музеи, Багетные мастерские, Полиграфические услуги, Копировальные услуги, Оперативная полиграфия, Фото на документы, Широкоформатная печать, Фотоцентры"
"262";"Музей наличника";"Киржач";"Гагарина, 36";"601010";="+79612563020, +74923729181";"";"";"";"";"38.874132";"56.162199";"Культура / Искусство / Религия";"Музеи"
"263";"Дом аргуна, музей";"Киржач";"Ленинградская, 15Б";"601010";="+74923729181, +79612563020, +79066149393";"";"";"https://vk.com/club135035242";"";"38.870678";"56.159568";"Культура / Искусство / Религия";"Музеи"
"264";"Музей истории МОНИКИ";"Москва";"Щепкина, 61/2 ст55";"129110";="+74996740709";"";"http://www.monikiweb.ru";"";"";"37.625766";"55.787375";"Культура / Искусство / Религия";"Музеи"
"265";"Московская оружейная фабрика Бр. Юдиных, музей";"Москва";"2-й Лихачёвский переулок, 9 ст1";"125438";="+74951428056";"";"http://mof.group";"https://vk.com/moscow_arms_factory";"";"37.536507";"55.846447";"Культура / Искусство / Религия";"Музеи"
"266";"Шаболовский Смотритель, историко-краеведческая студия";"Москва";"улица Большая Грузинская, 39";"123056";="+79035604163";"";"";"";"";"37.581269";"55.770586";"Культура / Искусство / Религия";"Музеи"
"267";"Нима, музей скульптуры";"Москва";"Барашёвский переулок, 4";"101000";="+79855293697";"";"";"";"";"37.648887";"55.759324";"Культура / Искусство / Религия";"Музеи"
"268";"Радогостье, клуб народной культуры";"";"СНТ Здоровье, 72";"";="+79157562175";"";"";"";"";"39.094258";"55.97761";"Культура / Искусство / Религия";"Музеи"
"269";"Экскурсионное бюро, Государственный музей Л.Н. Толстого";"Москва";"улица Пречистенка, 11/8";"119034";="+74956377410, +74997669328";"";"http://tolstoymuseum.ru";"https://vk.com/tolstoymuseum";"";"37.597127";"55.742797";"Культура / Искусство / Религия";"Музеи"
"270";"Мазмус, интерактивный экомузей";"Егорьевск";"Меланжистов, 3Б";"140301";="+79258787100";"";"";"https://vk.com/muzmus";"";"39.02331";"55.385787";"Культура / Искусство / Религия";"Музеи"
"271";"Степановский краеведческий музей";"д. Степановка";"деревня Степановка, 103г";"142650";="+79162326128";"";"http://ok4220979.wixsite.com/stepanovka";"https://vk.com/izbamuseum";"";"39.042574";"55.536428";"Культура / Искусство / Религия";"Музеи"
"272";"Арт-Изба, музей";"д. Аверкиево";"деревня Аверкиево, 63";"142516";="+79104341132";"";"http://art-izbaaverkievo.ru";"https://vk.com/art_izba_averkievo";"";"38.636557";"55.653107";"Культура / Искусство / Религия";"Музеи, Художественные мастерские"
"273";"Музей А.Ф. Малявко";"Пушкино";"Чеховская улица, 19";"141230";="+79013552352";"";"";"";"";"37.834352";"55.986966";"Культура / Искусство / Религия";"Музеи"
"274";"Музей народного быта";"";"СНТ Здоровье, 72";"";="+79157561488";"";"";"https://vk.com/club160409701";"";"39.094419";"55.977566";"Культура / Искусство / Религия";"Музеи"
"275";"Музей русских самоваров";"Ивантеевка";"Нижняя 1-я, 29";"141281";="+79060657055";"";"";"";"";"37.920407";"55.967107";"Культура / Искусство / Религия";"Музеи"
"276";"Музей, Храм иконы Божией Матери всех скорбящих радость на большой Ордынке";"Москва";"3-й Кадашёвский переулок, 3 ст6";"115035";="";"";"http://ordynka.com/index.php/prihod/muzeum";"";"";"37.623972";"55.741682";"Культура / Искусство / Религия";"Музеи"
"277";"Мемориальный кабинет Гайдара, музей";"Москва";"Газетный переулок, 5 ст1";"125009";="+74956294713";"";"http://www.iep.ru/ru/e-t-gaydar/muzey-egora-gaydara.php";"https://vk.com/gaidarinstitute";"";"37.607213";"55.757556";"Культура / Искусство / Религия";"Музеи"
"278";"Дача-музей им. А.С. Новикова-Прибоя";"дп. Черкизово";"Береговая, 7";"141221";="";"";"";"";"";"37.809035";"55.968187";"Культура / Искусство / Религия";"Музеи"
"279";"Музей иконописи и реставрации";"Киржач";"Гагарина, 26";"601010";="+79157635826";"";"";"";"";"38.872624";"56.161472";"Культура / Искусство / Религия";"Музеи"
"280";"Горький Плюс, музей";"Москва";"улица Сергея Эйзенштейна, 8";"129226";="+74991816200";"";"";"";"";"37.638454";"55.833144";"Культура / Искусство / Религия";"Музеи"
"281";"Вера и люди в Советском Союзе, музей";"Москва";"Крапивенский переулок, 4 ст2";"127051";="+79168897250";"";"http://podspudom.ru";"https://vk.com/club21515963";"";"37.617651";"55.766879";"Культура / Искусство / Религия";"Музеи"
"282";"Музейный центр";"Москва";"улица Изюмская, 61 к1";"117624";="+74997431168, +79197759983";"";"http://andreevleonid.ru";"";"";"37.561735";"55.542046";"Культура / Искусство / Религия";"Музеи"
"283";"Музей";"пос. Развилка";"Проектируемый 5537-й проезд, вл15 ст1";"142717";="";"";"";"https://vk.com/museum_vniigaz";"";"37.737231";"55.592392";"Культура / Искусство / Религия";"Музеи"
"284";"Музей истории МФТИ";"Долгопрудный";"Первомайская, 5";"141701";="+74954088777, +79262773839";"";"http://mipt-museum.ru";"https://vk.com/mfti_museum";"";"37.520649";"55.929498";"Культура / Искусство / Религия";"Музеи"
"285";"Дом гармони";"Орехово-Зуево";"улица Островского, 68";"142608";="";"";"http://svistok-oz.ru";"";"";"38.945299";"55.810473";"Культура / Искусство / Религия";"Музеи"
"286";"Локомотив истории, музей";"рп. Большие Вязёмы";"Большие Вязёмы рп., 144";"143050";="+79851350155";"";"";"";"";"36.978876";"55.630391";"Культура / Искусство / Религия";"Музеи"
"287";"1000 и 1 кошка";"Москва";"проспект Мира (ВДНХ), 119 ст519";"129223";="+79031797808";"";"";"";"";"37.631138";"55.832993";"Культура / Искусство / Религия";"Музеи"
"288";"Новое старое, музей живой архаики";"с. Воздвиженское";"Воздвиженское село, 65а";"141362";="+79035337524";"";"http://novoestaroe.ru";"https://vk.com/novoestaroezodchestvo";"";"38.054539";"56.195496";"Культура / Искусство / Религия";"Музеи"
"289";"Космонавтика и авиация, музей";"Москва";"проспект Мира (ВДНХ), 119 ст34";"129223";="+74955443400";"";"http://cosmos.vdnh.ru";"https://vk.com/cosmos_vdnh";"";"37.622153";"55.834857";"Культура / Искусство / Религия";"Музеи"
"290";"Дом Н.В. Гоголя, мемориальный музей";"Москва";"Никитский бульвар, 7а";"119019";="+74956905881";"";"http://www.domgogolya.ru";"https://vk.com/domgogolya";"";"37.599881";"55.75408";"Культура / Искусство / Религия";"Музеи, Библиотеки"
"291";"Точка-G, музей эротического искусства";"Москва";"улица Новый Арбат, 15 ст1";"119019";="88006005808";"";"http://tochkag.net";"https://vk.com/museum_tochka_g";"";"37.591942";"55.751785";"Культура / Искусство / Религия";"Музеи"
"292";"Музей техники Вадима Задорожного";"пос. Архангельское";"Ильинское шоссе 4 км, ст9";"143420";="+74956623818";"";"http://www.tmuseum.ru";"https://vk.com/technicalmuseum";"";"37.296576";"55.796163";"Культура / Искусство / Религия";"Музеи"
"293";"Центральный музей вооруженных сил Российской Федерации";"Москва";"улица Советской Армии, 2 ст1";"129272";="+74956811880, +74956816303, +74956814877";"";"http://taplink.cc/cmaf";"https://vk.com/cmaf_rf";"";"37.616853";"55.784914";"Культура / Искусство / Религия";"Музеи"
"294";"Петровский путевой дворец";"Москва";"Ленинградский проспект, 40";"125167";="+74952665974, +74956377005";"";"http://mosmuseum.ru/tours/p/petrovskiy-putevoy-dvorets";"https://vk.com/moscowmuseum";"";"37.551945";"55.793392";"Культура / Искусство / Религия";"Музеи, Интересные здания"
"295";"Государственный музей архитектуры им. А.В. Щусева";"Москва";"улица Воздвиженка, 5/25 ст1";"119019";="+74956912109, +74956900551, +74956971306";"";"http://muar.ru";"https://vk.com/archmuseum";"";"37.606938";"55.752614";"Культура / Искусство / Религия";"Музеи"
"296";"Дом-музей Марины Цветаевой";"Москва";"Борисоглебский переулок, 6 ст1";"121069";="+79055848490, +74956975369, +74956953543";"";"http://www.dommuseum.ru";"https://vk.com/domtsvetaevoi";"";"37.590035";"55.754252";"Культура / Искусство / Религия";"Музеи, Интересные здания"
"297";"Музей киноконцерна Мосфильм";"Москва";"Мосфильмовская улица, 1 ст21";"119285";="+74991439599";"";"http://www.mosfilm.ru";"https://vk.com/mosfilm_official";"";"37.530512";"55.722746";"Культура / Искусство / Религия";"Музеи"
"298";"Усадьба Середниково, музей";"пос. санатория "Мцыри"";"посёлок санатория Мцыри, вл1";"141421";="+79253043507, +79251629053";"";"http://www.serednikovo.su";"";"";"37.24143";"55.929347";"Культура / Искусство / Религия";"Музеи"
"299";"Дом Бурганова, музей";"Москва";"Большой Афанасьевский переулок, 15 ст9";"119019";="+74956950429, +74956950418";"";"http://www.burganov.ru";"https://vk.com/dom_burganova";"";"37.597341";"55.746571";"Культура / Искусство / Религия";"Музеи"
"300";"Эльдар, киноклуб";"Москва";"Ленинский проспект, 105";"119421";="+74957359968";"";"http://kinoklub-eldar.ru";"https://vk.com/kinoklubeldar";"";"37.513706";"55.665538";"Досуг / Развлечения / Общественное питание";"Концертные залы, Кинотеатры, Аренда площадок для культурно-массовых мероприятий, Музеи, Интересные здания"
"301";"Московский государственный объединенный музей-заповедник территории Измайлово";"Москва";"Баумана городок, 2 ст14";"105037";="+74991651336, +74991651236";"";"http://www.mgomz.ru";"https://vk.com/mgomz";"";"37.763322";"55.792085";"Культура / Искусство / Религия";"Музеи, Интересные здания"
"302";"Мемориальный музей-квартира им. А.М. Горького";"Москва";"улица Малая Никитская, 6/2 ст5";"121069";="+74956905130, +74956900535, +74956973241";"";"http://museum.imli.ru";"";"";"37.596423";"55.758267";"Культура / Искусство / Религия";"Музеи, Интересные здания"
"303";"Государственный центральный музей современной истории России";"Москва";"Тверская улица, 21 ст1";"125009";="+74956995217, +74956995458, +74956996724";"";"http://www.sovrhistory.ru";"https://vk.com/sovr.history";"";"37.60174";"55.766196";"Культура / Искусство / Религия";"Музеи, Интересные здания"
"304";"Государственный Биологический музей им. К.А. Тимирязева";"Москва";"Малая Грузинская, 15";"123557";="+74992523681";"";"http://www.gbmt.ru";"https://vk.com/club18506554";"";"37.571609";"55.764257";"Культура / Искусство / Религия";"Музеи"
"305";"Центральный музей Военно-Воздушных Сил РФ";"рп. Монино";"Музейная, 1";"141170";="+74962501189, +74957864412";"";"http://www.cmvvs.ru";"https://vk.com/cmvvs_official";"";"38.188832";"55.830906";"Культура / Искусство / Религия";"Музеи"
"306";"Музей Зураба Церетели";"Москва";"улица Большая Грузинская, 15";"123557";="+74957774850, +74957774859";"";"http://mmoma.ru";"";"";"37.577037";"55.766158";"Культура / Искусство / Религия";"Музеи"
"307";"Всероссийский музей декоративного искусства";"Москва";"Делегатская, 3 ст1";"127473";="+74999733214, +74956090146, +79295757506";"";"http://damuseum.ru";"https://vk.com/damuseum";"";"37.609841";"55.774638";"Культура / Искусство / Религия";"Музеи"
"308";"Новый Иерусалим, музейно-выставочный комплекс";"Истра";"улица Ново-Иерусалимская Набережная, 1";"143500";="+74983172910, +74983140236";"";"http://njerusalem.ru";"";"";"36.844322";"55.926683";"Культура / Искусство / Религия";"Музеи, Интересные здания"
"309";"Геологический Государственный музей им. В.И. Вернадского";"Москва";"улица Моховая, 11 к11";"125009";="+74956920943";"";"http://www.sgm.ru";"https://vk.com/sgm_ran";"";"37.612626";"55.755892";"Культура / Искусство / Религия";"Музеи"
"310";"Коломенская пастила, музей забытого вкуса";"Коломна";"Посадская, 13а";"140415";="+74952281110, +79850697518, 88003507908";"";"http://kolomnapastila.ru";"https://vk.com/kolomnapastila";"";"38.7699";"55.104558";"Культура / Искусство / Религия";"Музеи"
"311";"Музей советских игровых автоматов";"Москва";"улица Рождественка, 12";"107031";="+74956284515";"";"http://www.15kop.ru";"https://vk.com/15kop";"";"37.623757";"55.764384";"Культура / Искусство / Религия";"Музеи"
"312";"Минералогический музей им. А.Е. Ферсмана";"Москва";"Ленинский проспект, 18 к2";"119071";="+74959543900, +79166298052";"";"http://www.fmm.ru";"https://vk.com/minmuseum";"";"37.592497";"55.718925";"Культура / Искусство / Религия";"Музеи"
"313";"Buckets empire, музей японских ретро автомобилей";"Москва";"Ташкентская, 28 ст1";"109472";="+79166376054, +79259929416";"";"";"https://vk.com/buckets_empire";"";"37.806485";"55.699639";"Культура / Искусство / Религия";"Музеи"
"314";"Российский национальный музей музыки";"Москва";"улица Фадеева, 4";"125047";="+74956056515";"";"http://music-museum.ru";"https://vk.com/musicmusem_ru";"";"37.599675";"55.774416";"Культура / Искусство / Религия";"Музеи"
"315";"Царицыно, Большой дворец";"Москва";"Дольская улица, 1 ст6";"115569";="+74953224433";"";"http://tsaritsyno-museum.ru";"https://vk.com/tsaritsynomuseum";"";"37.682165";"55.615467";"Культура / Искусство / Религия";"Музеи"
"316";"Музей Яндекса";"Москва";"улица Тимура Фрунзе, 11 ст13";"119021";="+74991101133";"";"http://yandex.ru/museum";"";"";"37.588074";"55.735054";"Культура / Искусство / Религия";"Музеи"
"317";"Патриот, музейный комплекс";"";"Парк Патриот, ст3";"";="88007070107";"";"http://patriotp.ru";"https://vk.com/parkpatriot";"";"36.817001";"55.56332";"Культура / Искусство / Религия";"Музеи"
"318";"Московский музей современного искусства";"Москва";"Ермолаевский переулок, 17 ст1";"123001";="+74956906870";"";"http://www.mmoma.ru";"https://vk.com/id77591204";"";"37.592268";"55.765528";"Культура / Искусство / Религия";"Музеи"
"319";"Бункер-703, музей современной фортификации";"Москва";"2-й Новокузнецкий переулок, 14 ст1";"115184";="+79265588707";"";"http://bunker703.ru";"https://vk.com/bunker703";"";"37.630318";"55.734381";"Культура / Искусство / Религия";"Музеи"
"320";"Музей Москвы, музейное объединение";"Москва";"Манежная площадь, 1а";"125009";="+74956920020, +74956921567";"";"http://mosmuseum.ru";"https://vk.com/muzarhmos";"";"37.617301";"55.756252";"Культура / Искусство / Религия";"Музеи, Интересные здания"
"321";"Музей Восстания Машин";"Москва";"Берсеневский переулок, 2 ст1";"119072";="+74956468652";"";"http://msk.musbot.ru";"";"";"37.609393";"55.740981";"Культура / Искусство / Религия";"Музеи"
"322";"Люблино, Московский объединенный музей-заповедник";"Москва";"Летняя улица, 1 к1";"109387";="+74953501553, +74997227189";"";"http://park-kuzminki.ru/lublino/";"https://vk.com/mgomz";"";"37.743355";"55.688529";"Культура / Искусство / Религия";"Музеи"
"323";"Дом-музей В.М. Васнецова";"Москва";"переулок Васнецова, 13 ст1";"129090";="+74956811329";"";"";"";"";"37.626313";"55.776737";"Культура / Искусство / Религия";"Музеи, Интересные здания"
"324";"Государственный музей обороны Москвы";"Москва";"Мичуринский проспект, Олимпийская деревня, 3";"119602";="+74992334207, +74992334206, +74954300549, +74992334204";"";"http://www.gmom.ru";"https://vk.com/gmom_museum";"";"37.467559";"55.676711";"Культура / Искусство / Религия";"Музеи"
"325";"Горки Ленинские, государственный исторический музей-заповедник";"рп. Горки Ленинские";"посёлок Горки Ленинские, 1 ст8";"142712";="+74955489309, +74955489497";"";"http://new.mgorki.ru";"https://vk.com/gorkilenpublic";"";"37.764924";"55.504571";"Культура / Искусство / Религия";"Музеи"
"326";"Музей-калачная";"Коломна";"Зайцева, 14";"140400";="88003507908";"";"http://kolomnakalach.ru";"https://vk.com/kolomna.kalach";"";"38.763823";"55.105785";"Культура / Искусство / Религия";"Музеи"
"327";"Музей-квартира А.С. Пушкина";"Москва";"улица Арбат, 53 ст1";"119002";="+74992419295";"";"http://www.pushkinmuseum.ru";"https://vk.com/club41276547";"";"37.585856";"55.747458";"Культура / Искусство / Религия";"Музеи, Интересные здания"
"328";"Хамовники, музей-усадьба Л.Н. Толстого";"Москва";"улица Льва Толстого, 21 ст1";"119021";="+74992469444";"";"http://tolstoymuseum.ru";"https://vk.com/tolstoymuseum";"";"37.585848";"55.734292";"Культура / Искусство / Религия";"Музеи"
"329";"Hyundai motorstudio";"Москва";"улица Новый Арбат, 21 ст1";"119019";="+74956621180";"";"";"https://vk.com/hyundairussia";"";"37.584634";"55.7522";"Строительство / Недвижимость / Ремонт";"Коворкинг, Музеи, Библиотеки"
"330";"Научно-исследовательский зоологический музей, МГУ им. М.В. Ломоносова";"Москва";"улица Большая Никитская, 2";"125009";="+74956293948";"";"http://zmmu.msu.ru";"https://vk.com/clubzmmu";"";"37.60896";"55.755747";"Культура / Искусство / Религия";"Музеи"
"331";"МИИТ, дворец культуры";"Москва";"Новосущёвский переулок, 6 ст1";"127018";="+79267869921";"";"http://modernists.ru";"https://vk.com/artproject_moskva";"";"37.60551";"55.789896";"Культура / Искусство / Религия";"Музеи"
"332";"Палаты бояр Романовых, музей";"Москва";"улица Варварка, 10";"109012";="+74956981256";"";"http://www.shm.ru";"https://vk.com/gim";"";"37.629169";"55.752737";"Культура / Искусство / Религия";"Музеи"
"333";"Музей уникальных кукол";"Москва";"улица Покровка, 13 ст2";"101000";="+74956256405";"";"http://dollmuseum.ru";"https://vk.com/doll.museum";"";"37.64456";"55.75932";"Культура / Искусство / Религия";"Музеи"
"334";"Успенский собор";"Москва";"Кремль, 1Б";"109012";="+74956970349";"";"http://www.kreml.ru";"https://vk.com/kremlinmuseums";"";"37.616892";"55.750918";"Культура / Искусство / Религия";"Музеи, Интересные здания"
"335";"Остафьево русский Парнас, государственный музей-усадьба";"с. Остафьево";"Троицкая, 1а";"108824";="+74958678360";"";"http://www.ostafyevomuseum.ru";"";"";"37.501427";"55.496088";"Культура / Искусство / Религия";"Музеи"
"336";"Piligrim Porto, киногород-музей";"пос. санатория "Мцыри"";"посёлок санатория Мцыри, вл4";"141421";="+74955320503, +79253114823";"";"http://www.piligrimporto.ru";"https://vk.com/piligrimporto";"";"37.233868";"55.925793";"Культура / Искусство / Религия";"Музеи"
"337";"Дом русского зарубежья им. А. Солженицына, музей";"Москва";"Нижняя Радищевская, 2";"109240";="+74951378387";"";"http://www.domrz.ru";"https://vk.com/domrz";"";"37.651792";"55.742919";"Культура / Искусство / Религия";"Музеи"
"338";"Московский музей современного искусства";"Москва";"улица Большая Грузинская, 15";"123557";="+74956906870";"";"http://www.mmoma.ru";"https://vk.com/id77591204";"";"37.577037";"55.766158";"Культура / Искусство / Религия";"Музеи"
"339";"Музей Московского метрополитена";"Москва";"Пресненская набережная, 4 ст1";"123112";="+74993216461";"";"";"https://vk.com/profmetro";"";"37.543686";"55.7486";"Культура / Искусство / Религия";"Музеи"
"340";"Дом-музей Фёдора Конюхова";"Москва";"Садовническая улица, 77 ст4";"115035";="+74959517501";"";"";"";"";"37.643836";"55.73556";"Культура / Искусство / Религия";"Музеи"
"341";"Музей В.А. Тропинина и Московских художников его времени";"Москва";"Щетининский переулок, 10 ст1";"119017";="+74959539750, +74959592220, +74959591103, +74959591216";"";"http://museum-tropinina.ru";"https://vk.com/va_tropinin";"";"37.622883";"55.733767";"Культура / Искусство / Религия";"Музеи"
"342";"Царицыно, Третий Кавалерский корпус";"Москва";"Дольская улица, 1 ст3";"115569";="+74953224433";"";"http://tsaritsyno-museum.ru";"https://vk.com/tsaritsynomuseum";"";"37.679744";"55.617424";"Культура / Искусство / Религия";"Музеи, Интересные здания"
"343";"Буран, интерактивный музейный комплекс";"Москва";"проспект Мира (ВДНХ), 119 ст333";"129223";="+74955443400";"";"http://vdnh.ru";"https://vk.com/vdnh";"";"37.623103";"55.831969";"Культура / Искусство / Религия";"Музеи"
"344";"Музей-Усадьба Муравьевых-Апостолов";"Москва";"улица Старая Басманная, 23/9 ст1";"105066";="+74992679866, +74992657636";"";"http://www.mahm.ru";"";"";"37.664659";"55.767396";"Культура / Искусство / Религия";"Музеи"
"345";"Музейная фабрика пастилы";"Коломна";"Полянская, 4";"140415";="+79104943636, +79104943737";"";"http://kolomnapastila.com";"https://vk.com/pastilafactory";"";"38.770296";"55.102302";"Культура / Искусство / Религия";"Музеи"
"346";"Есенин-центр, Московский Государственный музей С.А. Есенина";"Москва";"Большой Строченовский переулок, 24 ст2";"115054";="+74956887990, +74959542077";"";"http://jivo.chat/BUfwBceDVU";"https://vk.com/club38865256";"";"37.63071";"55.726693";"Культура / Искусство / Религия";"Музеи"
"347";"Мемориальный музей А.Н. Скрябина";"Москва";"Большой Николопесковский переулок, 11 ст1";"119002";="+74992411901";"";"http://scriabinmuseum.ru";"https://vk.com/scriabinmuseum";"";"37.59024";"55.750889";"Культура / Искусство / Религия";"Музеи"
"348";"Музей советских игровых автоматов";"Москва";"проспект Мира (ВДНХ), 119 ст57";"129223";="+74956284515";"";"http://www.15kop.ru";"https://vk.com/15kop";"";"37.626327";"55.833776";"Культура / Искусство / Религия";"Музеи"
"349";"Музей оптических иллюзий, г. Москва";"Москва";"Косыгина, 28/2";"119334";="+74951669926";"";"http://museumofillusions.moscow";"";"";"37.545006";"55.7082";"Культура / Искусство / Религия";"Музеи"
"350";"Музей истории военно-морского флота";"Москва";"улица Свободы, 56";"125364";="+79265221596, +74956407356, +74956407355";"";"http://mosparks.ru/vmf/";"https://vk.com/museum_of_navy";"";"37.45609";"55.852322";"Культура / Искусство / Религия";"Музеи"
"351";"Московский музей современного искусства";"Москва";"Гоголевский бульвар, 10 ст1";"119019";="+74956906870";"";"http://www.mmoma.ru";"https://vk.com/id77591204";"";"37.600236";"55.747082";"Культура / Искусство / Религия";"Музеи"
"352";"Дом на набережной, музей";"Москва";"улица Серафимовича, 2";"119072";="+74959594936";"";"http://dnnmuseum.ru";"";"";"37.611956";"55.745269";"Культура / Искусство / Религия";"Музеи"
"353";"Дом-музей Б.Л. Пастернака";"пос. ДСК "Мичуринец"";"Павленко, 3";"108816";="+79261182858";"";"http://goslitmuz.ru/museums/dom-muzey-b-l-pasternaka/";"https://vk.com/public53536846";"";"37.333919";"55.661358";"Культура / Искусство / Религия";"Музеи, Интересные здания"
"354";"Свиблово, музей-усадьба";"Москва";"Лазоревый проезд, 15 ст1";"129323";="+79153904074";"";"http://usadba.troitsasviblovo.ru";"";"";"37.631748";"55.853652";"Культура / Искусство / Религия";"Музеи"
"355";"Музей московского художественного театра им А.П. Чехова";"Москва";"Камергерский переулок, 3а ст2";"125009";="+74956923866";"";"http://museummhat.ru";"https://vk.com/museummhat";"";"37.613849";"55.76017";"Культура / Искусство / Религия";"Музеи"
"356";"Старый Английский двор";"Москва";"улица Варварка, 4а";"109012";="+74955310526";"";"http://www.zaryadyepark.ru/services/staryy-angliyskiy-dvor/";"https://vk.com/zaryadyepark";"";"37.626918";"55.752257";"Культура / Искусство / Религия";"Музеи, Интересные здания"
"357";"Дом-музей К.И. Чуковского";"пос. ДСК "Мичуринец"";"Серафимовича, 3";"108816";="+74956955308";"";"http://goslitmuz.ru/ru/chukovsky-museum";"";"";"37.330703";"55.65868";"Культура / Искусство / Религия";"Музеи, Интересные здания"
"358";"Московский дом Достоевского, музейный центр";"Москва";"Достоевского, 2";"127473";="+74956955308";"";"http://goslitmuz.ru";"";"";"37.610453";"55.783456";"Культура / Искусство / Религия";"Музеи"
"359";"Государственный центральный музей кино";"Москва";"проспект Мира (ВДНХ), 119 ст36";"129223";="+74951503610, +74951503600,,,111";"";"http://www.museikino.ru";"https://vk.com/cinemuseum";"";"37.61695";"55.839436";"Культура / Искусство / Религия";"Музеи"
"360";"Музей им. И.С. Тургенева";"Москва";"улица Остоженка, 37/7 ст1";"119034";="+74956951078";"";"http://www.pushkinmuseum.ru";"https://vk.com/club41276547";"";"37.596329";"55.738786";"Культура / Искусство / Религия";"Музеи, Интересные здания"
"361";"Огни Москвы, музей";"Москва";"Армянский переулок, 3-5 ст1";"101000";="+74956247374";"";"http://ognimos.ru";"https://vk.com/club18670350";"";"37.635464";"55.760831";"Культура / Искусство / Религия";"Музеи"
"362";"Музей М.А. Булгакова";"Москва";"улица Большая Пироговская, 35а ст1";"119435";="+74956995366";"";"http://www.bulgakovmuseum.ru";"https://vk.com/bulgakovmuseum";"";"37.56579";"55.729261";"Культура / Искусство / Религия";"Музеи"
"363";"Музей военной формы";"Москва";"улица Большая Никитская, 46/17 ст1";"121069";="+74956481813, +74956481810";"";"http://www.museum-vf.ru";"https://vk.com/museumvf";"";"37.591232";"55.758073";"Культура / Искусство / Религия";"Музеи"
"364";"Центр Вознесенского";"Москва";"Большая Ордынка, 46 ст3";"119017";="+74951398987";"";"http://www.voznesenskycenter.ru";"https://vk.com/public187876568";"";"37.624142";"55.735564";"Культура / Искусство / Религия";"Музеи"
"365";"Музей русской иконы";"Москва";"улица Гончарная, 3 ст3";"109240";="";"";"http://www.russikona.ru";"https://vk.com/russikona";"";"37.645404";"55.746447";"Культура / Искусство / Религия";"Музеи"
"366";"Музей оружия";"Москва";"Измайловское шоссе, 73ж";"105187";="+79265454145";"";"http://historyguns.ru";"https://vk.com/historyguns";"";"37.749308";"55.794301";"Культура / Искусство / Религия";"Музеи"
"367";"Государственный музей А.С. Пушкина, Садовый павильон";"Москва";"улица Пречистенка, 12/2 ст10";"119034";="+74956375674";"";"http://www.pushkinmuseum.ru";"https://vk.com/club41276547";"";"37.598596";"55.743893";"Культура / Искусство / Религия";"Музеи"
"368";"Музей Рерихов";"Москва";"проспект Мира (ВДНХ), 119 ст13";"129223";="+74956910212";"";"http://roerichsmuseum.ru";"https://vk.com/roerichsmuseum";"";"37.62805";"55.830934";"Культура / Искусство / Религия";"Музеи, Интересные здания"
"369";"Станция Подмосковная, музейно-производственный комплекс";"Москва";"2-й Амбулаторный проезд, 8а";"125315";="+74992668609, +74992668602";"";"";"";"";"37.527719";"55.814172";"Культура / Искусство / Религия";"Музеи"
"370";"Дом-музей В.Л. Пушкина";"Москва";"улица Старая Басманная, 36";"105066";="+74992631057";"";"http://www.pushkinmuseum.ru";"https://vk.com/club41276547";"";"37.669106";"55.768993";"Культура / Искусство / Религия";"Музеи, Интересные здания"
"371";"Стрелецкие палаты, музей военной истории";"Москва";"Лаврушинский переулок, 17 ст1";"119017";="+74956481814";"";"http://museumrvio.ru";"https://vk.com/streletskyepalaty";"";"37.622564";"55.7412";"Культура / Искусство / Религия";"Музеи"
"372";"Музей славянской культуры им. Константина Васильева";"Москва";"улица Череповецкая, 3Б";"127572";="+79067208018, +79264963900";"";"http://museum-slav.com";"https://vk.com/muzey_k_vasileva";"";"37.565809";"55.899345";"Культура / Искусство / Религия";"Музеи"
"373";"Усадьба Мураново им. Ф.И. Тютчева, музей-заповедник";"д. Мураново";"деревня Мураново, вл1";"141250";="+79853173898, +74965318180";"";"http://muranovo-museum.ru";"https://vk.com/muranovo";"";"37.90291";"56.178268";"Культура / Искусство / Религия";"Музеи"
"374";"Собрание, музей";"Москва";"улица Солянка, 16";"109240";="+74952340630";"";"http://mus-col.com";"https://vk.com/sobraniemuseum";"";"37.641357";"55.750682";"Культура / Искусство / Религия";"Музеи"
"375";"Союзмультфильм, музей";"Москва";"проспект Мира (ВДНХ), 119 ст7";"129223";="+74953080034";"";"http://souzmultpark.ru";"https://vk.com/souzmultpark.vdnh";"";"37.626786";"55.827502";"Культура / Искусство / Религия";"Музеи"
"376";"Megabricks, музей Лего";"Москва";"Халтуринская улица, 11";"107392";="+79661721111";"";"http://megabricks.ru";"https://vk.com/megabricks";"";"37.726224";"55.802031";"Культура / Искусство / Религия";"Художественные выставки / Галереи, Музеи"
"377";"Музей К.Г. Паустовского";"Москва";"Кузьминская, 8";"109472";="+74991727791";"";"http://www.mirpaustowskogo.ru";"https://vk.com/mirpaustowskogo";"";"37.788738";"55.693981";"Культура / Искусство / Религия";"Музеи"
"378";"Моторы войны, музей";"Москва";"улица Рогожский Вал, 9/2 ст2";"109544";="+79857743577";"";"http://www.warmotors.ru";"https://vk.com/club211399027";"";"37.677917";"55.742364";"Культура / Искусство / Религия";"Музеи"
"379";"Люберецкий краеведческий музей";"Люберцы";"Звуковая, 3";"140000";="+74955544305";"";"";"";"";"37.894693";"55.677301";"Культура / Искусство / Религия";"Музеи"
"380";"Музей детства";"Москва";"Театральный проезд, 5";"109012";="+74957778077";"";"http://cdm-moscow.ru";"https://vk.com/cdmmoscow";"";"37.624484";"55.75978";"Культура / Искусство / Религия";"Музеи"
"381";"Ломаковский музей старинных автомобилей и мотоциклов";"Москва";"Краснодарская, вл58";"109559";="+74993567995";"";"http://www.lomakovka.ru";"";"";"37.771698";"55.67481";"Культура / Искусство / Религия";"Музеи, Антиквариат, Сценические декорации / Бутафория"
"382";"Г.о.р.а., музей";"Москва";"площадь Победы, 3";"121170";="+74994498181";"";"http://goramuseum.ru";"";"";"37.505141";"55.73102";"Культура / Искусство / Религия";"Музеи"
"383";"Музей хоккейной славы";"Москва";"Автозаводская, 23 к3";"115280";="+79775149785";"";"";"https://vk.com/russianhockeymuseum";"";"37.646342";"55.703069";"Культура / Искусство / Религия";"Музеи"
"384";"Центральный дом-музей авиации и космонавтики";"Москва";"улица Красноармейская, 4";"125167";="+74956143861, +74956125461";"";"http://www.aviacosmosdom.ru";"";"";"37.549435";"55.797237";"Культура / Искусство / Религия";"Музеи"
"385";"Музей-усадьба Ф.И. Шаляпина";"Москва";"Новинский бульвар, 25-27 к3 ст5";"123242";="+74956902588,,,1168";"";"http://music-museum.ru";"https://vk.com/musicmusem_ru";"";"37.583337";"55.756545";"Культура / Искусство / Религия";"Музеи"
"386";"Музей им. П.И. Чайковского и Москва";"Москва";"Кудринская площадь, 46/54 ст2";"121069";="+74956056515";"";"http://music-museum.ru";"https://vk.com/musicmuseum_ru";"";"37.585325";"55.758136";"Культура / Искусство / Религия";"Музеи"
"387";"Центр Гиляровского, Музей Москвы";"Москва";"переулок Столешников, 9 ст5";"107031";="+74956373135, +74957390008";"";"http://mosmuseum.ru";"https://vk.com/gilyarovskycenter";"";"37.615416";"55.763461";"Культура / Искусство / Религия";"Музеи"
"388";"Лунариум, интерактивный музей";"Москва";"Садовая-Кудринская улица, 5 ст1";"123242";="+74952217690";"";"";"";"";"37.583968";"55.761351";"Культура / Искусство / Религия";"Музеи"
"389";"Музей истории телефона";"Москва";"Садовая-Кудринская улица, 19 ст2";"123001";="+74958000800";"";"http://telhistory.ru";"https://vk.com/telhistorymoscow";"";"37.588025";"55.764944";"Культура / Искусство / Религия";"Музеи"
"390";"Особняк купца В.Д. Носова, историко-культурный центр";"Москва";"улица Электрозаводская, 12 ст1";"107023";="+74956708001,,,600";"";"http://nosov.rgub.ru";"https://vk.com/osobnyak_nosova";"";"37.703475";"55.785338";"Досуг / Развлечения / Общественное питание";"Культурно-досуговые центры для взрослых, Библиотеки, Музеи, Интересные здания"
"391";"Интеграция, государственный музей-культурный центр им. Н.А. Островского";"Москва";"Тверская улица, 14";"125009";="+74956298552, +74956294920";"";"http://tverskaya14.ru";"";"";"37.606622";"55.764283";"Культура / Искусство / Религия";"Музеи"
"392";"Есенин-центр, Московский Государственный музей С.А. Есенина";"Москва";"переулок Чернышевского, 4 ст2";"127473";="+74956887990, +74956886374";"";"http://jivo.chat/BUfwBceDVU";"https://vk.com/club38865256";"";"37.60915";"55.782176";"Культура / Искусство / Религия";"Музеи"
"393";"Музей Вадима Сидура, ММОМА";"Москва";"Новогиреевская улица, 37а";"111394";="+74959185181, +74959185182";"";"http://www.sidur.ru/";"https://vk.com/mmomasidur";"";"37.799014";"55.753113";"Культура / Искусство / Религия";"Музеи, Библиотеки, Коворкинг, Лектории, Художественные выставки / Галереи"
"394";"Российский музей леса";"Москва";"5-й Монетчиковский переулок, 4";"115054";="+74959591517, +74959591522";"";"http://roslesmuseum.ru";"https://vk.com/roslesmuseum";"";"37.633614";"55.732814";"Культура / Искусство / Религия";"Музеи"
"395";"Музей транспорта Москвы";"Москва";"проспект Мира (ВДНХ), 119 пав26";"129223";="+74953692675, +74955443400";"";"http://www.mtmuseum.com";"https://vk.com/mtmuseum";"";"37.621764";"55.834206";"Культура / Искусство / Религия";"Музеи"
"396";"Музей русского лубка и наивного искусства";"Москва";"Малый Головин переулок, 10 ст1";"107045";="+74956085221, +74956085182";"";"http://naive-museum.ru";"https://vk.com/lubok_naiv";"";"37.634474";"55.769063";"Культура / Искусство / Религия";"Музеи"
"397";"Государственный музей Л.Н. Толстого";"Москва";"улица Пречистенка, 11/8 ст1";"119034";="+74997669328, +74956377410";"";"http://www.tolstoymuseum.ru";"https://vk.com/tolstoymuseum";"";"37.597127";"55.742797";"Культура / Искусство / Религия";"Музеи"
"398";"Усадьба коломенского крестьянина, дом-музей";"Москва";"проспект Андропова, 39 ст72";"115487";="+74997828921, +74997828917";"";"http://www.mgomz.ru/kolomenskoe";"https://vk.com/mgomz";"";"37.670638";"55.673939";"Культура / Искусство / Религия";"Музеи"
"399";"Музей парка Сокольники";"Москва";"улица Сокольнический Вал, 1 ст1";"107113";="+79250953070";"";"http://park.sokolniki.com/about/museum/";"https://vk.com/sokolnikimuseum";"";"37.676749";"55.792351";"Культура / Искусство / Религия";"Музеи"
"400";"Музей техники Apple";"Москва";"Складочная улица, 3 ст1";"127018";="+79151233527";"";"http://apple-museum.ru";"https://vk.com/applemuseumrussia";"";"37.590294";"55.805851";"Культура / Искусство / Религия";"Музеи"
"401";"Государственный музей В.В. Маяковского";"Москва";"Красная Пресня, 36 ст1";"123376";="+74992550186";"";"http://музеймаяковского.рф";"https://vk.com/vv_mayakovsky";"";"37.566721";"55.762514";"Культура / Искусство / Религия";"Музеи"
"402";"Музей воды";"Москва";"Саринский проезд, 13 ст5";"109044";="+74956769213";"";"http://www.mosvodokanal.ru/about/museum.php";"https://vk.com/mvknews";"";"37.656793";"55.729218";"Культура / Искусство / Религия";"Музеи"
"403";"Дом-музей Булата Окуджавы";"пос. ДСК "Мичуринец"";"Довженко, 11";"108816";="+74957317727, +74955935208";"";"http://okudshava.ru";"https://vk.com/okudshavamuseum";"";"37.316097";"55.650211";"Культура / Искусство / Религия";"Музеи, Интересные здания"
"404";"Подземный музей";"Москва";"улица Варварка, 6 ст6";"109012";="+74955310526";"";"http://www.zaryadyepark.ru/services/podzemnyy-muzey-zaryade/";"https://vk.com/zaryadyepark";"";"37.62857";"55.75003";"Культура / Искусство / Религия";"Музеи"
"405";"Китайгородская стена";"Москва";"Китайгородский проезд, 2 ст1";"109074";="";"";"http://www.zaryadyepark.ru";"";"";"37.632382";"55.75074";"Культура / Искусство / Религия";"Музеи"
"406";"Политехнический музей, Открытые коллекции";"Москва";"Волгоградский проспект, 42 к5";"109316";="+74957305438, +74957806027, +74957806026";"";"http://polytech.one";"https://vk.com/polytechmuseum";"";"37.723048";"55.709133";"Культура / Искусство / Религия";"Музеи"
"407";"Музей городского хозяйства Москвы";"Москва";"проспект Мира (ВДНХ), 119 пав5";"129223";="+74956092025";"";"";"https://vk.com/kghmuseum";"";"37.629809";"55.828774";"Культура / Искусство / Религия";"Музеи"
"408";"Храм-музей святителя Николая в Толмачах";"Москва";"Малый Толмачёвский переулок, 9";"119017";="+74959570781";"";"http://hramvtolmachah.ru/index.php";"";"";"37.620473";"55.740913";"Культура / Искусство / Религия";"Музеи"
"409";"Музей русского импрессионизма";"Москва";"Ленинградский проспект, 15 ст11";"125040";="+74951457555";"";"http://rusimp.su";"https://vk.com/rusimp_su";"";"37.570519";"55.780264";"Культура / Искусство / Религия";"Музеи"
"410";"Дом-музей К.С. Станиславского";"Москва";"Леонтьевский переулок, 6 ст1";"125009";="+74956292442";"";"http://museummhat.ru";"https://vk.com/museummhat";"";"37.602988";"55.758851";"Культура / Искусство / Религия";"Музеи"
"411";"Музей-квартира Г.С. Улановой";"Москва";"Котельническая набережная, 1/15 к Б";"115172";="+74994847777,,,7";"";"http://www.gctm.ru/posetitelyam/muzey-kvartira-g-s-ulanovoy/";"https://vk.com/bahrushinmuseum";"";"37.642748";"55.747168";"Культура / Искусство / Религия";"Музеи"
"412";"Мультимедиа Арт Музей";"Москва";"улица Остоженка, 16";"119034";="+74956371100";"";"http://www.mamm-mdf.ru";"https://vk.com/club13212079";"";"37.598844";"55.741542";"Культура / Искусство / Религия";"Музеи"
"413";"Музей сословий России";"Москва";"улица Волхонка, 13 ст2";"119019";="+74956919378, +74956918454";"";"http://glazunov-gallery.ru";"https://vk.com/glazunovsgallery";"";"37.607566";"55.746618";"Культура / Искусство / Религия";"Музеи"
"414";"Дом-музей Павла и Сергея Третьяковых";"Москва";"1-й Голутвинский переулок, 16 ст1";"119180";="+74959570727";"";"http://www.tretyakovgallery.ru";"https://vk.com/club16880142";"";"37.61145";"55.737718";"Культура / Искусство / Религия";"Музеи"
"415";"Дом-музей А.Н. Островского";"Москва";"улица Малая Ордынка, 9/12 ст6";"119017";="+74959538684, +74959511140, +74959531245";"";"http://www.gctm.ru";"https://vk.com/ostrovskyzamoskvorechye";"";"37.626341";"55.73882";"Культура / Искусство / Религия";"Музеи, Интересные здания"
"416";"Центральный пограничный музей ФСБ России";"Москва";"Яузский бульвар, 13";"109028";="+74959291489";"";"";"";"";"37.645895";"55.750768";"Культура / Искусство / Религия";"Музеи"
"417";"Музей истории медицины первого Московского Государственного Медицинского Университета им. И.М. Сеченова";"Москва";"улица Большая Пироговская, 2 ст3";"119435";="+74992481086, +74992487009";"";"http://sechenov.ru/univers/structure/other/muzey-istorii-meditsiny";"https://vk.com/musey_istorii_medicini";"";"37.569884";"55.731891";"Культура / Искусство / Религия";"Музеи"
"418";"Музей собаки";"Москва";"Малая Калужская, 12";"119071";="+74951392585";"";"http://www.dogmuseum.ru";"https://vk.com/dogmuseum";"";"37.595735";"55.71673";"Культура / Искусство / Религия";"Музеи"
"419";"Музей моды, музеи?но-выставочныи? центр";"Москва";"улица Ильинка, 4";"109012";="+74992704261";"";"";"https://vk.com/fasionmuseum";"";"37.625104";"55.753285";"Культура / Искусство / Религия";"Музеи"
"420";"Усадьба Люблино, дом-музей";"Москва";"Тихая, 23 ст1";"109387";="+74997828917, +74996125217";"";"http://mgomz.ru";"https://vk.com/mgomz";"";"37.741794";"55.68608";"Культура / Искусство / Религия";"Музеи"
"421";"Музей Героев Советского Союза и России";"Москва";"Большая Черёмушкинская, 24 к3";"117218";="+74997443025";"";"http://www.1812panorama.ru";"https://vk.com/museumofheroes";"";"37.584112";"55.681825";"Культура / Искусство / Религия";"Музеи"
"422";"Сахаровский центр";"Москва";"Земляной Вал улица, 57 ст6";"105120";="+74956234420, +74956234401";"";"http://www.sakharov-center.ru";"https://vk.com/club11903303";"";"37.658791";"55.751163";"Культура / Искусство / Религия";"Музеи, Библиотеки"
"423";"Музей Великой Отечественной войны";"Москва";"Щёлковское шоссе, 2а";"105122";="+79153158608";"";"";"";"";"37.758202";"55.803597";"Культура / Искусство / Религия";"Музеи"
"424";"Домик Петра I, музей";"Москва";"проспект Андропова, 39 ст12";"115487";="+74996152768, +74996148880";"";"http://mgomz.ru";"https://vk.com/mgomz";"";"37.667196";"55.667367";"Культура / Искусство / Религия";"Музеи"
"425";"Дом-музей М.Ю. Лермонтова";"Москва";"Малая Молчановка, 2";"121069";="+74956955308";"";"http://goslitmuz.ru/ru/lervontov-museum";"https://vk.com/goslitmuz";"";"37.594306";"55.753614";"Культура / Искусство / Религия";"Музеи"
"426";"Музей истории водки";"Москва";"Измайловское шоссе, 73ж ст1";"105187";="+79031188189";"";"";"https://vk.com/vodkamuseum";"";"37.749591";"55.794513";"Культура / Искусство / Религия";"Музеи"
"427";"Мемориальный дом-музей академика С.П. Королёва";"Москва";"1-я Останкинская улица, 28";"129515";="+74997502300,,,1016";"";"http://jivo.chat/2sY5UIoauC";"https://vk.com/kosmo_museum";"";"37.631946";"55.823293";"Культура / Искусство / Религия";"Музеи"
"428";"Центральный музей древнерусской культуры и искусства им. Андрея Рублева";"Москва";"Андроньевская площадь, 10 ст10";"105120";="+74956781489, +74956785055, +74956781467, +74956789803";"";"http://www.rublev-museum.ru";"https://vk.com/museum_andrey_rublev";"";"37.670221";"55.749199";"Культура / Искусство / Религия";"Музеи"
"429";"#НЕМУЗЕЙМУСОРА";"Москва";"Варшавское шоссе, 2";"117105";="88004442741, +79961767516";"";"http://nemuseymusora.ru";"https://vk.com/nemuseum";"";"37.620499";"55.700655";"Коммунальные / бытовые / ритуальные услуги";"Пункты приёма, Секонд-хенд, Утилизация отходов / Переработка вторсырья, Музеи, Косметика / Парфюмерия"
"430";"Art4, музей";"Москва";"Хлыновский тупик, 4";"125009";="+74991365656";"";"http://www.art4.ru";"";"";"37.603019";"55.757805";"Культура / Искусство / Религия";"Музеи"
"431";"Музей Анатолия Зверева";"Москва";"Тверская-Ямская 2-я, 20-22 ст2";"125047";="+74957305526, +74957305528";"";"http://www.museum-az.com";"https://vk.com/museumaz";"";"37.594006";"55.772158";"Культура / Искусство / Религия";"Музеи"
"432";"Царицыно, Оперный дом";"Москва";"Дольская улица, 1 ст5";"115569";="+74953224433";"";"http://tsaritsyno-museum.ru";"https://vk.com/tsaritsynomuseum";"";"37.680631";"55.614798";"Культура / Искусство / Религия";"Музеи, Интересные здания"
"433";"РУТ (МИИТ), музей";"Москва";"улица Образцова, 9 ст9";"127055";="+74956842990";"";"";"";"";"37.608027";"55.787738";"Культура / Искусство / Религия";"Музеи"
"434";"Запасной командный пункт Верховного Главнокомандующего Красной Армии И.В. Сталина периода Великой Отечественной войны 1941-1945 гг.";"Москва";"Советская улица, 80 ст22";"105122";="+74991666768, +79165182372";"";"http://сталинбункер.рф";"https://vk.com/club121262971";"";"37.75102";"55.797463";"Культура / Искусство / Религия";"Музеи"
"435";"Центральный музей ВОВ 1941-1945 гг., Экспозиция вооружения и военной техники и локальных конфликтов 50-80-х гг. ХХ века";"Москва";"площадь Победы, 3 ст1";"121170";="+74994498181";"";"http://victorymuseum.ru";"https://vk.com/muzeypobedy";"";"37.502829";"55.725643";"Культура / Искусство / Религия";"Музеи"
"436";"Gopinball, музей пинбола";"Москва";"Крымский Вал улица, 10а";"119049";="+74995048801";"";"http://gopinball.ru";"https://vk.com/gopinball";"";"37.6021";"55.733201";"Культура / Искусство / Религия";"Музеи"
"437";"Государственный музей В.В. Маяковского";"Москва";"Студенецкий переулок, 6";"123100";="+74956051929";"";"http://музеймаяковского.рф";"https://vk.com/vv_mayakovsky";"";"37.556643";"55.758251";"Культура / Искусство / Религия";"Музеи"
"438";"Государственный выставочный зал истории войны в Афганистане";"Москва";"1-я Владимирская улица, 12 к1";"111123";="+74953064339, +74953064330";"";"http://afgan-zal.ru";"https://vk.com/club153035194";"";"37.774543";"55.758082";"Культура / Искусство / Религия";"Музеи"
"439";"Умный город, научно-технический музей";"Москва";"проспект Мира (ВДНХ), 119 ст461";"129223";="+79163115102";"";"http://www.mos.ru/city/projects/smartcityvdnh";"https://vk.com/smartcityvdnh";"";"37.630861";"55.834008";"Культура / Искусство / Религия";"Музеи"
"440";"Музей НИТУ, МИСиС";"Москва";"Ленинский проспект, 6 ст1";"119049";="+74992378618";"";"";"";"";"37.607079";"55.727098";"Культура / Искусство / Религия";"Музеи"
"441";"Садовое кольцо, музей";"Москва";"проспект Мира, 14 ст10";"129090";="+74956081403, +74956089216";"";"";"https://vk.com/public47000732";"";"37.632764";"55.77506";"Культура / Искусство / Религия";"Музеи"
