"id";"name";"city_name";"geometry_name";"post_code";"phone";"email";"website";"vkontakte";"instagram";"lon";"lat";"category";"subcategory"
"1";"Баранка, автошкола";"Москва";"Пресненская набережная, 8 ст1";"123112";="+74951276455";"support@baranka.ru";"http://baranka.ru/";"https://vk.com/baranka_app";"";"37.538327";"55.747483";"Образование / Работа / Карьера";"Автошколы, Мотошколы"
"2";"Зелёный свет, сеть автошкол";"Москва";"Профсоюзная, 3";"117292";="+74951286105";"msc.zelsvet@zelsvet.com";"http://online.zelsvet.com/?utm_source=2gis&utm_content=akadem";"https://vk.com/zelsvetmsc";"";"37.572356";"55.685814";"Образование / Работа / Карьера";"Автошколы"
"3";"Евродрайв, автошкола";"Москва";"Ленинградское шоссе, 21";"125171";="+74954095634, +79153164921";"mail@evrodrive.ru";"http://evrodrive.ru/avtoshkola-voykovskaya";"";"";"37.492516";"55.822837";"Образование / Работа / Карьера";"Автошколы"
"4";"ЭТАЛОН, автошкола";"Люберцы";"Комсомольская, 15а";"140005";="+74951519115, +79652158224";"info@avtoshkola99.ru";"http://avtoshkola-etalon.ru?utm_source=2gis&utm_campaign=2gis-priority&utm_content=maps&utm_medium=cpc&utm_term=contacts";"https://vk.com/autoschool99";"";"37.881749";"55.677146";"Образование / Работа / Карьера";"Автошколы, Мотошколы"
"5";"Драйв, автошкола";"Москва";"Орликов переулок, 2";"107078";="+74951977781";"";"http://drive-msk.ru";"";"";"37.64726";"55.770248";"Образование / Работа / Карьера";"Автошколы, Мотошколы"
"6";"iDriver, сеть автошкол";"Балашиха";"проспект Ленина, 75";"143903";="+74951512777, +74957648584, +79299997789";"bsvm08@mail.ru, vladimir0203@mail.ru";"http://www.idriver.ru";"https://vk.com/bestschool1689";"";"37.973473";"55.800359";"Образование / Работа / Карьера";"Автошколы"
"7";"Автошкола 177";"Москва";"улица Дмитрия Ульянова, 16 к1";"117292";="+74952971770, +79264045177, +79296591770";"avtobir177@yandex.ru, dasha-drive@mail.ru, mp.avto177@mail.ru";"http://avtoshkola177.ru";"https://vk.com/avtobir177";"";"37.569862";"55.688292";"Образование / Работа / Карьера";"Автошколы, Мотошколы"
"8";"Автомобилист, автошкола";"Химки";"Горшина, 2";"141407";="+74956422770, +79256422770";"all@avtomobilist-khimki.ru";"http://avtomobilist-khimki.ru";"https://vk.com/avtomobilist_khimki";"";"37.428667";"55.886293";"Образование / Работа / Карьера";"Автошколы, Мотошколы"
"9";"Формула авто, автошкола";"Москва";"улица Бойцовая, 27";"107150";="+74991108349, +79264488412";"admin@autoshkolavmoskve.ru";"http://www.form-auto.ru";"https://vk.com/form_auto";"";"37.723996";"55.815994";"Образование / Работа / Карьера";"Автошколы, Мотошколы, Автодромы / Мотодромы"
"10";"Альфа, автошкола";"Москва";"улица Старый Гай, 7";"111539";="+74953750011";"alfa.autoschool@yandex.ru";"http://avtoshkola-alfa.ru";"https://vk.com/avtoshkola.alfa";"";"37.829061";"55.738205";"Образование / Работа / Карьера";"Автошколы"
"11";"ОРЛАН, автошкола";"Зеленоград";"Зеленоград, к1514";"124683";="+74957992989, +79031006503";"orlan-zelenograd@mail.ru";"http://орлан.рф/zelenograd";"https://vk.com/orlan_zel";"";"37.154947";"55.982832";"Образование / Работа / Карьера";"Автошколы, Обучение судовождению, Обучение рабочим профессиям"
"12";"Ягуар плюс, автошкола";"Москва";"улица Гризодубовой, 1а";"123007";="+74951287735";"jaguar-plus@yandex.ru";"http://jaguar-plus.ru";"https://vk.com/avtoshkola_jaguar_plus";"";"37.534575";"55.781842";"Образование / Работа / Карьера";"Автошколы"
"13";"Развитие, автошкола";"Москва";"Стромынка, 13";"107014";="+79267042414, +74957961000";"s.d.s.-razvitie@mail.ru, avto-razvi@mail.ru";"http://avtorazvi.ru";"https://vk.com/avto_razvi";"";"37.692901";"55.794158";"Образование / Работа / Карьера";"Автошколы, Мотошколы"
"14";"Формула успеха, автошкола";"Долгопрудный";"Первомайская, 13/3";"141701";="+79360020205";"mail@formula-u.ru";"http://formula-u.ru";"https://vk.com/formula.yspexa";"";"37.518864";"55.933805";"Образование / Работа / Карьера";"Автошколы, Медицинские комиссии"
"15";"Автошкола безопасного вождения";"Балашиха";"улица Советская, 19е";"143904";="+74950053535";"info@bvavto.ru";"http://www.bvavto.ru";"https://vk.com/bvavto";"";"37.933657";"55.803243";"Образование / Работа / Карьера";"Автошколы, Мотошколы"
"16";"Мегаполис, сеть автошкол";"Москва";"улица Тушинская, 8";"125362";="+74998996081, +79778106082";"info@a-megapolis.ru, tushino@a-megapolis.ru, strogino@a-megapolis.ru";"http://avtoshkola-megapolis.ru/?utm_source=2gis&utm_medium=site&utm_campaign=2gis_prioritet";"https://vk.com/a_megapolis";"";"37.450245";"55.826897";"Образование / Работа / Карьера";"Автошколы, Мотошколы"
"17";"Автополис, автошкола";"Москва";"Привольная, 70";"109431";="+79265208482";"autopolis1@gmail.com";"http://www.autopolis-class.ru";"https://vk.com/autopolis_class";"";"37.852979";"55.678446";"Образование / Работа / Карьера";"Автошколы, Мотошколы"
"18";"Топаз, учебный центр";"Москва";"Верхняя Первомайская, 14";"105264";="+74991641444, +74991636191";"niknik62@mail.ru, topaz_avto@mail.ru";"http://www.topaz-auvto.ru";"";"";"37.790707";"55.798725";"Образование / Работа / Карьера";"Автошколы"
"19";"Бенефит, автошкола";"Москва";"улица Перерва, 43";"109341";="+79254707160, +74956490697";"prv07@yandex.ru, info@avto-prava.ru";"http://prava-gai.ru";"";"";"37.747935";"55.659784";"Образование / Работа / Карьера";"Автошколы"
"20";"Реал, автошкола";"Подольск";"проспект Ленина, 107/49";"142100";="+74996819364";"";"http://real-avto.com/?utm_source=2gis&utm_medium=kartochka&utm_campaign=real";"https://vk.com/realavto_el";"";"37.548741";"55.433298";"Образование / Работа / Карьера";"Автошколы"
"21";"Автополис, автошкола";"Балашиха";"Новая, 49";"143987";="+79958873121, +79915792603";"autopolischool@mail.ru";"http://autopolischool.ru";"https://vk.com/schoolautopolis";"";"38.030036";"55.749511";"Образование / Работа / Карьера";"Автошколы"
"22";"Старт, Офис";"Москва";"улица Илимская, 5 к1";"127576";="+74999099249, +74952903223, +74992004800, +74992903223, +74995026187, +79031600400";"";"http://moto.startavto.ru";"";"";"37.580944";"55.889694";"Образование / Работа / Карьера";"Автошколы, Мотошколы"
"23";"Колесо, автошкола";"Москва";"проспект Андропова, 8";"115432";="+74951811850";"";"http://cooleso.ru/?roistat=2gis";"https://vk.com/school_moto";"";"37.665024";"55.695343";"Образование / Работа / Карьера";"Автошколы, Мотошколы"
"24";"Учебно-курсовой комбинат, Мосгортранс";"Москва";"Криворожская, 6 ст1";"117638";="+74959504040, +74997943654, +74996134417, +74997231718";"";"http://ukk.mosgortrans.ru";"https://vk.com/transportmos";"";"37.615801";"55.669271";"Образование / Работа / Карьера";"Автошколы, Профессиональная переподготовка / Повышение квалификации, Центры повышения водительского мастерства, Мотошколы"
"25";"Главная дорога, автошкола";"Москва";"Александра Солженицына, 17 к1";"109004";="+74957760331, +74959112109";"";"http://avtoshkola-moskvy.ru";"https://vk.com/avtoshkola_glavnaya_doroga";"";"37.661592";"55.74396";"Образование / Работа / Карьера";"Автошколы"
"26";"ДОСААФ России, учебно-спортивный центр Общероссийской общественно-государственной организации";"Москва";"Ташкентская, 26 к2";"109472";="+74953762131";"";"http://dosaaf-auto.ru";"";"";"37.806407";"55.700516";"Образование / Работа / Карьера";"Автошколы, Мотошколы, Стрелковые клубы, Спортивные секции"
"27";"Синергия, автошкола";"Москва";"Ленинградский проспект, 80 к Е";"125315";="88001008921, +74952807689";"";"http://synergy.ru/lp/driving_school/";"";"";"37.508992";"55.810974";"Образование / Работа / Карьера";"Автошколы"
"28";"Союз, Учебные классы";"Москва";"Дмитровский переулок, 4 ст2";"107031";="+74994443013";"";"http://soyuz77.ru";"https://vk.com/public165249758";"";"37.616353";"55.761689";"Образование / Работа / Карьера";"Автошколы"
"29";"Балашихинский учебный центр РО ДОСААФ России МО, ДОСААФ России";"Балашиха";"улица Советская, 23";"143902";="+74955213860, +74987207878, +74955294111";"";"http://www.balrosto.ru";"";"";"37.938523";"55.805314";"Образование / Работа / Карьера";"Автошколы"
"30";"Версаль, автошкола";"Балашиха";"Советская, 19";"143930";="+74991130498";"";"http://autoshkola-versal.ru";"https://vk.com/versal177";"";"37.930962";"55.76802";"Образование / Работа / Карьера";"Автошколы"
"31";"Шоссе, автошкола";"Москва";"1-я улица Машиностроения, 5";"115088";="+74952260106";"";"http://auto-shkola.com";"";"";"37.673857";"55.7151";"Образование / Работа / Карьера";"Автошколы, Профессиональная переподготовка / Повышение квалификации"
"32";"Автопилот, автошкола";"Мытищи";"Олимпийский проспект, вл43";"141006";="";"";"";"";"";"37.750782";"55.938915";"Образование / Работа / Карьера";"Автошколы, Профессиональная переподготовка / Повышение квалификации"
"33";"Каит №20, автомотошкола";"Москва";"5-я Парковая улица, 58";"105425";="+74997803812";"";"http://autoschoolkait20.ru";"https://vk.com/kait_20_official";"";"37.788587";"55.80477";"Образование / Работа / Карьера";"Автошколы, Мотошколы"
"34";"Город дорог, автошкола";"Москва";"Новослободская, 31 ст1";"127055";="+74993220943, +79660493495";"";"http://goroddorog-avto.ru";"";"";"37.598151";"55.781995";"Образование / Работа / Карьера";"Автошколы"
"35";"Норд-Вест, автошкола";"Москва";"Мытищинская 3-я, 3 ст1";"129626";="+74952608610";"";"http://avtoshkola-nordwest.ru/novosti/avtoshkola-nord-vest-m-alekseevskaya/";"";"";"37.642088";"55.805451";"Образование / Работа / Карьера";"Автошколы, Мотошколы, Центры повышения водительского мастерства"
"36";"Норд-Вест, автошкола";"Москва";"проспект Маршала Жукова, 76 к2";"123103";="+74957207204";"";"http://avtoshkola-nordwest.ru/avtoshkola-v-szao/avtoshkola-na-polezhaevskoj/";"https://vk.com/anordwest";"";"37.450655";"55.781001";"Образование / Работа / Карьера";"Автошколы"
"37";"Автоунивер, автошкола";"Москва";"Соколово-Мещерская, 29";"125466";="+74996854480";"";"http://avto-univer.ru";"https://vk.com/avto_univer";"";"37.384061";"55.904779";"Образование / Работа / Карьера";"Автошколы, Мотошколы, Центры повышения водительского мастерства"
"38";"Ягуар, офис";"Москва";"улица Петровка, 15 ст1";"107031";="+74992836053, +74951911488";"";"http://prava99.ru?utm_source=2gis&utm_medium=cpc&utm_campaing=msk&rs=2gis_cpc_msk";"https://vk.com/avtoshkolamoscow";"";"37.61705";"55.763839";"Образование / Работа / Карьера";"Автошколы"
"39";"Автоунивер, автошкола";"Москва";"Волгоградский проспект, 28 ст1";"109316";="+74996854480";"";"http://avto-univer.ru";"https://vk.com/avto_univer";"";"37.682753";"55.726306";"Образование / Работа / Карьера";"Автошколы, Мотошколы, Центры повышения водительского мастерства"
"40";"Автоунивер, автошкола";"Москва";"Миклухо-Маклая, 31";"117485";="+74996854480";"";"http://avto-univer.ru";"https://vk.com/avto_univer";"";"37.519235";"55.646635";"Образование / Работа / Карьера";"Автошколы, Мотошколы, Центры повышения водительского мастерства"
"41";"Добровольное общество содействия армии, авиации и флоту России, автомобильная школа Общероссийской общественно-государственной организации";"Москва";"Дмитровское шоссе, 96 к2";"127247";="+74999008622, +74999008917";"";"http://avtoschoolcao.ru";"";"";"37.548974";"55.875545";"Образование / Работа / Карьера";"Автошколы"
"42";"Автошкола №1";"Москва";"Измайловский бульвар, 43";"105264";="+79266340001, +79167132701, +79773749878, +79777787575";"";"http://avtoshkola1.msk.ru";"https://vk.com/avtoskola1msk";"";"37.798007";"55.797207";"Образование / Работа / Карьера";"Автошколы, Мотошколы"
"43";"Центральный административный округ, ДОСААФ России";"Москва";"улица Антонова-Овсеенко, 6 ст1";"123317";="+79251018708, +74992563487, +74992597721";"";"http://dosaaf-centr.ru";"https://vk.com/dosaafcentr";"";"37.536753";"55.757247";"Образование / Работа / Карьера";"Автошколы, Мотошколы, Спортивные секции"
"44";"Аспект, автошкола";"Москва";"Веерная улица, 7 к1";"119501";="+74957407614, +79031837574";"";"http://avtoshkola-aspekt.ru";"https://vk.com/schoolaspekt";"";"37.474822";"55.709838";"Образование / Работа / Карьера";"Автошколы, Мотошколы"
"45";"Перспектива, Офис";"Москва";"Бибиревская, 8 к1";"127549";="+74956498283, +74957496959";"";"http://www.avper.ru";"https://vk.com/avtoshkolaperspektiva";"";"37.60009";"55.88147";"Образование / Работа / Карьера";"Автошколы"
"46";"Звездный мост, автошкола";"Москва";"Верхоянская улица, 18 к1";"129344";="+74954715511";"";"http://www.zmost.ru";"https://vk.com/zmost";"";"37.662766";"55.858059";"Образование / Работа / Карьера";"Автошколы, Мотошколы"
"47";"Фатинк, автошкола";"Красногорск";"улица Кирова, 23";"143404";="+74985685222, +79269195222";"";"http://www.fatink.ru";"";"";"37.307992";"55.832862";"Образование / Работа / Карьера";"Автошколы, Мотошколы"
"48";"АСБ, автошкола";"Москва";"Тверская улица, 18";"127006";="+74951204777";"";"http://asbmsk.ru";"https://vk.com/asbmsk";"";"37.603967";"55.766242";"Образование / Работа / Карьера";"Автошколы"
"49";"Техника, автошкола";"Москва";"Пришвина, 21";"127560";="+74991130646";"";"http://site.avtoshkola-tehnika.ru";"https://vk.com/avtoshkola_tehnika";"";"37.607641";"55.885989";"Образование / Работа / Карьера";"Автошколы, Мотошколы"
"50";"Вектор, федеральная академия вождения";"Москва";"2-й Донской проезд, 10 ст2";"119071";="88005056377";"";"http://avtoschool-vektor.ru";"https://vk.com/avtoshkola.vektor";"";"37.594274";"55.711178";"Образование / Работа / Карьера";"Автошколы"
"51";"Автокурс плюс, автошкола";"Пушкино";"Московский проспект, 28";"141207";="";"";"http://autokurs-plus.ru";"https://vk.com/akplus_pushkino";"";"37.853639";"56.007385";"Образование / Работа / Карьера";"Автошколы"
"52";"За рулем, автошкола";"Мытищи";"Новомытищинский проспект, 5 к2";"141002";="+79688759217";"";"";"";"";"37.747139";"55.915779";"Образование / Работа / Карьера";"Автошколы"
"53";"Автопилот, автошкола";"Мытищи";"улица Юбилейная, 6";"141021";="+74955887332, +79153107588";"";"";"";"";"37.717953";"55.913923";"Образование / Работа / Карьера";"Автошколы"
"54";"Центр обучения безопасному вождению, Автошкола";"Видное";"Берёзовая, 9";"142701";="+79257458808";"";"";"";"";"37.723676";"55.541504";"Образование / Работа / Карьера";"Автошколы"
"55";"Автошкола государственного управления и транспорта";"Москва";"Марксистская, 3 ст1";"109147";="+74957762870, +79857762870";"";"http://gup-avtoshkola.ru";"";"";"37.661138";"55.738801";"Образование / Работа / Карьера";"Автошколы"
"56";"Центральная автошкола Москвы";"Москва";"Сигнальный проезд, 39";"127273";="+74951220015, +74951722603, +74951722609, +74954017257";"";"http://autoprava.ru";"";"";"37.596517";"55.849627";"Образование / Работа / Карьера";"Автошколы"
"57";"Темп, автошкола";"Москва";"улица Барклая, 13 к1";"121309";="+79153858373, +79857617162, +74957617162, +74991455166";"";"http://avtotemp-zao.ru";"";"";"37.495493";"55.744891";"Образование / Работа / Карьера";"Автошколы"
"58";"Парк Мск, автошкола";"Москва";"Войкова, 6 ст1";"125438";="+74952152528, +79661143848";"";"http://parkmsk-auto.ru";"";"";"37.525066";"55.854563";"Образование / Работа / Карьера";"Автошколы"
"59";"Сипс, автошкола";"Москва";"улица Народного Ополчения, 34 ст2";"123423";="+74950055015";"";"http://автошкола.сипс.рф";"";"";"37.485856";"55.786158";"Образование / Работа / Карьера";"Автошколы"
"60";"Престиж, автошкола";"Москва";"Волгоградский проспект, 111";"109117";="+79776775257, +74957684146";"";"http://автошкола-престиж.москва";"https://vk.com/avtoprestige77";"";"37.759829";"55.706696";"Образование / Работа / Карьера";"Автошколы"
"61";"Главная дорога, автошкола";"Москва";"Профсоюзная, 93а";"117279";="+74957760331, +74959112109";"";"http://avtoshkola-moskvy.ru";"https://vk.com/avtoshkola_glavnaya_doroga";"";"37.525138";"55.639675";"Образование / Работа / Карьера";"Автошколы"
"62";"Онлайн, автошкола";"Москва";"Рязанский проспект, 32 к3";"109377";="+74956663000, +74993220516";"";"http://auto-online.ru";"https://vk.com/avtoshkolaonline";"";"37.785156";"55.717675";"Образование / Работа / Карьера";"Автошколы"
"63";"АСБ, автошкола";"Москва";"улица Тушинская, 17";"125362";="+74951204777";"";"http://asbmsk.ru";"https://vk.com/asbmsk";"";"37.445097";"55.827012";"Образование / Работа / Карьера";"Автошколы, Мотошколы"
"64";"Русская, автошкола";"Москва";"улица Александры Монаховой, 97";"108801";="+74959601310,,,5, +79013674558";"";"http://rusdriving.ru";"https://vk.com/rusdriving";"";"37.490063";"55.541463";"Образование / Работа / Карьера";"Автошколы, Мотошколы"
"65";"Expert, автошкола";"Химки";"Лавочкина, 7Б";"141407";="+74951424507, +79251556428, +79779368662";"";"http://jivo.chat/90oZMVbJAk";"";"";"37.42151";"55.892687";"Образование / Работа / Карьера";"Автошколы"
"66";"Гарант, автошкола";"Лобня";"Чехова, 13";"141730";="+74955107116, +79255107116";"";"http://www.avtoshkolalobnya.ru";"";"";"37.478347";"56.015423";"Образование / Работа / Карьера";"Автошколы"
"67";"Позитив, автошкола";"пос. Птичное";"Центральная, 90";"108807";="+74956422216, +74958773551, +79265668883";"";"http://avtoshkola-pozitiv.ru";"";"";"37.220009";"55.521859";"Образование / Работа / Карьера";"Автошколы"
"68";"Автостарт, автошкола";"рп. Андреевка";"улица Алабушевская, ст1";"141551";="+79067445050, +74957228933, +79037228933";"";"http://www.na-start.ru";"";"";"37.142373";"55.990141";"Образование / Работа / Карьера";"Автошколы"
"69";"Автошкола, ДОСААФ России";"Жуковский";"улица Спасателей, 5";"140184";="+74984820767, +74955566556";"";"http://www.dosaaf.info";"";"";"38.112883";"55.604823";"Образование / Работа / Карьера";"Автошколы"
"70";"СТК, автошкола";"Чехов";"Октябрьская, 17";"142301";="+79154660078";"";"http://заостк.рф";"https://vk.com/avtoshkola_zao_stk";"";"37.488069";"55.152801";"Образование / Работа / Карьера";"Автошколы"
"71";"СТК Жуковский, автомотошкола";"Жуковский";"Гудкова, 13";"140186";="+79269757550, +74957487577, +79683359162";"";"http://zhukmoto-stc.ru";"https://vk.com/stk_zhukovsky";"";"38.089224";"55.5983";"Образование / Работа / Карьера";"Автошколы, Мотошколы"
"72";"Лицеист-2, автошкола";"Истра";"Адасько, 7 к3";"143500";="+74959944040, +79151250448, +74983140222";"";"http://liceist2.ru";"";"";"36.860739";"55.911542";"Образование / Работа / Карьера";"Автошколы, Профессиональная переподготовка / Повышение квалификации"
"73";"Олимп, автошкола";"Балашиха";"Центральная, 26";"143981";="+79774062477";"";"http://www.олимп-автошкола.рф";"https://vk.com/avtoshkolakalitaolimp";"";"37.957954";"55.751113";"Образование / Работа / Карьера";"Автошколы"
"74";"Авто-престиж, автошкола";"Химки";"Школьная, 2";"141431";="+79251901005";"";"";"";"";"37.343924";"55.94181";"Образование / Работа / Карьера";"Автошколы"
"75";"Конкорд, автошкола";"Люберцы";"Шевлякова, 27/1";"140007";="+74955145202, +79774168281, +79261789410, +74959725127";"";"http://www.avtoshkola-konkord.ru";"https://vk.com/konkorddriveschool";"";"37.890607";"55.698339";"Образование / Работа / Карьера";"Автошколы"
"76";"Автопилот, автошкола";"Долгопрудный";"проспект Пацаева, 7 к10";"141707";="+79852242940";"";"";"";"";"37.500393";"55.947254";"Образование / Работа / Карьера";"Автошколы"
"77";"Учебно-спортивный подготовительный центр, автошкола";"пос. Коммунарка";"Ясная, 5";"108814";="+79166594552, +79661399624, +79161922282";"";"";"";"";"37.475539";"55.567822";"Образование / Работа / Карьера";"Автошколы"
"78";"Дорожная азбука, автошкола";"Москва";"Кутузовский проспект, 69 к1";"121357";="+79253971610, +79672625588";"";"http://dorojnaya-azbuka.ru";"";"";"37.453762";"55.724109";"Образование / Работа / Карьера";"Автошколы"
"79";"АвтоОтличник, автошкола";"Москва";"Зелёный проспект, 79а";"111558";="+74992182660, +74952601018, +74957701976";"";"http://www.avtootlichnik.ru";"https://vk.com/avtootlichnik";"";"37.816545";"55.752026";"Образование / Работа / Карьера";"Автошколы, Мотошколы"
"80";"Автоэкстра, автошкола";"Москва";"улица Академика Королёва, 13 ст1";"129515";="+74955006860, +79104529977, +74952989877";"";"http://myavtoshkola.ru";"https://vk.com/myavtoshkola";"";"37.619986";"55.818855";"Образование / Работа / Карьера";"Автошколы, Профессиональная переподготовка / Повышение квалификации, Мотошколы"
"81";"Автомобилист, автошкола";"Мытищи";"улица Колпакова, 29";"141008";="+74955838723, +79299132120";"";"http://www.avtomobilistschool.ru";"https://vk.com/club212694691";"";"37.726554";"55.919618";"Образование / Работа / Карьера";"Автошколы"
"82";"Автопилот, автошкола";"Мытищи";"улица Веры Волошиной, ст12";"141014";="+79852243040";"";"";"";"";"37.724863";"55.893038";"Образование / Работа / Карьера";"Автошколы"
"83";"Орлан, автошкола";"Ногинск";"площадь Ленина, 11";"142402";="+74951490555";"";"http://автошкола-орлан.рф";"https://vk.com/orlan_school";"";"38.465492";"55.876187";"Образование / Работа / Карьера";"Автошколы"
"84";"Автошкола им. Давыдова";"Балашиха";"проспект Ленина, 32а";"143907";="88001001307, +79647222259";"";"http://oz-avtoschool.ru";"https://vk.com/public203189309";"";"37.95954";"55.798166";"Образование / Работа / Карьера";"Автошколы, Мотошколы"
"85";"Орлан, автошкола";"Электросталь";"Мира, 18а";"144007";="+74951490555, 88005554159";"";"http://автошкола-орлан.рф";"https://vk.com/orlan_school";"";"38.444887";"55.776667";"Образование / Работа / Карьера";"Автошколы"
"86";"Орлан, автошкола";"Щёлково";"улица Гагарина, 3а";"141103";="+74951490555";"";"http://автошкола-орлан.рф";"https://vk.com/orlan_school";"";"38.063959";"55.90579";"Образование / Работа / Карьера";"Автошколы"
"87";"Орлан, автошкола";"рп. Свердловский";"Заводская, 1а ст1";"141140";="+74951490555";"";"http://автошкола-орлан.рф";"https://vk.com/orlan_school";"";"38.145139";"55.896757";"Образование / Работа / Карьера";"Автошколы"
"88";"Автошкола №1";"Москва";"улица Милашенкова, 7 к1";"127322";="+79266340001, +79167132701, +74952032001, +79052440005, +79659470007";"";"http://avtoshkola1.msk.ru";"https://vk.com/avtoskola1msk";"";"37.585292";"55.823747";"Образование / Работа / Карьера";"Автошколы, Мотошколы"
"89";"Центр Обучения Вождению";"Химки";"Московская, 14";"141402";="+74991136298";"";"http://cov.su";"https://vk.com/cov_su";"";"37.449464";"55.894438";"Образование / Работа / Карьера";"Автошколы, Мотошколы"
"90";"Парк Мск, автошкола";"Москва";"Фрунзенская набережная, 30 ст5";"119146";="+74952152528, +79661143848";"";"http://parkmsk-auto.ru";"";"";"37.582721";"55.724993";"Образование / Работа / Карьера";"Автошколы"
"91";"Орлан, автошкола";"Электросталь";"Карла Маркса, 19 вл1";"144001";="+74951490555";"";"http://автошкола-орлан.рф";"https://vk.com/orlan_school";"";"38.464638";"55.79742";"Образование / Работа / Карьера";"Автошколы"
"92";"Центральная профессиональная автошкола г. Москвы";"Москва";"Олеко Дундича, 25";"121096";="+74952950509, +79647005440, +79858773722";"";"http://moskva-avtoshkola.ru";"https://vk.com/club117973972";"";"37.486976";"55.738293";"Образование / Работа / Карьера";"Автошколы"
"93";"Зелёный свет, сеть автошкол";"Москва";"Гарибальди, 23";"117335";="+74951286105";"msc.zelsvet@zelsvet.com";"http://online.zelsvet.com/";"https://vk.com/zelsvetmsc";"";"37.554678";"55.671151";"Образование / Работа / Карьера";"Автошколы"
"94";"Автоунивер, автошкола";"Москва";"Краснодарская, 57 к2";"109559";="+74996854480";"";"http://avto-univer.ru";"https://vk.com/avto_univer";"";"37.768518";"55.676642";"Образование / Работа / Карьера";"Автошколы, Мотошколы, Центры повышения водительского мастерства"
"95";"Орлан, автошкола";"Фрязино";"Московская улица, 2в";"141190";="+74951490555";"";"http://автошкола-орлан.рф";"https://vk.com/orlan_school";"";"38.052627";"55.955281";"Образование / Работа / Карьера";"Автошколы"
"96";"Зелёный свет, сеть автошкол";"Москва";"Ленинградский проспект, 47 ст2";"125167";="+74951286105";"msc.zelsvet@zelsvet.com";"http://online.zelsvet.com/?utm_source=2gis&utm_content=aeroport";"https://vk.com/zelsvetmsc";"";"37.533027";"55.799342";"Образование / Работа / Карьера";"Автошколы"
"97";"Орлан, автошкола";"Павловский Посад";"Каляева, 3/1";"142500";="+74951490555";"";"http://автошкола-орлан.рф";"https://vk.com/orlan_school";"";"38.676623";"55.77853";"Образование / Работа / Карьера";"Автошколы"
"98";"Автошкола";"Москва";"Верхняя Первомайская, 49 к1";"105264";="+79265521114";"";"http://frt-avto.ru";"https://vk.com/avtoshkola_fortuna_avto";"";"37.797478";"55.799983";"Образование / Работа / Карьера";"Автошколы"
"99";"Топгир, автошкола";"Щербинка";"Почтовая, 15";"108851";="+74951282812";"";"http://avtoshkola-tg.ru";"https://vk.com/topgir.avto";"";"37.568844";"55.514299";"Образование / Работа / Карьера";"Автошколы"
"100";"Топгир, автошкола";"Москва";"улица Вавилова, 13а";"117312";="+74951282812";"";"http://avtoshkola-tg.ru";"https://vk.com/topgir.avto";"";"37.58437";"55.703932";"Образование / Работа / Карьера";"Автошколы"
"101";"Ай драйв, автошкола";"Москва";"улица Острякова, 3";"125057";="+74952084910, +74952117730";"";"http://i-driver.ru";"https://vk.com/idrivemsk";"";"37.526791";"55.799473";"Образование / Работа / Карьера";"Автошколы"
"102";"Lanister, автошкола";"Москва";"Ясный проезд, 16";"127081";="+74951288507";"";"http://autoschkola-lanister.ru";"https://vk.com/lanister_schcool";"";"37.624235";"55.874868";"Образование / Работа / Карьера";"Автошколы, Мотошколы"
"103";"ЭТАЛОН, автошкола";"Москва";"Рязанский проспект, 32";"109377";="+74951519115, +79031166600";"info@avtoshkola99.ru";"http://avtoshkola-etalon.ru?utm_source=2gis&utm_campaign=2gis-priority&utm_content=maps&utm_medium=cpc&utm_term=contacts";"https://vk.com/autoschool99";"";"37.785904";"55.717278";"Образование / Работа / Карьера";"Автошколы, Мотошколы"
"104";"Зелёный свет, сеть автошкол";"Москва";"Ярцевская, 25а";"121552";="+74951286105";"msc.zelsvet@zelsvet.com";"http://online.zelsvet.com/?utm_source=2gis&utm_content=molodej";"https://vk.com/zelsvetmsc";"";"37.415462";"55.740921";"Образование / Работа / Карьера";"Автошколы"
"105";"Орлан, Автодром";"Электросталь";"Авангардный проезд, 3";"144000";="+74951490555";"";"http://электросталь.автошкола-орлан.рф";"https://vk.com/orlan_stal";"";"38.427671";"55.789958";"Образование / Работа / Карьера";"Автошколы"
"106";"ЭТАЛОН, автошкола";"Дзержинский";"Ленина, 2Б";"140090";="+74951519115, +79651569797";"info@avtoshkola99.ru";"http://avtoshkola-etalon.ru?utm_source=2gis&utm_campaign=2gis-priority&utm_content=maps&utm_medium=cpc&utm_term=contacts";"https://vk.com/autoschool99";"";"37.841084";"55.638648";"Образование / Работа / Карьера";"Автошколы, Мотошколы"
"107";"Автоправо, автошкола";"Москва";"Южнобутовская, 50 к2";"117042";="+74951285503";"";"http://autoshkola-avtopravo.ru";"https://vk.com/mskavtopravo";"";"37.532189";"55.539463";"Образование / Работа / Карьера";"Автошколы, Мотошколы"
"108";"Хайдрайв, автошкола";"Москва";"улица Перовская, 66 к5";"111394";="+74994033056";"";"http://avtoshkola-hidrive.ru";"https://vk.com/haidrive";"";"37.801298";"55.744257";"Образование / Работа / Карьера";"Автошколы, Мотошколы"
"109";"Prorider, мотошкола";"Москва";"1-я улица Измайловского Зверинца, 8";"105187";="+79257203435";"";"http://proridermoto.ru";"https://vk.com/club204337490";"";"37.746393";"55.77424";"Образование / Работа / Карьера";"Мотошколы, Автошколы, Медицинские комиссии"
"110";"ЭТАЛОН, автошкола";"Москва";"Электродная, 2 ст34";"111524";="+74951519115, +79035764141";"info@avtoshkola99.ru";"http://avtoshkola-etalon.ru?utm_source=2gis&utm_campaign=2gis-priority&utm_content=maps&utm_medium=cpc&utm_term=contacts";"https://vk.com/autoschool99";"";"37.751857";"55.754736";"Образование / Работа / Карьера";"Автошколы, Мотошколы"
"111";"Автостарт, автошкола";"Москва";"Кольская, 1 ст1";"129329";="+74951500604, +79057158980";"";"http://ucavtostart.ru";"https://vk.com/ucavtostart";"";"37.6521";"55.857455";"Образование / Работа / Карьера";"Автошколы"
"112";"Авто-клуб, учебный центр";"Химки";"Железнодорожная, 1 ст1";"141402";="+74955060649";"";"http://gos-auto.ru";"";"";"37.450987";"55.8941";"Образование / Работа / Карьера";"Автошколы, Центры повышения водительского мастерства"
"113";"Форвард, автошкола";"Москва";"Святоозёрская, 3";"111675";="+74952035252, +79267150002";"";"http://forward-drive.ru";"https://vk.com/pravaforyou";"";"37.886944";"55.71452";"Образование / Работа / Карьера";"Автошколы, Мотошколы"
"114";"iDriver, сеть автошкол";"Балашиха";"улица Парковая, 2";"143904";="+74951512777, +79629688111";"bsvm08@mail.ru, vladimir0203@mail.ru";"http://www.idriver.ru";"https://vk.com/bestschool1689";"";"37.939994";"55.799349";"Образование / Работа / Карьера";"Автошколы"
"115";"Рус-Авто, автошкола";"Подольск";"Первомайская улица, 1";"142184";="+79337777519";"";"http://rusavtopodolsk.ru";"https://vk.com/autopodolsk";"";"37.535353";"55.369018";"Образование / Работа / Карьера";"Автошколы, Центры повышения водительского мастерства, Мотошколы"
"116";"Техника, автошкола";"Москва";"Бескудниковский бульвар, 12 ст1";"127474";="+74991130646";"";"http://site.avtoshkola-tehnika.ru";"https://vk.com/avtoshkola_tehnika";"";"37.563238";"55.862196";"Образование / Работа / Карьера";"Автошколы, Мотошколы"
"117";"Галакси, автошкола";"Москва";"шоссе Волоколамское, 1 ст1";"125080";="+79299993305";"";"http://drive-galaxy.ru/new";"https://vk.com/club203771855";"";"37.505216";"55.80653";"Образование / Работа / Карьера";"Автошколы"
"118";"Smart, автошкола";"Москва";"Рубцовская набережная, 4 к1";"105082";="+74993481629";"";"http://avtoshkola-smart.ru";"https://vk.com/avtoshcoolsmart";"";"37.697332";"55.775216";"Образование / Работа / Карьера";"Автошколы, Мотошколы"
"119";"Нева-авто";"Москва";"Звенигородское шоссе, 3а ст1";"123022";="+74956686353";"";"http://avtoshkola-auto-neva.ru";"https://vk.com/neva_auto";"";"37.556616";"55.763484";"Образование / Работа / Карьера";"Автошколы, Мотошколы"
"120";"Рус-Авто, автошкола";"Подольск";"Генерала Стрельбицкого, 1";"142121";="+79337777519";"";"http://rusavtopodolsk.ru";"https://vk.com/autopodolsk";"";"37.491652";"55.418268";"Образование / Работа / Карьера";"Автошколы, Мотошколы, Центры повышения водительского мастерства"
"121";"Вираж, автошкола";"Подольск";"проспект Ленина, 8а";"142106";="+79267942559, +79255188867";"";"http://avtoshkolavpodolske.ru";"https://vk.com/avtoskolavpodolske";"";"37.550209";"55.448647";"Образование / Работа / Карьера";"Автошколы"
"122";"Драйв, автошкола";"Москва";"улица Вавилова, 13а";"117312";="+74951977781";"";"http://drive-msk.ru";"";"";"37.58437";"55.703932";"Образование / Работа / Карьера";"Автошколы, Мотошколы"
"123";"Виадук, автошкола";"Москва";"проспект Вернадского, 113";"119571";="+74951286925";"";"http://avtoshkola-viaduk.ru";"https://vk.com/auto_viadyk";"";"37.483393";"55.659776";"Образование / Работа / Карьера";"Автошколы, Мотошколы"
"124";"Автоправо, автошкола";"Москва";"Плотников переулок, 22/16";"119002";="+74951285503";"";"http://autoshkola-avtopravo.ru";"https://vk.com/mskavtopravo";"";"37.588678";"55.747757";"Образование / Работа / Карьера";"Автошколы, Мотошколы"
"125";"Lanister, автошкола";"Москва";"Удальцова, 79";"119454";="+74951288507";"";"http://autoschkola-lanister.ru";"https://vk.com/lanister_schcool";"";"37.496409";"55.679796";"Образование / Работа / Карьера";"Автошколы, Мотошколы"
"126";"Топгир, автошкола";"Видное";"бульвар Зелёные аллеи, 6";"142703";="+74951282812";"";"http://avtoshkola-tg.ru";"https://vk.com/topgir.avto";"";"37.700483";"55.559259";"Образование / Работа / Карьера";"Автошколы"
"127";"Автоправо, автошкола";"Москва";"Полярная улица, 4 к1";"127221";="+74951285503";"";"http://autoshkola-avtopravo.ru";"https://vk.com/mskavtopravo";"";"37.63859";"55.872473";"Образование / Работа / Карьера";"Автошколы, Мотошколы"
"128";"Нева-авто";"Видное";"Берёзовая, 9";"142701";="+74956686353";"";"http://avtoshkola-auto-neva.ru";"https://vk.com/neva_auto";"";"37.722579";"55.541449";"Образование / Работа / Карьера";"Автошколы, Мотошколы"
"129";"Автомобилъ, автошкола";"Москва";"улица Героев Панфиловцев, 1";"125480";="+74952413698";"";"http://avtoshkola-automobil.ru";"https://vk.com/am_automobil";"";"37.437865";"55.853152";"Образование / Работа / Карьера";"Автошколы, Мотошколы"
"130";"Автомобилъ, автошкола";"Долгопрудный";"Первомайская, 40";"141701";="+74952413698";"";"http://avtoshkola-automobil.ru";"https://vk.com/am_automobil";"";"37.520686";"55.933836";"Образование / Работа / Карьера";"Автошколы, Мотошколы"
"131";"Алонсо, автошкола";"Москва";"улица Новинки, 1";"115470";="+74952041406";"";"http://avtoshkola-alonso.ru";"https://vk.com/alonsomsk";"";"37.666142";"55.677591";"Образование / Работа / Карьера";"Автошколы, Мотошколы"
"132";"Авто-мотокласс, автошкола";"Москва";"Измайловский бульвар, 3";"105264";="+74996772386";"";"http://avtoshkola-automotoklass.ru";"https://vk.com/automotoklass";"";"37.783345";"55.797769";"Образование / Работа / Карьера";"Автошколы, Мотошколы"
"133";"Автоправо, автошкола";"Москва";"улица Новочерёмушкинская, 57";"117418";="+74951285503";"";"http://autoshkola-avtopravo.ru";"https://vk.com/mskavtopravo";"";"37.567143";"55.669767";"Образование / Работа / Карьера";"Автошколы, Мотошколы"
"134";"Автомобилъ, автошкола";"Москва";"Ярославская, 8 к4";"129164";="+74952413698";"";"http://avtoshkola-automobil.ru";"https://vk.com/am_automobil";"";"37.647477";"55.816647";"Образование / Работа / Карьера";"Автошколы, Мотошколы"
"135";"Ученик, автошкола";"Москва";"улица Лобачевского, 92 к4";"119454";="+74951286302";"";"http://avtoshkola-uchenik.ru";"https://vk.com/yhenik";"";"37.485084";"55.682148";"Образование / Работа / Карьера";"Автошколы, Мотошколы"
"136";"Ученик, автошкола";"Москва";"1-я Владимирская улица, 34 к2";"111141";="+74951286302";"";"http://avtoshkola-uchenik.ru";"https://vk.com/yhenik";"";"37.780144";"55.748609";"Образование / Работа / Карьера";"Автошколы, Мотошколы"
"137";"Lanister, автошкола";"Москва";"Мясниковская 1-я, 8/10";"107564";="+74951288507";"";"http://autoschkola-lanister.ru";"https://vk.com/lanister_schcool";"";"37.703746";"55.816744";"Образование / Работа / Карьера";"Автошколы, Мотошколы"
"138";"Амарант, автошкола";"Москва";"Красная Пресня, 28";"123376";="+74993489820";"";"http://shkolaamarant.ru";"https://vk.com/amarant177";"";"37.569038";"55.762754";"Образование / Работа / Карьера";"Автошколы, Мотошколы"
"139";"Автомобилъ, автошкола";"Москва";"Артековская, 1";"117556";="+74952413698";"";"http://avtoshkola-automobil.ru";"https://vk.com/am_automobil";"";"37.613587";"55.651973";"Образование / Работа / Карьера";"Автошколы, Мотошколы"
"140";"Автошколы столицы, автошкола";"Москва";"Флотская, 1";"125565";="+74951277125";"";"http://www.autostolica.ru";"https://vk.com/autostolica77";"";"37.480141";"55.851081";"Образование / Работа / Карьера";"Автошколы, Мотошколы, Центры повышения водительского мастерства"
"141";"Автомск, автошкола";"Москва";"Медынская, 2 к1";"117546";="+74996776172";"";"http://avtoshkola-avtomsk.ru";"https://vk.com/mskautoklass";"";"37.65092";"55.59228";"Образование / Работа / Карьера";"Автошколы, Мотошколы"
"142";"Smart, автошкола";"Москва";"улица Академика Анохина, 8 к1";"119602";="+74993481629";"";"http://avtoshkola-smart.ru";"https://vk.com/avtoshcoolsmart";"";"37.474256";"55.66753";"Образование / Работа / Карьера";"Автошколы, Мотошколы"
"143";"Армада, автошкола";"Москва";"Большая Ордынка, 1";"115035";="+74991133421";"";"http://avtoshkola-armada.ru";"https://vk.com/avtoshkolaarmada";"";"37.625092";"55.745752";"Образование / Работа / Карьера";"Автошколы, Мотошколы"
"144";"Автогуру, автошкола";"Москва";"Пролетарский проспект, 17 к1";"115522";="+74951288672";"";"http://autoshkola-guru.ru";"https://vk.com/avtogyrygyry";"";"37.657179";"55.642289";"Образование / Работа / Карьера";"Автошколы"
"145";"Аксель, автошкола";"Москва";"площадь Победы, 1 к А";"121170";="+74991136927";"";"http://avtoshkola-axel.ru";"https://vk.com/axel_msk";"";"37.52275";"55.736734";"Образование / Работа / Карьера";"Автошколы, Мотошколы"
"146";"Автоправо, автошкола";"Москва";"Мичуринский проспект, 16";"119192";="+74951285503";"";"http://autoshkola-avtopravo.ru";"https://vk.com/mskavtopravo";"";"37.506859";"55.702823";"Образование / Работа / Карьера";"Автошколы, Мотошколы"
"147";"Армада, автошкола";"Москва";"Мичуринский проспект, 80";"119361";="+74991133421";"";"http://avtoshkola-armada.ru";"https://vk.com/avtoshkolaarmada";"";"37.4551";"55.673382";"Образование / Работа / Карьера";"Автошколы, Мотошколы"
"148";"Автоправо, автошкола";"Москва";"бульвар Яна Райниса, 43";"125373";="+74951285503";"";"http://autoshkola-avtopravo.ru";"https://vk.com/mskavtopravo";"";"37.409297";"55.850056";"Образование / Работа / Карьера";"Автошколы, Мотошколы"
"149";"Ученик, автошкола";"Москва";"Рублёвское шоссе, 48/1";"121609";="+74951286302";"";"http://avtoshkola-uchenik.ru";"https://vk.com/yhenik";"";"37.405742";"55.7538";"Образование / Работа / Карьера";"Автошколы, Мотошколы"
"150";"Mclaren, Класс теории";"Москва";"Профсоюзная, 124а";"117321";="+74951288559";"";"http://autoshkola-mclaren.ru";"https://vk.com/auto_mclaren";"";"37.516556";"55.632411";"Образование / Работа / Карьера";"Автошколы, Мотошколы"
"151";"Lanister, автошкола";"Москва";"улица Гришина, 18 к1";"121354";="+74951288507";"";"http://autoschkola-lanister.ru";"https://vk.com/lanister_schcool";"";"37.417675";"55.72347";"Образование / Работа / Карьера";"Автошколы, Мотошколы"
"152";"Нева-авто";"Долгопрудный";"Первомайская, 33";"141700";="+74956686353";"";"http://avtoshkola-auto-neva.ru";"https://vk.com/neva_auto";"";"37.515732";"55.939475";"Образование / Работа / Карьера";"Автошколы, Мотошколы"
"153";"Автовиртуоз, автошкола";"Москва";"Таллинская, 26";"123458";="+74993228313";"";"http://avtoshkola-virtuoz.ru";"https://vk.com/avtovirtuoz77";"";"37.407519";"55.800185";"Образование / Работа / Карьера";"Автошколы, Мотошколы"
"154";"Аксель, автошкола";"Москва";"Мосфильмовская улица, 88 к2 ст7";"119192";="+74991136927";"";"http://avtoshkola-axel.ru";"https://vk.com/axel_msk";"";"37.495543";"55.705082";"Образование / Работа / Карьера";"Автошколы, Мотошколы"
"155";"Ученик, автошкола";"Москва";"Авиаконструктора Миля, 15 к1";"109431";="+74951286302";"";"http://avtoshkola-uchenik.ru";"https://vk.com/yhenik";"";"37.858095";"55.680634";"Образование / Работа / Карьера";"Автошколы, Мотошколы"
"156";"Autotest, автошкола";"Химки";"Марии Рубцовой, 7";"141410";="+74951288546";"";"http://autoshkola-avtotest.ru";"https://vk.com/school_autotest";"";"37.400936";"55.906655";"Образование / Работа / Карьера";"Автошколы, Мотошколы"
"157";"Автомск, автошкола";"Москва";"улица Производственная, 12 к2";"119619";="+74996776172";"";"http://avtoshkola-avtomsk.ru";"https://vk.com/mskautoklass";"";"37.390497";"55.642498";"Образование / Работа / Карьера";"Автошколы, Мотошколы"
"158";"Хайдрайв, автошкола";"Москва";"Родионовская, 18 к2";"125466";="+74994033056";"";"http://avtoshkola-hidrive.ru";"https://vk.com/haidrive";"";"37.383865";"55.891697";"Образование / Работа / Карьера";"Автошколы, Мотошколы"
"159";"Автовиртуоз, автошкола";"Москва";"Кутузовский проспект, 69 к5";"121357";="+74993228313";"";"http://avtoshkola-virtuoz.ru";"https://vk.com/avtovirtuoz77";"";"37.455015";"55.723571";"Образование / Работа / Карьера";"Автошколы, Мотошколы"
"160";"Автокурс, автошкола";"Щёлково";"площадь Ленина, 8";"141100";="+74954886902,,,103";"";"http://www.autokursplus.ru";"https://vk.com/avtokursplus";"";"37.992137";"55.922449";"Образование / Работа / Карьера";"Автошколы"
"161";"Ученик, автошкола";"Москва";"Лазоревый проезд, 1";"129323";="+74951286302";"";"http://avtoshkola-uchenik.ru";"https://vk.com/yhenik";"";"37.639033";"55.848633";"Образование / Работа / Карьера";"Автошколы, Мотошколы"
"162";"Mclaren, Класс теории";"Москва";"Дмитровское шоссе, 75";"125504";="+74951288559";"";"http://autoshkola-mclaren.ru";"https://vk.com/auto_mclaren";"";"37.557672";"55.857889";"Образование / Работа / Карьера";"Автошколы, Мотошколы"
"163";"Нампопути, автошкола";"Москва";"Снежная, 25";"129323";="+74951285526";"";"http://autoshkola-poputi.ru";"https://vk.com/school_popyti";"";"37.652175";"55.855386";"Образование / Работа / Карьера";"Автошколы, Мотошколы"
"164";"Армада, автошкола";"Москва";"5-й Донской проезд, 15 ст7";"119334";="+74991133421";"";"http://avtoshkola-armada.ru";"https://vk.com/avtoshkolaarmada";"";"37.599962";"55.705741";"Образование / Работа / Карьера";"Автошколы, Мотошколы"
"165";"Автошкола им. Давыдова";"Реутов";"Октября, вл10";"143965";="88001001307, +79651120800, 88007078613";"";"http://oz-avtoschool.ru";"https://vk.com/public203189309";"";"37.858568";"55.75162";"Образование / Работа / Карьера";"Автошколы"
"166";"Топгир, автошкола";"рп. Боброво";"Лесная улица, 22 к1";"142720";="+74951282812";"";"http://avtoshkola-tg.ru";"https://vk.com/topgir.avto";"";"37.618543";"55.532039";"Образование / Работа / Карьера";"Автошколы"
"167";"Автомобилъ, автошкола";"Москва";"Полярная улица, 22 к4";"127221";="+74952413698";"";"http://avtoshkola-automobil.ru";"https://vk.com/am_automobil";"";"37.640544";"55.879566";"Образование / Работа / Карьера";"Автошколы, Мотошколы"
"168";"Автомск, автошкола";"Москва";"Бирюлёвская, 24 к1";"115404";="+74996776172";"";"http://avtoshkola-avtomsk.ru";"https://vk.com/mskautoklass";"";"37.661586";"55.596254";"Образование / Работа / Карьера";"Автошколы, Мотошколы"
"169";"Нева-авто";"Москва";"Домодедовская улица, 20 к1";"115551";="+74956686353";"";"http://avtoshkola-auto-neva.ru";"https://vk.com/neva_auto";"";"37.701978";"55.612936";"Образование / Работа / Карьера";"Автошколы, Мотошколы"
"170";"Аксель, автошкола";"Москва";"улица Большая Филёвская, 16";"121309";="+74991136927";"";"http://avtoshkola-axel.ru";"https://vk.com/axel_msk";"";"37.501478";"55.749788";"Образование / Работа / Карьера";"Автошколы, Мотошколы"
"171";"Континенталь, автошкола";"Москва";"Мичуринский проспект, 29а";"119607";="+74993806982";"";"http://avtoshkola-kontinental.ru";"https://vk.com/autokontinental";"";"37.503662";"55.693624";"Образование / Работа / Карьера";"Автошколы, Мотошколы"
"172";"Автошкола им. Давыдова";"Балашиха";"улица Советская, 10а";"143904";="88001001307, +79055066613";"";"http://oz-avtoschool.ru/avtomotoshkola-v-balashikhe";"https://vk.com/public203189309";"";"37.936161";"55.799864";"Образование / Работа / Карьера";"Автошколы, Мотошколы"
"173";"Топгир, автошкола";"Москва";"Самуила Маршака, 18";"108849";="+74951282812";"";"http://avtoshkola-tg.ru";"https://vk.com/topgir.avto";"";"37.32595";"55.636686";"Образование / Работа / Карьера";"Автошколы, Мотошколы"
"174";"Автогуру, автошкола";"Москва";"Талдомская улица, 17/1";"125412";="+74951288672";"";"http://autoshkola-guru.ru";"https://vk.com/avtogyrygyry";"";"37.523943";"55.874882";"Образование / Работа / Карьера";"Автошколы, Мотошколы"
"175";"Велес, автошкола";"Красногорск";"Успенская, 4а";"143409";="+74991137209";"";"http://avtoshkola-veles.ru";"https://vk.com/veles177";"";"37.297691";"55.828947";"Образование / Работа / Карьера";"Автошколы, Мотошколы"
"176";"Топгир, автошкола";"Щербинка";"Театральная, 1Б";"108851";="+74951282812";"";"http://avtoshkola-tg.ru";"https://vk.com/topgir.avto";"";"37.563669";"55.500769";"Образование / Работа / Карьера";"Автошколы"
"177";"Топгир, автошкола";"Москва";"2-я Мелитопольская улица, 21 к2";"117623";="+74951282812";"";"http://avtoshkola-tg.ru";"https://vk.com/topgir.avto";"";"37.581136";"55.538517";"Образование / Работа / Карьера";"Автошколы"
"178";"Топгир, автошкола";"рп. Дрожжино";"Южная, 23 к2";"142720";="+74951282812";"";"http://avtoshkola-tg.ru";"https://vk.com/topgir.avto";"";"37.593009";"55.521929";"Образование / Работа / Карьера";"Автошколы"
"179";"Lanister, автошкола";"Химки";"Маяковского, 13";"141402";="+74951288507";"";"http://autoschkola-lanister.ru";"https://vk.com/lanister_schcool";"";"37.443593";"55.893599";"Образование / Работа / Карьера";"Автошколы, Мотошколы"
"180";"Нефрит-авто, автошкола";"Москва";"Крылатские Холмы, 15 к2";"121609";="+74991134728";"";"http://autonefrit.ru";"https://vk.com/nefritauto";"";"37.416757";"55.751733";"Образование / Работа / Карьера";"Автошколы, Мотошколы"
"181";"Mclaren, Класс теории";"Москва";"Ленинградское шоссе, 56";"125212";="+74951288559";"";"http://autoshkola-mclaren.ru";"https://vk.com/auto_mclaren";"";"37.483344";"55.838442";"Образование / Работа / Карьера";"Автошколы, Мотошколы"
"182";"Виадук, автошкола";"Москва";"улица Декабристов, 20 к2";"127273";="+74951286925";"";"http://avtoshkola-viaduk.ru";"https://vk.com/auto_viadyk";"";"37.608832";"55.862467";"Образование / Работа / Карьера";"Автошколы, Мотошколы"
"183";"Хайдрайв, автошкола";"Москва";"Литовский бульвар, 15 к1";"117593";="+74994033056";"";"http://avtoshkola-hidrive.ru";"https://vk.com/haidrive";"";"37.546409";"55.608441";"Образование / Работа / Карьера";"Автошколы, Мотошколы"
"184";"Автомобилъ, автошкола";"Москва";"Ленинградский проспект, 62";"125167";="+74952413698";"";"http://avtoshkola-automobil.ru";"https://vk.com/am_automobil";"";"37.533561";"55.800961";"Образование / Работа / Карьера";"Автошколы, Мотошколы"
"185";"Autotest, автошкола";"Москва";"улица Гризодубовой, 4 к3";"125252";="+74951288546";"";"http://autoshkola-avtotest.ru";"https://vk.com/school_autotest";"";"37.523496";"55.78456";"Образование / Работа / Карьера";"Автошколы, Мотошколы"
"186";"Нампопути, автошкола";"д. Сапроново";"квартал Северный, 17";"142701";="+74951285526";"";"http://autoshkola-poputi.ru";"https://vk.com/school_popyti";"";"37.721607";"55.534304";"Образование / Работа / Карьера";"Автошколы, Мотошколы"
"187";"Автовиртуоз, автошкола";"Москва";"Вересаева, 9";"121357";="+74993228313";"";"http://avtoshkola-virtuoz.ru";"https://vk.com/avtovirtuoz77";"";"37.445769";"55.719505";"Образование / Работа / Карьера";"Автошколы, Мотошколы"
"188";"Автовиртуоз, автошкола";"Москва";"улица Новочерёмушкинская, 57";"117418";="+74993228313";"";"http://avtoshkola-virtuoz.ru";"https://vk.com/avtovirtuoz77";"";"37.567143";"55.669767";"Образование / Работа / Карьера";"Автошколы, Мотошколы"
"189";"Автоправо, автошкола";"пос. совхоза им. Ленина";"посёлок совхоза им. Ленина, 22";"142715";="+74951285503";"";"http://autoshkola-avtopravo.ru";"https://vk.com/mskavtopravo";"";"37.738282";"55.584085";"Образование / Работа / Карьера";"Автошколы, Мотошколы"
"190";"Родос, автошкола, автошкола";"Москва";"Вильнюсская, 8 к2";"117574";="+74951285596";"";"http://autoshkola-rodos.ru";"https://vk.com/shkolarodos";"";"37.520064";"55.602987";"Образование / Работа / Карьера";"Автошколы, Мотошколы"
"191";"Нампопути, автошкола";"Москва";"Шипиловский проезд, 39 к2";"115551";="+74951285526";"";"http://autoshkola-poputi.ru";"https://vk.com/school_popyti";"";"37.69749";"55.612855";"Образование / Работа / Карьера";"Автошколы, Мотошколы"
"192";"Флагман, автошкола";"Москва";"улица Новороссийская, 25 к1";"109559";="+74996775842";"";"http://avtoshkola-flagmanmsk.ru";"https://vk.com/autoshkolaflagman";"";"37.76154";"55.672504";"Образование / Работа / Карьера";"Автошколы, Мотошколы"
"193";"Автомобилист, автошкола";"Химки";"Кирова, 19";"141402";="+74956422770, +79999772770";"all@avtomobilist-khimki.ru";"http://avtomobilist-khimki.ru";"https://vk.com/avtomobilist_khimki";"";"37.452554";"55.888613";"Образование / Работа / Карьера";"Автошколы, Мотошколы"
"194";"Родос, автошкола, автошкола";"Химки";"Родионова, 12";"141410";="+74951285596";"";"http://autoshkola-rodos.ru";"https://vk.com/shkolarodos";"";"37.408936";"55.906176";"Образование / Работа / Карьера";"Автошколы, Мотошколы"
"195";"Руль, Учебный класс";"Москва";"проспект 60-летия Октября, 9 ст2";"117312";="+74991131583";"";"http://avtoshkola-rul.ru";"https://vk.com/avtoshkola_rul";"";"37.579788";"55.698627";"Образование / Работа / Карьера";"Автошколы, Мотошколы"
"196";"Нева-авто";"Королёв";"Болдырева, 1";"141070";="+74956686353";"";"http://avtoshkola-auto-neva.ru";"https://vk.com/neva_auto";"";"37.823887";"55.922364";"Образование / Работа / Карьера";"Автошколы, Мотошколы"
"197";"Автоюнекон";"Москва";"Лужнецкая набережная, 2/4 ст8";"119270";="+79810518586";"";"http://autoshkola-autounikon.ru";"https://vk.com/club214284344";"";"37.573823";"55.714955";"Образование / Работа / Карьера";"Автошколы, Мотошколы"
"198";"Mclaren, автошкола";"Москва";"Столетова, 17";"119192";="+74951288559";"";"http://autoshkola-mclaren.ru";"https://vk.com/auto_mclaren";"";"37.498417";"55.701716";"Образование / Работа / Карьера";"Автошколы, Мотошколы"
"199";"Нампопути, автошкола";"Мытищи";"улица Юбилейная, 34";"141021";="+74951285526";"";"http://autoshkola-poputi.ru";"https://vk.com/school_popyti";"";"37.70599";"55.906091";"Образование / Работа / Карьера";"Автошколы, Мотошколы"
"200";"Аксель, автошкола";"Москва";"Голубинская, 25 к1";"117463";="+74991136927";"";"http://avtoshkola-axel.ru";"https://vk.com/axel_msk";"";"37.535414";"55.59767";"Образование / Работа / Карьера";"Автошколы, Мотошколы"
"201";"Автокурс, Автодром";"Щёлково";"Центральная улица, вл102";"141102";="+74954886902,,,103";"";"http://www.autokursplus.ru";"https://vk.com/avtokursplus";"";"37.94627";"55.928073";"Образование / Работа / Карьера";"Автошколы"
"202";"Lanister, автошкола";"Москва";"Кунцевская улица, 8 к1";"121351";="+74951288507";"";"http://autoschkola-lanister.ru";"https://vk.com/lanister_schcool";"";"37.415349";"55.731229";"Образование / Работа / Карьера";"Автошколы, Мотошколы"
"203";"Аксель, автошкола";"Москва";"Боровское шоссе, 2а к2";"119618";="+74991136927";"";"http://avtoshkola-axel.ru";"https://vk.com/axel_msk";"";"37.413115";"55.661461";"Образование / Работа / Карьера";"Автошколы, Мотошколы"
"204";"Автошкола 177, Учебный класс";"Москва";"шоссе Энтузиастов, 9";"111250";="+74952971770, +79264045177, +79264334177";"avtobir177@yandex.ru, dasha-drive@mail.ru, mp.avto177@mail.ru";"http://avtoshkola177.ru";"https://vk.com/avtoschool177aviamotornaya";"";"37.711934";"55.751035";"Образование / Работа / Карьера";"Автошколы, Мотошколы, Обучение судовождению"
"205";"Автокурс, автошкола";"Щёлково";"Пролетарский проспект, 10";"141100";="+74954886902,,,103";"";"http://www.autokursplus.ru";"https://vk.com/avtokursplus";"";"38.000906";"55.924358";"Образование / Работа / Карьера";"Автошколы"
"206";"Lanister, автошкола";"Москва";"Учинская, 1";"127411";="+74951288507";"";"http://autoschkola-lanister.ru";"https://vk.com/lanister_schcool";"";"37.536359";"55.881879";"Образование / Работа / Карьера";"Автошколы, Мотошколы"
"207";"Руль, автошкола";"Москва";"Боровское шоссе, 39";"119634";="+74991131583";"";"http://avtoshkola-rul.ru";"https://vk.com/avtoshkola_rul";"";"37.357788";"55.64037";"Образование / Работа / Карьера";"Автошколы, Мотошколы"
"208";"Авто-мотокласс, автошкола";"Москва";"Боровское шоссе, 33";"119633";="+74996772386";"";"http://avtoshkola-automotoklass.ru";"https://vk.com/automotoklass";"";"37.360789";"55.641779";"Образование / Работа / Карьера";"Автошколы, Мотошколы"
"209";"Нева-авто";"Одинцово";"Можайское шоссе, 58а";"143011";="+74956686353";"";"http://avtoshkola-auto-neva.ru";"https://vk.com/neva_auto";"";"37.288823";"55.680351";"Образование / Работа / Карьера";"Автошколы, Мотошколы"
"210";"Автовиртуоз, автошкола";"Москва";"Рублёвское шоссе, 11 к2";"121108";="+74993228313";"";"http://avtoshkola-virtuoz.ru";"https://vk.com/avtovirtuoz77";"";"37.450934";"55.729895";"Образование / Работа / Карьера";"Автошколы, Мотошколы"
"211";"Аксель, Учебный класс";"Москва";"Ленинградское шоссе, 15";"125171";="+74991136927";"";"http://avtoshkola-axel.ru";"https://vk.com/axel_msk";"";"37.495301";"55.819921";"Образование / Работа / Карьера";"Автошколы, Мотошколы"
"212";"Хайдрайв, автошкола";"Москва";"Профсоюзная, 93а";"117279";="+74994033056";"";"http://avtoshkola-hidrive.ru";"https://vk.com/haidrive";"";"37.525138";"55.639675";"Образование / Работа / Карьера";"Автошколы, Мотошколы"
"213";"Автошкола, Колледж предпринимательства №11";"Москва";"Онежская, 3";"125438";="+74954566684, +79151458829";"";"http://www.autokp11.ru";"https://vk.com/autokp11";"";"37.521146";"55.845103";"Образование / Работа / Карьера";"Автошколы"
"214";"Автоправо, автошкола";"пос. совхоза им. Ленина";"посёлок совхоза им. Ленина, 21";"142715";="+74951285503";"";"http://autoshkola-avtopravo.ru";"https://vk.com/mskavtopravo";"";"37.737839";"55.583396";"Образование / Работа / Карьера";"Автошколы, Мотошколы"
"215";"Автомобилъ, автошкола";"Химки";"Московская, 14а";"141402";="+74952413698";"";"http://avtoshkola-automobil.ru";"https://vk.com/am_automobil";"";"37.450006";"55.894209";"Образование / Работа / Карьера";"Автошколы, Мотошколы"
"216";"Ученик, Учебный класс";"Москва";"Измайловский бульвар, 40";"105077";="+74951286302";"";"http://avtoshkola-uchenik.ru";"https://vk.com/yhenik";"";"37.804016";"55.796244";"Образование / Работа / Карьера";"Автошколы, Мотошколы"
"217";"Mclaren, автошкола";"Химки";"Марии Рубцовой, 7";"141410";="+74951288559";"";"http://autoshkola-mclaren.ru";"https://vk.com/auto_mclaren";"";"37.400297";"55.907104";"Образование / Работа / Карьера";"Автошколы, Мотошколы"
"218";"Smart, автошкола";"Люберцы";"Кирова, 9 к3";"140002";="+74993481629";"";"http://avtoshkola-smart.ru";"https://vk.com/avtoshcoolsmart";"";"37.870792";"55.687581";"Образование / Работа / Карьера";"Автошколы, Мотошколы"
"219";"Атлант авто, автошкола";"Москва";"Бутлерова, 14 к1";"117485";="+74994042439";"";"http://avtoshkola-atlant.ru";"https://vk.com/autoatlant";"";"37.529254";"55.651396";"Образование / Работа / Карьера";"Автошколы, Мотошколы"
"220";"Стэт, автошкола";"Москва";"Чертановская улица, 32 ст3";"117525";="+79153009011, +79067730222, +74953126400";"";"http://стэт.рф";"";"";"37.591627";"55.619136";"Образование / Работа / Карьера";"Автошколы"
"221";"Автоправо, автошкола";"Москва";"Кировоградская улица, 2";"117587";="+74951285503";"";"http://autoshkola-avtopravo.ru";"https://vk.com/mskavtopravo";"";"37.612691";"55.632627";"Образование / Работа / Карьера";"Автошколы, Мотошколы"
"222";"Автошкола им. Давыдова";"Ликино-Дулёво";"Советская, 41в";"142671";="88001001307, +79260777780";"";"http://oz-avtoschool.ru";"https://vk.com/public203189309";"";"38.955742";"55.720283";"Образование / Работа / Карьера";"Автошколы, Мотошколы"
"223";"Автовиртуоз, автошкола";"Реутов";"проспект Мира, 23в";"143960";="+74993228313";"";"http://avtoshkola-virtuoz.ru";"https://vk.com/avtovirtuoz77";"";"37.862724";"55.762673";"Образование / Работа / Карьера";"Автошколы, Мотошколы"
"224";"Автошкола им. Давыдова";"Орехово-Зуево";"Ленина, 105";"142601";="88001001307, +74964150099, +79687566668";"";"http://oz-avtoschool.ru";"https://vk.com/public203189309";"";"38.992169";"55.810941";"Образование / Работа / Карьера";"Автошколы"
"225";"Родос, автошкола, автошкола";"Москва";"Удальцова, 52";"119607";="+74951285596";"";"http://autoshkola-rodos.ru";"https://vk.com/shkolarodos";"";"37.489468";"55.685653";"Образование / Работа / Карьера";"Автошколы, Мотошколы"
"226";"Академия Мото, мотошкола";"пос. совхоза им. Ленина";"Каширское шоссе 23 км, вл3а/1";"142717";="+74993908495, +79169907890";"";"http://motoakademiya.ru";"https://vk.com/motoshkola_motoakademiya";"";"37.73961";"55.586415";"Спорт / Отдых / Туризм";"Картинг, Автошколы"
"227";"Mclaren, автошкола";"Москва";"Ленинградское шоссе, 92";"125414";="+74951288559";"";"http://autoshkola-mclaren.ru";"https://vk.com/auto_mclaren";"";"37.472045";"55.854198";"Образование / Работа / Карьера";"Автошколы, Мотошколы"
"228";"Нампопути, автошкола";"Москва";"Новоясеневский проспект, 22 к1";"117574";="+74951285526";"";"http://autoshkola-poputi.ru";"https://vk.com/school_popyti";"";"37.526778";"55.60675";"Образование / Работа / Карьера";"Автошколы, Мотошколы"
"229";"ОптимусАвто, автошкола";"Москва";"Братиславская, 34 к1";"109469";="+74952666201";"";"http://optimusavtomsk.ru";"https://vk.com/optimusavtomsk";"";"37.766814";"55.651148";"Образование / Работа / Карьера";"Автошколы, Мотошколы"
"230";"Автовиртуоз, автошкола";"Москва";"Осенний бульвар, 23";"121609";="+74993228313";"";"http://avtoshkola-virtuoz.ru";"https://vk.com/avtovirtuoz77";"";"37.406078";"55.763701";"Образование / Работа / Карьера";"Автошколы, Мотошколы"
"231";"Виадук, автошкола";"Москва";"улица Маршала Савицкого, 4 к1";"117148";="+74951286925";"";"http://avtoshkola-viaduk.ru";"https://vk.com/auto_viadyk";"";"37.576437";"55.505207";"Образование / Работа / Карьера";"Автошколы, Мотошколы"
"232";"Mclaren, автошкола";"Химки";"Марии Рубцовой, 7";"141410";="+74951288559";"";"http://autoshkola-mclaren.ru";"https://vk.com/auto_mclaren";"";"37.400536";"55.90688";"Образование / Работа / Карьера";"Автошколы, Мотошколы"
"233";"Рус-Авто, автошкола";"Домодедово";"улица Дружбы, 2 к1";"142003";="+79337777519, +79262177778";"";"http://rusavtodomodedovo.ru";"https://vk.com/autodomodedovo";"";"37.758388";"55.425062";"Образование / Работа / Карьера";"Автошколы, Мотошколы, Центры повышения водительского мастерства"
"234";"ОптимусАвто, автошкола";"Москва";"улица Липчанского, 5 к1";"111677";="+74952666201";"";"http://optimusavtomsk.ru";"https://vk.com/optimusavtomsk";"";"37.937727";"55.705512";"Образование / Работа / Карьера";"Автошколы, Мотошколы"
"235";"Автоправо, автошкола";"Москва";"Коровинское шоссе, 11 к2";"127486";="+74951285503";"";"http://autoshkola-avtopravo.ru";"https://vk.com/mskavtopravo";"";"37.534301";"55.86823";"Образование / Работа / Карьера";"Автошколы, Мотошколы"
"236";"Global, автошкола";"Москва";"Краснопресненская набережная, 6";"123100";="+74993482906";"";"http://avtoshkola-global.ru";"https://vk.com/autoshkolaglobal";"";"37.566511";"55.754744";"Образование / Работа / Карьера";"Автошколы, Мотошколы"
"237";"Армада, автошкола";"Москва";"улица Липецкая, 36/20";"115372";="+74991133421";"";"http://avtoshkola-armada.ru";"https://vk.com/avtoshkolaarmada";"";"37.677521";"55.585253";"Образование / Работа / Карьера";"Автошколы, Мотошколы"
"238";"Автосити, автошкола";"Москва";"Святоозёрская, 24";"111675";="+74957250073, +79162139922";"";"";"";"";"37.893018";"55.711008";"Образование / Работа / Карьера";"Автошколы"
"239";"Атлант авто, автошкола";"Москва";"Керченская, 13 ст3";"117303";="+74994042439";"";"http://avtoshkola-atlant.ru";"https://vk.com/autoatlant";"";"37.578108";"55.647825";"Образование / Работа / Карьера";"Автошколы, Мотошколы"
"240";"Центр оперативного профессионального обучения";"Подольск";"улица Академика Доллежаля, 3 ст1";"142121";="88005055831, +74993509731, +74993508706";"";"http://copo.ru";"https://vk.com/c_o_p_o";"";"37.488067";"55.422841";"Образование / Работа / Карьера";"Профессиональная переподготовка / Повышение квалификации, Обучение рабочим профессиям, Автошколы"
"241";"Автошкола им. Давыдова";"Балашиха";"Центральная, 26";"143981";="88001001307, +79653333153";"";"http://oz-avtoschool.ru";"https://vk.com/public203189309";"";"37.958067";"55.751101";"Образование / Работа / Карьера";"Автошколы, Медицинские комиссии"
"242";"Drive, автошкола";"Москва";"проспект Мира, 95 ст1";"129085";="+79850606666, +79854183094";"";"http://drive-msc.ru";"https://vk.com/mskdrive";"";"37.635756";"55.808109";"Образование / Работа / Карьера";"Автошколы"
"243";"Орлан, Автодром";"Фрязино";"Садовая, 19а";"141195";="+74951490555";"";"http://автошкола-орлан.рф";"https://vk.com/orlan_school";"";"38.040002";"55.950071";"Образование / Работа / Карьера";"Автошколы"
"244";"Профессионалъ, автошкола";"Москва";"Бескудниковский бульвар, 8 к1";"127474";="+74952203535";"";"http://www.shkolaprofi.ru";"";"";"37.56457";"55.859553";"Образование / Работа / Карьера";"Автошколы"
"245";"Драйв, автошкола";"Москва";"Совхозная, 39";"109386";="+74951977781";"";"http://drive-msk.ru";"";"";"37.760605";"55.673726";"Образование / Работа / Карьера";"Автошколы"
"246";"Штурман, автошкола";"Москва";"1-я Новокузьминская улица, 22 к2";"109377";="+74952058705, +79267759253, +79013404072, +74998416939";"";"http://www.sturmanavto.ru";"";"";"37.793234";"55.712492";"Образование / Работа / Карьера";"Автошколы"
"247";"Престиж, автошкола";"Москва";"улица Генерала Кузнецова, 18 к1";"109156";="+79776775257, +74957684146";"";"http://автошкола-престиж.москва";"https://vk.com/avtoprestige77";"";"37.856939";"55.687326";"Образование / Работа / Карьера";"Автошколы"
"248";"Автомобилист, автошкола";"Химки";"Кирова, 2а";"141421";="+74956422770, +79991112770";"all@avtomobilist-khimki.ru";"http://avtomobilist-khimki.ru";"https://vk.com/avtomobilist_khimki";"";"37.298808";"55.950001";"Образование / Работа / Карьера";"Автошколы, Мотошколы"
"249";"Профессионал плюс, автошкола";"Троицк";"Полковника Милиции Курочкина, 8";"108841";="+79254946087, +79690423614, +79150775188";"";"http://avto-profiplus.ru";"";"";"37.295606";"55.487072";"Образование / Работа / Карьера";"Автошколы, Мотошколы"
"250";"Зелёный свет, сеть автошкол";"Москва";"Лубянский проезд, 15 ст2";"101000";="+74951286105";"msc.zelsvet@zelsvet.com";"http://online.zelsvet.com/";"https://vk.com/zelsvetmsc";"";"37.632537";"55.756506";"Образование / Работа / Карьера";"Автошколы"
"251";"Автошкола 177";"Москва";"улица Судакова, 15";"109382";="+74952971770, +79264045177, +79262656610";"avtobir177@yandex.ru, dasha-drive@mail.ru, mp.avto177@mail.ru";"http://avtoshkola177.ru";"https://vk.com/avtobir177";"";"37.751516";"55.673491";"Образование / Работа / Карьера";"Автошколы, Мотошколы, Обучение судовождению"
"252";"Зелёный свет, сеть автошкол";"Москва";"Пятницкий переулок, 10 ст1";"115184";="+74951286105";"msc.zelsvet@zelsvet.com";"http://online.zelsvet.com/";"https://vk.com/zelsvetmsc";"";"37.629723";"55.742667";"Образование / Работа / Карьера";"Автошколы"
"253";"Ганг люкс, автошкола";"Москва";"Шипиловская, 58 к1";"115580";="+74993908495, +79264249494";"";"http://jivo.chat/avKDneDLWu";"";"";"37.745767";"55.621327";"Образование / Работа / Карьера";"Автошколы"
"254";"Темп, спортивно-технический центр";"Москва";"Большая Татарская, 30";"115184";="+79661035909";"";"http://www.mos-temp.ru";"";"";"37.633552";"55.738864";"Образование / Работа / Карьера";"Автошколы, Спортивные секции"
"255";"Марьина Роща, автошкола";"Москва";"Новосущёвская, 20";"127055";="+79859071178, +74951815656";"";"http://avtoshkola-prava.ru";"";"";"37.604533";"55.786373";"Образование / Работа / Карьера";"Автошколы, Мотошколы"
"256";"ЦАО, автошкола";"Москва";"Пыжёвский переулок, 5 ст1";"119017";="+74993905331, +79260526797";"";"http://gai177.ru";"https://vk.com/avtoschool_msk";"";"37.622367";"55.73918";"Образование / Работа / Карьера";"Автошколы, Мотошколы"
"257";"Родос, автошкола, автошкола";"Москва";"Якиманская набережная, 2";"119180";="+74951285596";"";"http://autoshkola-rodos.ru";"https://vk.com/shkolarodos";"";"37.611857";"55.739846";"Образование / Работа / Карьера";"Автошколы, Мотошколы"
"258";"Ганг люкс, автошкола";"Москва";"Крымский Вал улица, 3 к1";"119049";="+79067334032, +74991368848";"";"http://jivo.chat/avKDneDLWu";"";"";"37.610295";"55.729852";"Образование / Работа / Карьера";"Автошколы"
"259";"Ягуар, диджитал-автошкола";"Москва";"Гамсоновский переулок, 2 ст1";"115191";="+74992836053, +74951911488";"";"http://prava99.ru?utm_source=2gis&utm_medium=cpc&utm_campaing=msk&rs=2gis_cpc_msk";"https://vk.com/avtoshkolamoscow";"";"37.625945";"55.707764";"Образование / Работа / Карьера";"Автошколы"
"260";"Зелёный свет, сеть автошкол";"Москва";"Ленинградский проспект, 1";"125040";="+74951286105";"msc.zelsvet@zelsvet.com";"http://online.zelsvet.com/";"https://vk.com/zelsvetmsc";"";"37.580489";"55.777238";"Образование / Работа / Карьера";"Автошколы"
"261";"Алонсо, автошкола";"Москва";"Николоямская улица, 40 ст1";"109004";="+74952041406";"";"http://avtoshkola-alonso.ru";"https://vk.com/alonsomsk";"";"37.659703";"55.747127";"Образование / Работа / Карьера";"Автошколы, Мотошколы"
"262";"Викан, автошкола";"Москва";"улица Сокольнический Вал, 1а";"107113";="+74992685716, +74993902011";"";"http://www.vikan.ru";"";"";"37.676029";"55.792235";"Образование / Работа / Карьера";"Автошколы"
"263";"Родос, автошкола, автошкола";"Москва";"2-я Рощинская улица, 4";"115191";="+74951285596";"";"http://autoshkola-rodos.ru";"https://vk.com/shkolarodos";"";"37.617457";"55.709595";"Образование / Работа / Карьера";"Автошколы, Мотошколы"
"264";"Автоэкстра, автошкола";"Москва";"Костякова, 9";"127422";="+74955006860, +79953019977";"";"http://myavtoshkola.ru";"https://vk.com/myavtoshkola";"";"37.571629";"55.812327";"Образование / Работа / Карьера";"Автошколы, Профессиональная переподготовка / Повышение квалификации, Мотошколы"
"265";"Стиль-Авто, автошкола";"Москва";"Загородное шоссе, 1 к2";"117152";="+74957984565, +74957984707, +74959984565";"";"http://avtoprof.ru";"https://vk.com/style_avto_school";"";"37.615394";"55.699278";"Образование / Работа / Карьера";"Автошколы, Мотошколы"
"266";"Автошкола, ДОСААФ России г. Москвы";"Москва";"проезд Кадомцева, 11 к1";"129128";="+74991871178, +74957995857";"";"http://dosaaf-svao.ru";"";"";"37.662499";"55.828728";"Образование / Работа / Карьера";"Автошколы"
"267";"Арго, автошкола";"Москва";"Подъёмная, 12";"109052";="+74992618342, +74953610721";"";"http://Argo-avto.ru";"https://vk.com/argoauto7";"";"37.707053";"55.741404";"Образование / Работа / Карьера";"Автошколы, Мотошколы, Обучение судовождению"
"268";"Автошкола, ДОСААФ России г. Москвы";"Москва";"Большая Марфинская, 7а";"127276";="+74991871178, +74957995857";"";"http://dosaaf-svao.ru";"https://vk.com/dosaaf_svao";"";"37.59177";"55.831426";"Образование / Работа / Карьера";"Автошколы"
"269";"Р-авто, автомотошкола";"Москва";"улица Нагатинская, 31";"115533";="+74952290490";"";"http://avtoshkola-r.ru";"https://vk.com/r_aut0";"";"37.658602";"55.67771";"Образование / Работа / Карьера";"Автошколы, Мотошколы"
"270";"На Нахимовском, автошкола";"Москва";"Нахимовский проспект, 4";"117638";="+79672792757";"";"http://автошкола-ооо.рф";"";"";"37.611525";"55.664605";"Образование / Работа / Карьера";"Автошколы"
"271";"Автрон, автошкола";"Москва";"улица Нагорная, 20 к1";"117186";="+74951345444";"";"http://av-tron.ru";"";"";"37.603375";"55.678864";"Образование / Работа / Карьера";"Автошколы"
"272";"Зелёный свет, сеть автошкол";"Москва";"Хорошёвское шоссе, 35 к1";"123007";="+74951286105";"msc.zelsvet@zelsvet.com";"http://online.zelsvet.com/";"https://vk.com/zelsvetmsc";"";"37.521849";"55.777445";"Образование / Работа / Карьера";"Автошколы"
"273";"Суприм, автошкола";"Москва";"Кутузовский проспект, 36 ст9";"121170";="+79629852323";"";"http://driving-school.moscow";"";"";"37.525074";"55.741169";"Образование / Работа / Карьера";"Автошколы"
"274";"Motoshkola. Club";"Москва";"Лужники, 24 ст50";"119048";="+79256643454";"";"http://www.motoshkola.club";"https://vk.com/club168633950";"";"37.553329";"55.721132";"Образование / Работа / Карьера";"Мотошколы, Автошколы"
"275";"Велес, Учебный класс";"Москва";"Южнопортовый 2-й проезд, 20а ст4";"115088";="+74991137209";"";"http://avtoshkola-veles.ru";"https://vk.com/veles177";"";"37.693533";"55.702348";"Образование / Работа / Карьера";"Автошколы, Мотошколы"
"276";"Мвм мотошкола";"Москва";"Одесская, 6 ст15";"117149";="+79771121010";"";"";"";"";"37.598017";"55.662665";"Образование / Работа / Карьера";"Автошколы, Мотошколы"
"277";"Арго, автошкола";"Москва";"Преображенский Вал улица, 1";"107061";="+74992618342, +79169162925, +79175040755";"";"http://арго-преображенка.рф";"https://vk.com/argoauto7";"";"37.716218";"55.794338";"Образование / Работа / Карьера";"Автошколы, Мотошколы, Обучение рабочим профессиям, Обучение по охране труда"
"278";"Ягуар, диджитал-автошкола";"Москва";"Новохохловская, 23";"109052";="+74992836053, +74951911488";"";"http://prava99.ru?utm_source=2gis&utm_medium=cpc&utm_campaing=msk&rs=2gis_cpc_msk";"https://vk.com/avtoshkolamoscow";"";"37.713365";"55.726083";"Образование / Работа / Карьера";"Автошколы"
"279";"Алонсо, автошкола";"Москва";"Большая Черёмушкинская, 25 ст97";"117218";="+74952041406";"";"http://avtoshkola-alonso.ru";"https://vk.com/alonsomsk";"";"37.584911";"55.675418";"Образование / Работа / Карьера";"Автошколы, Мотошколы"
"280";"Альянс, автошкола";"Москва";"Малая Семёновская улица, 30 ст1";"107023";="+79259268282, +79162350009";"";"http://alyans.msk.ru";"";"";"37.717593";"55.783562";"Образование / Работа / Карьера";"Автошколы"
"281";"Онлайн, автошкола";"Москва";"Профсоюзная, 56";"117393";="+74956663000, +74993220516, +74952155555";"";"http://auto-online.ru";"https://vk.com/avtoshkolaonline";"";"37.552929";"55.670454";"Образование / Работа / Карьера";"Автошколы"
"282";"Руль, автошкола";"Москва";"1-й Магистральный тупик, 11 ст1";"123290";="+74991131583";"";"http://avtoshkola-rul.ru";"https://vk.com/avtoshkola_rul";"";"37.52647";"55.766385";"Образование / Работа / Карьера";"Автошколы, Мотошколы"
"283";"Автошкола, Колледж современных технологий им. Героя Советского Союза М.Ф. Панова";"Москва";"Хибинский проезд, 10";"129337";="+74991834565, +79160019218";"";"http://auto-kst.ru";"";"";"37.680426";"55.856597";"Образование / Работа / Карьера";"Автошколы"
"284";"Автоюность, автомотошкола";"Москва";"Ибрагимова, 12";"105318";="+79103968082, +79035715820";"";"http://un-auto.ru";"https://vk.com/club198916534";"";"37.7308";"55.783453";"Образование / Работа / Карьера";"Автошколы, Мотошколы"
"285";"Мастеркласс, центр контраварийной подготовки водителей";"Москва";"улица Перовская, 61/2";"111394";="+79104008338";"";"http://m-class.ru";"https://vk.com/mclass_ru";"";"37.796444";"55.745522";"Образование / Работа / Карьера";"Центры повышения водительского мастерства, Автошколы"
"286";"Стимул-бви, автошкола";"Москва";"Куликовская, 5";"117628";="+74997441655";"";"http://stimul-bvi.ru";"";"";"37.564372";"55.570046";"Образование / Работа / Карьера";"Автошколы"
"287";"Центральная автошкола Москвы";"Москва";"Старокалужское шоссе, 65";"117630";="+74951220015, +74951722603, +74951722609, +74954017257";"";"http://autoprava.ru";"";"";"37.539437";"55.660385";"Образование / Работа / Карьера";"Автошколы"
"288";"Ганг люкс, автошкола";"Москва";"5-й Марьиной Рощи проезд, 15а";"129594";="+79629666906";"";"http://gang-lux.ru/м-марьина-роща";"";"";"37.620148";"55.798027";"Образование / Работа / Карьера";"Автошколы, Мотошколы"
"289";"Формула авто, автошкола";"Москва";"Балаклавский проспект, 3";"117639";="+74991108349, +79264488412";"admin@autoshkolavmoskve.ru";"http://www.form-auto.ru";"https://vk.com/form_auto";"";"37.611612";"55.639811";"Образование / Работа / Карьера";"Автошколы, Мотошколы, Автодромы / Мотодромы"
"290";"Автошкола, Колледж связи №54";"Москва";"Басовская улица, 12";"109202";="+74991704901";"";"http://автошкола54.рф";"";"";"37.742098";"55.737998";"Образование / Работа / Карьера";"Автошколы"
"291";"Автошкола";"Москва";"улица Вавилова, 91 ст2";"117335";="+79265521114, +79255094135";"";"http://frt-avto.ru";"https://vk.com/avtoshkola_fortuna_avto";"";"37.547072";"55.67869";"Образование / Работа / Карьера";"Автошколы"
"292";"Перспектива, класс учебных тренажеров";"Москва";"Бибиревская, 17Б";"127549";="+74956498283, +74957496959";"";"http://www.avper.ru";"https://vk.com/avtoshkolaperspektiva";"";"37.597985";"55.88307";"Образование / Работа / Карьера";"Автошколы"
"293";"Автошкол Столицы, центр образования";"Москва";"Дегунинская, 1 к2";"127486";="+74952013858, +74994878414";"";"http://coasdriving.ru";"";"";"37.539845";"55.863336";"Образование / Работа / Карьера";"Автошколы"
"294";"Актив, академия безопасного вождения";"Москва";"Бутлерова, 17Б";"117342";="+74959674017, +79773985050";"";"http://abvaktiv.ru";"";"";"37.540755";"55.648045";"Образование / Работа / Карьера";"Центры повышения водительского мастерства, Автошколы"
"295";"Фордевинд, автошкола";"Москва";"улица Маршала Рыбалко, 9";"123060";="+79778741051, +74999646493";"";"http://avtoshkola5.ru";"https://vk.com/public200568084";"";"37.49011";"55.797494";"Образование / Работа / Карьера";"Автошколы"
"296";"Бамблби, автошкола";"Москва";"улица Героев Панфиловцев, 8 к1";"125480";="+74952660213";"";"http://avtoshkola-bamblbi.ru";"https://vk.com/bamblbimsk";"";"37.43918";"55.854813";"Образование / Работа / Карьера";"Автошколы, Мотошколы"
"297";"Автошкола, Колледж автомобильного транспорта №9";"Москва";"Керамический проезд, 59";"127591";="+74994806960";"";"http://www.as-kat.ru";"";"";"37.565453";"55.884851";"Образование / Работа / Карьера";"Автошколы"
"298";"Ганг люкс, автошкола";"Москва";"Кантемировская улица, 47";"115477";="+79771475547";"";"http://onlineavtoshkola.ru";"";"";"37.656163";"55.637983";"Образование / Работа / Карьера";"Мотошколы, Автошколы"
"299";"Евродрайв, автошкола";"Москва";"Москворечье, 31 к2";"115409";="+74954095634";"mail@evrodrive.ru";"http://evrodrive.ru/kantemirovskaya";"https://vk.com/avtoshkola_evrodrive";"";"37.660144";"55.645732";"Образование / Работа / Карьера";"Профессиональная переподготовка / Повышение квалификации, Мотошколы, Автошколы"
"300";"Зарница-авто, автодром";"Москва";"улица Перерва, 1 ст1";"109651";="+79853602392, +79851709555";"";"http://автошкола-зарница-авто.рф";"";"";"37.71481";"55.65706";"Образование / Работа / Карьера";"Автошколы"
"301";"Форвард, автошкола";"Москва";"Волжский бульвар, 38";"109129";="+74952035252, +79295120222";"";"http://prava4you.ru/contacts/kuzminky";"https://vk.com/avtoshkolaforvardkuzminki";"";"37.748887";"55.701884";"Образование / Работа / Карьера";"Мотошколы, Автошколы"
"302";"МскСити, автошкола";"Москва";"Большая Черкизовская, 125 ст28";"107553";="+79651178000";"";"http://mskcity.school/filialy/avtoshkola-cherkizovskaja";"https://vk.com/mskcity.club";"";"37.744011";"55.806006";"Образование / Работа / Карьера";"Автошколы"
"303";"Родос, автошкола, автошкола";"Москва";"улица Клары Цеткин, 7а";"127299";="+74951285596";"";"http://autoshkola-rodos.ru";"https://vk.com/shkolarodos";"";"37.518082";"55.818432";"Образование / Работа / Карьера";"Автошколы, Мотошколы"
"304";"Автомск, автошкола";"Москва";"Дорожная улица, 8 ст1";"117545";="+74996776172";"";"http://avtoshkola-avtomsk.ru";"https://vk.com/mskautoklass";"";"37.626271";"55.615837";"Образование / Работа / Карьера";"Автошколы, Мотошколы"
"305";"Запад, центр подготовки водителей";"Москва";"улица Герасима Курина, 16";"121108";="+74991449664, +79684374070";"";"http://www.autozapad.com";"https://vk.com/autozapad9";"";"37.470487";"55.73095";"Образование / Работа / Карьера";"Автошколы, Мотошколы"
"306";"Стэт, автошкола";"Москва";"Дубнинская, 36";"127591";="+79153009011, +79859222607";"";"http://стэт.рф";"";"";"37.558281";"55.886361";"Образование / Работа / Карьера";"Автошколы, Мотошколы"
"307";"Лидер-Виктория, автошкола";"Москва";"улица Судакова, 15";"109382";="+74955008158, +79255008158";"";"http://liderpdd.ru";"https://vk.com/club49499336";"";"37.750862";"55.673541";"Образование / Работа / Карьера";"Автошколы"
"308";"Ягуар, диджитал-автошкола";"Москва";"Смольная, 14";"125493";="+74992836053, +74951911488";"";"http://prava99.ru?utm_source=2gis&utm_medium=cpc&utm_campaing=msk&rs=2gis_cpc_msk";"https://vk.com/avtoshkolamoscow";"";"37.495311";"55.850692";"Образование / Работа / Карьера";"Автошколы, Мотошколы"
"309";"Arkada drive, автошкола";"Москва";"Мичуринский проспект, 31 к7";"119607";="+74957652233, +79252388485";"";"http://arkada-drive.ru";"https://vk.com/club177555383";"";"37.499306";"55.695262";"Образование / Работа / Карьера";"Автошколы"
"310";"Мастерство индивидуальность доступность, автошкола";"Москва";"Фестивальная, 24а";"125414";="+79175203355, +74954112848";"";"http://midexpert.ru";"";"";"37.501524";"55.860711";"Образование / Работа / Карьера";"Автошколы"
"311";"Аспект, автошкола";"Москва";"Раменки, 5 к1";"119607";="+74957407614, +79035135503";"";"http://avtoshkola-aspekt.ru";"https://vk.com/schoolaspekt";"";"37.494794";"55.692957";"Образование / Работа / Карьера";"Автошколы, Мотошколы"
"312";"Центральная автошкола Москвы, Офис";"Москва";"Кронштадтский бульвар, 7 ст4";"125212";="+74951220015, +74951722603, +74951722609, +74954017257";"";"http://autoprava.ru";"";"";"37.487337";"55.841877";"Образование / Работа / Карьера";"Автошколы"
"313";"Р-авто, автомотошкола";"Москва";"Россошанская, 4 к1";"117535";="+74952290490";"";"http://avtoshkola-r.ru";"https://vk.com/r_aut0";"";"37.610934";"55.59345";"Образование / Работа / Карьера";"Автошколы, Мотошколы"
"314";"Учебно-спортивный центр, ДОСААФ России";"Москва";"Заречье, 3";"109472";="+79251018708, +74992563487, +74953762131";"";"http://dosaaf-centr.ru";"https://vk.com/dosaafcentr";"";"37.770395";"55.688319";"Образование / Работа / Карьера";"Автошколы, Мотошколы"
"315";"Автошкола, Московский технологический колледж";"Москва";"Академика Бочвара, 2 к2";"123182";="+74991936093, +79260877551";"";"http://WWW.АВТОШКОЛА-ЩУКИНСКАЯ.РФ";"";"";"37.461399";"55.807928";"Образование / Работа / Карьера";"Автошколы"
"316";"Авто-авис, автомотошкола";"Москва";"Зелёный проспект, 23/43";"111401";="+74956652941, +79262652941, +79687893636";"";"http://autoavis.ru";"https://vk.com/auto_avis";"";"37.786154";"55.751472";"Образование / Работа / Карьера";"Автошколы, Мотошколы"
"317";"Автошкола";"Москва";"Ореховый бульвар, 7 к1";"115551";="+74953926046, +74959171343";"";"http://www.ostoauto.ru";"";"";"37.706313";"55.60976";"Образование / Работа / Карьера";"Автошколы"
"318";"Стиль-Авто, автошкола";"Москва";"Ставропольская улица, 70 ст2";"109559";="+74957984565, +74957203656, +79651523333";"";"http://avtoprof.ru";"https://vk.com/style_avto_school";"";"37.773325";"55.681831";"Образование / Работа / Карьера";"Автошколы"
"319";"Руль, Учебный класс";"Москва";"улица Судакова, 10";"109382";="+74991131583";"";"http://avtoshkola-rul.ru";"https://vk.com/avtoshkola_rul";"";"37.744856";"55.672342";"Образование / Работа / Карьера";"Автошколы, Мотошколы"
"320";"В Крылатском, автошкола";"Москва";"Крылатская улица, 2 ст19";"121552";="+74955085373";"";"http://auto-shkola.ru";"https://vk.com/automotoshkola";"";"37.441497";"55.753564";"Образование / Работа / Карьера";"Автошколы"
"321";"Формула успеха, автошкола";"Мытищи";"Лётная, 42";"141021";="+79360020222";"mail@formula-u.ru";"http://formula-u.ru";"https://vk.com/formula.yspexa";"";"37.711341";"55.903217";"Образование / Работа / Карьера";"Автошколы, Мотошколы"
"322";"Баранка, автошкола";"Мытищи";"Семашко, 25";"141014";="+74951276455";"support@baranka.ru";"http://baranka.ru/";"https://vk.com/baranka_app";"";"37.726978";"55.89264";"Образование / Работа / Карьера";"Автошколы, Мотошколы"
"323";"Марьино, автошкола";"Москва";"Братиславская, 26";"109469";="+74993561407";"";"http://www.avtoshkola-marino.ru";"";"";"37.764597";"55.653607";"Образование / Работа / Карьера";"Автошколы"
"324";"Тракт, автошкола";"Москва";"Елены Колесовой, 5";"119361";="+74954112113, +74954306990";"";"http://auto-trakt.ru";"";"";"37.452464";"55.677277";"Образование / Работа / Карьера";"Автошколы"
"325";"Авто-механика, автошкола";"Москва";"Уральская улица, 6 к1";"107207";="+79037225403, +74993981382, +79296038283, +74957225403";"";"http://avto-mexanika.ru";"https://vk.com/avto_mexanika_ru";"";"37.799214";"55.814269";"Образование / Работа / Карьера";"Автошколы"
"326";"Лидер-Виктория, автошкола";"Москва";"Братиславская, 27/1";"109469";="+74955008158, +79255008158";"";"http://liderpdd.ru";"https://vk.com/club49499336";"";"37.765575";"55.654372";"Образование / Работа / Карьера";"Автошколы"
"327";"Зарница-авто, автошкола";"Москва";"Домодедовская улица, 28";"115582";="+79853602392, +79851709555, +74953914764";"";"http://автошкола-зарница-авто.рф";"";"";"37.712836";"55.604542";"Образование / Работа / Карьера";"Автошколы"
"328";"Автофорум-м, автомотошкола";"Москва";"Новогиреевская улица, 41";"111394";="+74953030003, +79152139550";"";"http://ano-avtoforum.ru";"https://vk.com/ano_avtoforum";"";"37.799623";"55.75198";"Образование / Работа / Карьера";"Автошколы, Мотошколы"
"329";"Уступи Дорогу, Учебный класс";"Москва";"Никулинская улица, 5 к2";"119602";="+74994441381";"";"http://autoschoolmsk.ru";"";"";"37.457306";"55.667453";"Образование / Работа / Карьера";"Автошколы, Мотошколы"
"330";"Мак-авто, автошкола";"Москва";"улица Изюмская, 50";"117624";="+79037251420";"";"http://www.mak-auto.ru";"";"";"37.559547";"55.54373";"Образование / Работа / Карьера";"Автошколы"
"331";"Автомобилист, автошкола";"Мытищи";"Шараповский проезд, вл2 ст3";"141006";="+74955838723, +79299152553";"";"http://www.avtomobilistschool.ru";"https://vk.com/club212694691";"";"37.756745";"55.915658";"Образование / Работа / Карьера";"Автошколы, Мотошколы"
"332";"Автомобилист, автошкола";"Мытищи";"Стрелковая, 21";"141013";="+74955838723";"";"http://www.avtomobilistschool.ru";"https://vk.com/club212694691";"";"37.778357";"55.945389";"Образование / Работа / Карьера";"Автошколы, Мотошколы"
"333";"Автомобилист, автошкола";"Долгопрудный";"Новый бульвар, 18";"141707";="+74955838723, +79296762825, +74951270360";"";"http://avto-mobi.ru";"https://vk.com/avtomobilistdolgoprudny";"";"37.496496";"55.938696";"Образование / Работа / Карьера";"Автошколы, Мотошколы"
"334";"2000, автошкола";"Москва";"Главмосстроя, 7";"119618";="+74951250095";"";"http://www.auto2000.su";"https://vk.com/auto2000su";"";"37.405894";"55.654131";"Образование / Работа / Карьера";"Автошколы, Обучение судовождению, Мотошколы"
"335";"Автошкола, Московский индустриальный колледж";"Москва";"Бобруйская, 7";"121351";="+79031761815, +74996730541, +74956643524";"";"http://schoolavto.ru";"";"";"37.399706";"55.73632";"Образование / Работа / Карьера";"Автошколы"
"336";"Автолицей-ас, автошкола";"Москва";"50 лет Октября, 4";"119618";="+74954392839, +79774045087";"";"http://www.ychimvodit.ru";"";"";"37.416579";"55.654202";"Образование / Работа / Карьера";"Автошколы"
"337";"Юность, автомотошкола";"Москва";"Зелёный проспект, 60/35";"111396";="+74959659071, +74957267798, +79255890250, +79037267798";"";"http://jivo.chat/ePp72cZVpg";"";"";"37.817873";"55.749682";"Образование / Работа / Карьера";"Автошколы, Мотошколы"
"338";"Автошкола №1";"Москва";"Пятницкое шоссе, 9";"125464";="+79266340001, +79167132701, +79258452229, +79253386001";"";"http://avtoshkola1.msk.ru";"https://vk.com/avtoskola1msk";"";"37.385132";"55.838786";"Образование / Работа / Карьера";"Автошколы, Мотошколы"
"339";"Сигнал-2012, автошкола";"Москва";"Осенний бульвар, 4";"121609";="+79774229707";"";"http://signal-2012.ru";"https://vk.com/public55617893";"";"37.410409";"55.753342";"Образование / Работа / Карьера";"Автошколы"
"340";"Автокурспрофи, автошкола";"Москва";"Рязанский проспект, 95 к2";"109542";="+79686162503, +74957966029";"";"http://avtokursprofi.ru/yuvao/vyhino/";"";"";"37.810065";"55.715068";"Образование / Работа / Карьера";"Автошколы"
"341";"Форвард, автошкола";"Москва";"Суздальская, 18г";"111673";="+74952035252, +79259330002";"";"http://forward-drive.ru";"https://vk.com/pravaforyou";"";"37.851608";"55.740849";"Образование / Работа / Карьера";"Автошколы, Мотошколы"
"342";"Автошкола 177";"Москва";"Ярцевская, 34 к1";"121552";="+74952971770, +79264045177, +79262656610";"avtobir177@yandex.ru, dasha-drive@mail.ru, mp.avto177@mail.ru";"http://avtoshkola177.ru";"https://vk.com/avtobir177";"";"37.41917";"55.74243";"Образование / Работа / Карьера";"Автошколы, Мотошколы, Обучение судовождению"
"343";"Ягуар, диджитал-автошкола";"Химки";"Панфилова, 19/1";"141407";="+74992836053, +74951911488";"";"http://prava99.ru?utm_source=2gis&utm_medium=cpc&utm_campaing=msk&rs=2gis_cpc_msk";"https://vk.com/avtoshkolamoscow";"";"37.433281";"55.881324";"Образование / Работа / Карьера";"Автошколы"
"344";"Штурман, центр совершенствования водительского мастерства";"Москва";"22 километр Киевское шоссе, вл4 блок Г";"108811";="+74957997899";"";"http://www.shturm.ru";"";"";"37.437525";"55.63483";"Образование / Работа / Карьера";"Автошколы"
"345";"Новые горизонты, автошкола";"Москва";"Боровское шоссе, 33 к1";"119633";="+74957335929, +74955076741";"";"http://www.avtogorizont.ru";"https://vk.com/avtogorizont_ru";"";"37.361454";"55.640986";"Образование / Работа / Карьера";"Автошколы"
"346";"Автокурс плюс, автошкола";"Пушкино";"Чехова, 1 к3";"141207";="";"";"http://autokurs-plus.ru";"https://vk.com/akplus_pushkino";"";"37.85428";"56.008879";"Образование / Работа / Карьера";"Автошколы"
"347";"Авто-клуб, учебный центр";"Королёв";"М.К. Тихонравова, 28Б ст1";"141092";="+74955060649, +74955075726";"";"http://gos-auto.ru";"";"";"37.840268";"55.9372";"Образование / Работа / Карьера";"Автошколы"
"348";"Апекс, центр обучения";"Люберцы";"3 Почтовое отделение, 65";"140008";="+74959833425, +79161404221";"";"http://www.avto-apeks.ru";"";"";"37.865795";"55.682803";"Образование / Работа / Карьера";"Автошколы"
"349";"Ганг люкс, автошкола";"Москва";"микрорайон Северное Чертаново, 4а";"117648";="+79773956229";"";"http://jivo.chat/avKDneDLWu";"";"";"37.592307";"55.640276";"Образование / Работа / Карьера";"Автошколы"
"350";"Автолицей Калита+, автошкола";"Королёв";"Лесная, 16";"141092";="+74957405880, +74955091615, +79255061406";"";"http://nou-kalita.ru";"https://vk.com/avtolitseykalita";"";"37.845771";"55.93445";"Образование / Работа / Карьера";"Автошколы"
"351";"Автолицей Калита+, автошкола";"Королёв";"Карла Маркса, 1а";"141070";="+74957405880, +74955091615, +79257007929";"";"http://nou-kalita.ru";"https://vk.com/avtolitseykalita";"";"37.820265";"55.924905";"Образование / Работа / Карьера";"Автошколы"
"352";"Объединенный научно-методический центр, автошкола";"Дзержинский";"площадь Дмитрия Донского, 6";"140090";="+74955572188";"";"http://automaxim.ru";"https://vk.com/automaxim";"";"37.850198";"55.629628";"Образование / Работа / Карьера";"Автошколы, Мотошколы"
"353";"Рус-Авто, автошкола";"Подольск";"Тепличная, 2";"108823";="+79337777519";"";"http://rusavtopodolsk.ru";"https://vk.com/autopodolsk";"";"37.553297";"55.469435";"Образование / Работа / Карьера";"Автошколы, Мотошколы, Центры повышения водительского мастерства"
"354";"Автолицей, автошкола";"Химки";"Центральная, 2/5 ст5";"141446";="+79259457115, +74993947115, +74954547115";"";"http://www.автолицей.рф";"https://vk.com/avto_licey";"";"37.336982";"55.947818";"Образование / Работа / Карьера";"Автошколы, Мотошколы"
"355";"Драйвер, автошкола";"Красногорск";"Спасская, 12";"143401";="+79995119741";"";"http://www.яавтошкола.рф";"https://vk.com/driver_pp";"";"37.372215";"55.824526";"Образование / Работа / Карьера";"Автошколы"
"356";"Фордевинд, автошкола";"Москва";"Соколово-Мещерская, 14";"125466";="+79778741051, +74999646493, +79256423787, +79032728272";"";"http://kurkino-avto.ru";"https://vk.com/autofordevind";"";"37.389594";"55.89675";"Образование / Работа / Карьера";"Автошколы"
"357";"Эворус, детско-юношеская автомобильная академия";"Дзержинский";"Лесная, 32а";"140090";="+74959981833, +79859981833";"";"http://evorus.ru";"https://vk.com/evorus_school";"";"37.874988";"55.623059";"Образование / Работа / Карьера";"Автошколы, Спортивные секции, Детские / подростковые клубы"
"358";"Ганг-люкс, автошкола";"Москва";"Лукинская улица, 14";"119634";="+79057092009, +74993473457, +74993473407";"";"http://jivo.chat/avKDneDLWu";"https://vk.com/autoschoolganglux";"";"37.341517";"55.647165";"Образование / Работа / Карьера";"Автошколы, Мотошколы"
"359";"Вулкан-Авто+, автошкола";"Московский";"Хабарова, 2";"108811";="+79772510202";"";"http://vulkan-avto.ru";"https://vk.com/vulkanauto";"";"37.353066";"55.59488";"Образование / Работа / Карьера";"Автошколы"
"360";"Онлайн, автошкола";"Балашиха";"Звёздная, 7Б";"143909";="+74956663000, +74993220516";"";"http://auto-online.ru";"https://vk.com/avtoshkolaonline";"";"37.95393";"55.828541";"Образование / Работа / Карьера";"Автошколы, Мотошколы, Центры повышения водительского мастерства"
"361";"2000, автошкола";"Москва";"Лётчика Ульянина, 7";"108850";="+74951250095";"";"http://www.auto2000.su";"https://vk.com/auto2000su";"";"37.311357";"55.626057";"Образование / Работа / Карьера";"Автошколы, Обучение судовождению, Мотошколы"
"362";"Автолицей";"Пушкино";"Надсоновская, 24";"141207";="+79857773000";"";"http://avtolitsey.ru";"https://vk.com/avtolitsey";"";"37.853133";"56.003457";"Образование / Работа / Карьера";"Автошколы"
"363";"Профит, автошкола";"Пушкино";"Добролюбова, 20";"141206";="+79629629911, +79260311109";"";"http://profitkurs.ru";"";"";"37.836329";"56.013226";"Образование / Работа / Карьера";"Автошколы"
"364";"Фордевинд, автошкола";"Москва";"бульвар Яна Райниса, 1";"125363";="+79778741051, +74999646493, +79067505757, +79067505775";"";"http://tushino-auto.ru";"https://vk.com/autoshkola_fordevind";"";"37.437738";"55.850075";"Образование / Работа / Карьера";"Автошколы"
"365";"Позитив, автошкола";"Москва";"2-я Нововатутинская улица, 3";"108836";="+74956422216, +74958773551, +79255222216";"";"http://avtoshkola-pozitiv.ru";"";"";"37.352117";"55.517048";"Образование / Работа / Карьера";"Автошколы, Мотошколы, Центры повышения водительского мастерства"
"366";"Суприм, автошкола";"Москва";"улица Лавриненко, 5";"111677";="+79258880302";"";"http://autosuprime.ru";"https://vk.com/avtoshkola_nekrasovka";"";"37.946413";"55.701845";"Образование / Работа / Карьера";"Автошколы, Мотошколы, Центры повышения водительского мастерства"
"367";"Суприм, автошкола";"Москва";"проспект Защитников Москвы, 13";"111677";="+79261303811";"";"http://autosuprime.ru";"";"";"37.921895";"55.702483";"Образование / Работа / Карьера";"Автошколы, Мотошколы, Центры повышения водительского мастерства"
"368";"Автопрофи, автошкола";"Москва";"Братиславская, 16";"109451";="+74957443094, +74957443104, +74959787828, +79777487392";"";"http://avtoprofi-mo.ru";"https://vk.com/club211590149";"";"37.758474";"55.658926";"Образование / Работа / Карьера";"Автошколы"
"369";"Автобан, автошкола";"Балашиха";"Некрасова, 2а";"143900";="+79162648003, +79253553557";"";"http://avtoban.expert";"";"";"37.967833";"55.796001";"Образование / Работа / Карьера";"Автошколы"
"370";"Авто-клуб, автошкола";"Одинцово";"Чикина, 1а";"143005";="+79257489878, +79015531509, +79056318090";"";"http://gos-auto.ru";"";"";"37.294161";"55.68387";"Образование / Работа / Карьера";"Автошколы"
"371";"Альфа, автошкола";"Москва";"Лермонтовский проспект, 10 к2";"109145";="+79683750011, +74997044020";"alfa.autoschool@yandex.ru";"http://avtoshkola-alfa.ru";"https://vk.com/avtoshkola.alfa";"";"37.85054";"55.70013";"Образование / Работа / Карьера";"Автошколы"
"372";"Аспект, автошкола";"Москва";"улица Богданова, 58";"119619";="+74957407614, +79653302659";"";"http://avtoshkola-aspekt.ru";"https://vk.com/schoolaspekt";"";"37.391844";"55.64812";"Образование / Работа / Карьера";"Автошколы, Мотошколы"
"373";"Стимул-бви, автошкола";"Москва";"Бартеневская, 57 к2";"117041";="+79255170341, +74957151441";"";"http://stimul-bvi.ru/filialy/yuzhnoe-butovo";"https://vk.com/club214407610";"";"37.516466";"55.544782";"Образование / Работа / Карьера";"Автошколы"
"374";"Автрон, автошкола";"Москва";"улица Маршала Савицкого, 18 к2";"117148";="+74951345444";"";"http://av-tron.ru";"https://vk.com/avtron1";"";"37.588844";"55.50315";"Образование / Работа / Карьера";"Автошколы"
"375";"Апекс, центр обучения";"рп. Малаховка";"Шоссейная, 12а";"140032";="+74959833425, +79161404221, +79168194478";"";"http://www.avto-apeks.ru";"";"";"38.008561";"55.642756";"Образование / Работа / Карьера";"Автошколы"
"376";"АВМ, автошкола водительского мастерства";"Балашиха";"Маяковского, 14а";"143980";="+74955221298, +79267838884";"";"http://www.avm3.ru";"";"";"38.000779";"55.746566";"Образование / Работа / Карьера";"Автошколы"
"377";"Автостарт, автошкола";"Балашиха";"Юбилейная, 2 к1";"143986";="+79266813666, +79150906597, +74955225043";"";"http://avtostartschool.ru";"";"";"38.016115";"55.741887";"Образование / Работа / Карьера";"Автошколы"
"378";"Автостарт, автошкола";"Балашиха";"улица Поликахина, 1";"143980";="+79266813666";"";"http://avtostartschool.ru";"";"";"38.000922";"55.74019";"Образование / Работа / Карьера";"Автошколы"
"379";"Ганг люкс, автошкола";"Московский";"Московская, 3";"108813";="+79661943381";"";"http://jivo.chat/avKDneDLWu";"";"";"37.367172";"55.593387";"Образование / Работа / Карьера";"Автошколы"
"380";"Профи, автошкола";"Реутов";"Октября, 28";"143962";="+79255006430, +79859702045";"";"http://schoolprofi.ru";"https://vk.com/school_profi";"";"37.872365";"55.75388";"Образование / Работа / Карьера";"Автошколы"
"381";"Профит, автошкола";"Пушкино";"Сретенская улица, 1 к2";"141205";="+79629629911, +79260311109";"";"http://profitkurs.ru";"";"";"37.863385";"56.024973";"Образование / Работа / Карьера";"Автошколы"
"382";"Лучший водитель, автошкола";"Москва";"Вешняковская, 15а";"111539";="+74954090272, +79260514737, +79777150342";"";"http://luchshiy-voditel.ru";"";"";"37.829673";"55.735405";"Образование / Работа / Карьера";"Автошколы"
"383";"Автокурс, автошкола";"Щёлково";"Финский микрорайон, 3";"141107";="+74954886902,,,103";"";"http://www.autokursplus.ru";"https://vk.com/avtokursplus";"";"37.973816";"55.93771";"Образование / Работа / Карьера";"Автошколы"
"384";"Автолицей, автошкола";"Лобня";"Ленина, 29";"141730";="+79259457115, +74993947115, +74954547115";"";"http://www.автолицей.рф";"https://vk.com/avto_licey";"";"37.468748";"56.009958";"Образование / Работа / Карьера";"Автошколы, Мотошколы"
"385";"Автошкола, Люберецкий техникум им. Героя Советского Союза, лётчика-космонавта Ю. А. Гагарина";"дп. Красково";"Заводская 2-я, 11";"140050";="+79099031182";"";"http://luberteh.ru/avtoshkola.htm";"";"";"37.980384";"55.660685";"Образование / Работа / Карьера";"Автошколы"
"386";"АВМ, автошкола";"Балашиха";"Андрея Белого, 3";"143980";="+79778329121";"";"http://autoschoolavm.ru";"https://vk.com/id546960230";"";"38.007342";"55.742181";"Образование / Работа / Карьера";"Автошколы"
"387";"Гарант, автошкола";"Видное";"Лемешко, 10";"142700";="+79099533335, +79652050517";"";"http://vidnoe-avto.ru/";"https://vk.com/avto_garant_vidnoe";"";"37.7027";"55.557215";"Образование / Работа / Карьера";"Автошколы"
"388";"Автоконсульт, автошкола";"Люберцы";"Смирновская, 21 к2";"140000";="+79672602225, +79586395469";"";"http://akdrive.ru";"";"";"37.893894";"55.680925";"Образование / Работа / Карьера";"Автошколы"
"389";"Автостарт, автошкола";"Балашиха";"Пионерская, 29 ст2";"143987";="+79266813666, +74951522322, +79151999900";"";"http://avtostartschool.ru";"";"";"38.033846";"55.743603";"Образование / Работа / Карьера";"Автошколы"
"390";"Форсаж, автошкола";"пос. ВНИИССОК";"Берёзовая, 3";"143072";="+79100031030";"";"http://www.forsageodincovo.ru";"";"";"37.205092";"55.659597";"Образование / Работа / Карьера";"Автошколы"
"391";"Клаксон, автошкола";"Троицк";"Сиреневый бульвар, 1Б";"108840";="+74958511500, +79854718952, +79296980702, +79032700236";"";"http://troklakson.ru";"";"";"37.29638";"55.467618";"Образование / Работа / Карьера";"Автошколы"
"392";"Автокурспрофи, автошкола";"Москва";"Рождественская, 32";"111677";="+79686162503";"";"http://avtokursprofi.ru";"";"";"37.926706";"55.701065";"Образование / Работа / Карьера";"Автошколы"
"393";"77-регион, автошкола";"Москва";"улица Недорубова, 7";"111677";="+79857641049, +79250441405";"";"http://77-регион.рф";"https://vk.com/club40222917";"";"37.930491";"55.700843";"Образование / Работа / Карьера";"Автошколы"
"394";"Motopraktika";"Зеленоград";"посёлок Назарьево, вл2";"124489";="+79037955009";"";"http://www.motopraktika.ru";"https://vk.com/motopraktika";"";"37.256601";"55.970659";"Образование / Работа / Карьера";"Мотошколы, Автошколы"
"395";"Автолицей, автошкола";"пос. Лунёво";"Зелёная улица, ст19/1";"141580";="+79259457115, +74993947115, +74954547115";"";"http://www.автолицей.рф";"https://vk.com/avto_licey";"";"37.340579";"55.990931";"Образование / Работа / Карьера";"Автошколы, Мотошколы"
"396";"Дорит, учебный центр";"Зеленоград";"2 Пятилетка, 4";"124365";="+74997389577, +79295536748";"";"http://zeldrive.ru";"https://vk.com/doritauto";"";"37.171625";"55.97722";"Образование / Работа / Карьера";"Автошколы, Мотошколы"
"397";"Аксамит, автошкола";"рп. Андреевка";"посёлок Андреевка, ст31а";"141551";="+79032254355, +79032246000";"";"http://www.zel-avtoshkola.ru";"";"";"37.148524";"55.973389";"Образование / Работа / Карьера";"Автошколы"
"398";"Автомобилист, автошкола";"Лыткарино";"Спортивная, 12";"140083";="+79263479303, +79032196946";"";"http://автошкола-западный.рф/";"https://vk.com/ukc_avtomobolist";"";"37.905793";"55.587248";"Образование / Работа / Карьера";"Автошколы"
"399";"Лицеист-2, автошкола";"Дедовск";"Главная 1-я, 3а";"143530";="+74959944040, +79151250448, +74983178996, +79296140954, +79266299218";"";"http://liceist2.ru";"";"";"37.120113";"55.864205";"Образование / Работа / Карьера";"Автошколы, Профессиональная переподготовка / Повышение квалификации"
"400";"Современная, автошкола";"Жуковский";"Гудкова, 3а";"140182";="+79037755165";"";"http://автошколавжуковском.рф";"";"";"38.093906";"55.595037";"Образование / Работа / Карьера";"Автошколы"
"401";"Профессионал, автошкола";"Подольск";"Кирова, 62а";"142117";="+74997071999";"";"http://www.autoschool-pro.ru";"";"";"37.521664";"55.42473";"Образование / Работа / Карьера";"Автошколы"
"402";"Позитив, автошкола";"дп. Кокошкино";"Дзержинского, 6";"108804";="+74956422216, +74958773551, +79258232636";"";"http://avtoshkola-pozitiv.ru";"";"";"37.168527";"55.602799";"Образование / Работа / Карьера";"Автошколы"
"403";"Автопрофи, автошкола";"Жуковский";"Королёва, 6 ст3";"140187";="+74957443094, +74957443104, +79295101397";"";"http://avtoprofi-mo.ru";"https://vk.com/avtoprofimo";"";"38.092855";"55.609298";"Образование / Работа / Карьера";"Автошколы"
"404";"Cfmoto experience";"Москва";"деревня Елизарово, вл1";"";="+74993468985";"";"http://cfmoto-experience.ru";"";"";"37.158244";"55.504563";"Спорт / Отдых / Туризм";"Картинг, Прокат автотранспорта, Автошколы"
"405";"Вектор авто, автошкола";"пос. Отрадное";"Пятницкая, 16";"143442";="+79260931387, +79855148382";"";"http://www.vektoravtootrada.com/";"";"";"37.313779";"55.871414";"Образование / Работа / Карьера";"Автошколы"
"406";"Авто курс, автошкола";"Жуковский";"Королёва, 6 ст1";"140187";="+79268882818";"";"http://автокурс-жуковский.рф";"";"";"38.09223";"55.608842";"Образование / Работа / Карьера";"Автошколы"
"407";"Мастер+";"Москва";"переулок Капранова, 3";"123242";="+79810520470";"";"http://autoshkola-master.ru";"https://vk.com/club214284855";"";"37.572594";"55.757889";"Образование / Работа / Карьера";"Автошколы, Мотошколы"
"408";"Дорит, учебный центр";"д. Голубое";"Тверецкий проезд, 16 к1";"141551";="+74997389577, +79295536748";"";"http://zeldrive.ru";"https://vk.com/doritauto";"";"37.102687";"55.981763";"Образование / Работа / Карьера";"Автошколы, Мотошколы"
"409";"Гарант, автошкола";"Жуковский";"улица Чкалова, 2а ст1";"140185";="+79099533335, +79671271102";"";"http://zhukovskiy-avto.ru/";"https://vk.com/garant_zhuk";"";"38.132619";"55.5892";"Образование / Работа / Карьера";"Автошколы"
"410";"Автошанс, автошкола";"рп. Монино";"Комсомольская, 11";"141171";="+79683348511, +79030145602";"";"http://autoshance.ru";"https://vk.com/public191586344";"";"38.188656";"55.844553";"Образование / Работа / Карьера";"Автошколы"
"411";"Континенталь, автошкола";"Москва";"1-й Дербеневский переулок, 5";"115114";="+74993806982";"";"http://avtoshkola-kontinental.ru";"https://vk.com/autokontinental";"";"37.654227";"55.723846";"Образование / Работа / Карьера";"Автошколы, Мотошколы"
"412";"Онлайн, автошкола";"Чехов";"Садовая, 3";"142301";="+74956663000, +74993220516, +74967221200, +79031286991, +79265798360, +74997555982";"";"http://auto-online.ru";"https://vk.com/avtoshkolaonline";"";"37.476379";"55.142455";"Образование / Работа / Карьера";"Автошколы"
"413";"Чеховский спортивно-технический клуб";"Чехов";"Советская площадь, 5";"142306";="+74967277420, +74967269169";"";"http://www.чстк.рф";"";"";"37.454555";"55.143965";"Образование / Работа / Карьера";"Автошколы, Стрелковые клубы"
"414";"Реал, автошкола";"Раменское";"Карла Маркса, 2";"140100";="+74996819364";"";"http://real-avto.com/?utm_source=2gis&utm_medium=kartochka&utm_campaign=real";"https://vk.com/realavto_el";"";"38.223253";"55.5678";"Образование / Работа / Карьера";"Автошколы"
"415";"Центральная Раменская автошкола";"Раменское";"Советская улица, 2";"140108";="+79299005158, +79251584777";"";"http://c-r-avto.ru";"https://vk.com/cravtoru";"";"38.227965";"55.56598";"Образование / Работа / Карьера";"Автошколы"
"416";"КлаксонАвто, автошкола";"Чехов";"Симферопольское шоссе, 6";"142300";="+79265322525";"";"http://avtoshkola-serpuhov.ru";"";"";"37.466617";"55.165267";"Образование / Работа / Карьера";"Автошколы"
"417";"Форсаж, автошкола";"д. Тарасково";"Центральная, ст1Б";"143370";="+79100031030, +79165374477";"";"http://www.forsageodincovo.ru";"";"";"36.996972";"55.565968";"Образование / Работа / Карьера";"Автошколы"
"418";"Форсаж, автошкола";"Голицыно";"Заводской проспект, 12";"143040";="+79100031030, +79808001030";"";"http://www.forsageodincovo.ru";"";"";"36.98207";"55.615779";"Образование / Работа / Карьера";"Автошколы"
"419";"Миравто, учебный центр";"Истра";"площадь Урицкого, 1а";"143500";="+79037769049, +74983199959";"";"http://avtomir.pro";"";"";"36.862213";"55.913886";"Образование / Работа / Карьера";"Автошколы, Бухгалтерские курсы, Компьютерные курсы"
